,id,name,state,city,zip code,review count,rating,address,categories,latitude,longitude
0,Wg1ridLw4-rVV_RoSaq6AA,Cocohodo,NJ,Closter,07624,28.0,5.0,255 Closter Dock Rd,bakeries coffee bubbletea,40.9723529,-73.9606622
1,PIWVE71TMfG6EcK0OeBCjQ,Gateaux Bakery & Cafe,NJ,Closter,07624,35.0,3.5,570 Piermont Rd,bakeries cafes,40.968964,-73.953928
2,mCddxCyJvT-OrRXtrlcj3g,Bobaly,NJ,Fair Lawn,07410,22.0,5.0,13-20 River Rd,bubbletea shavedice,40.93457362544739,-74.13355718861736
3,wEhVblSf_ks50GC5N_QZGw,Cafe Leah,NJ,Palisades Park,07650,363.0,4.0,225 Broad Ave,desserts cafes coffee,40.84661,-73.99931
4,1OUl9rSRujDqL3Hl32ZWxw,Cafe Mocha,NJ,Palisades Park,07650,237.0,4.0,125 Broad Ave,breakfast_brunch cafes,40.84523,-74.00025
5,2DfawU7cXM2Dmes2SRHWGA,Hapag Filipino Cuisine,NY,Yonkers,10710,107.0,4.0,1789 Central Park Ave,filipino,40.961357,-73.842014
6,0gCUhxXl1rb1myDTZuqBhA,Kudo Society Cafe,NJ,Palisades Park,07650,377.0,4.5,138 W Central Blvd,coffee bubbletea cafes,40.85112,-74.00307
7,qPbl8EBPmY0nF6-BXQxt0Q,The Blossom,NJ,Palisades Park,07650,64.0,3.5,320 Broad Ave,delis breakfast_brunch coffee,40.8487,-73.99685
8,9Vp7QwQDA46i_BsGC3CbFQ,Kona Ice of Central Morris County,NJ,Parsippany,07054,1.0,5.0,,shavedice foodtrucks,40.86204,-74.40612
9,8Zns7XdCBU7DdUsPuVInbA,Tous Les Jours,NJ,Closter,07624,62.0,4.0,40 Homans Ave,coffee bakeries desserts,40.972598,-73.959382
10,5-WmIcDA3CRHXykLIGmmLw,Cafe Oak,NJ,Palisades Park,07650,85.0,4.0,329 Broad Ave,cafes,40.849307,-73.997234
11,7pdx3YznypquKGle-7OOxQ,Cafe Rx,NJ,Cresskill,07670,46.0,3.0,2 Piermont Rd,cafes,40.93771,-73.96225
12,MQ6xAkWJ2JE6fuzXu-hXUA,Caffe Bene - Fort Lee,NJ,Fort Lee,07024,177.0,3.0,1636 Palisade Ave,cafes,40.84985679870758,-73.96812548237237
13,JUPxlDVMxuRSsqMcH6RCVg,Mitsuwa Marketplace,NJ,Edgewater,07020,1770.0,4.5,595 River Rd,japanese sushi intlgrocery,40.8158107608922,-73.9801246070119
14,Rk0uSitjoPuizMQu-ythlA,Palm Trees Dessert,NY,West Nyack,10994,1.0,5.0,4292 Palisades Center Dr,icecream shavedice desserts,41.09801063869928,-73.9568397
15,-HpCsFpk8PwFpbmEELmg6g,Semicolon Cafe,NY,New York,10032,73.0,4.5,9 Edward M Morgan Pl,coffee sandwiches,40.834633,-73.94522
16,RdW058VsL1ouk9z5qVspiw,Ralph's Famous Italian Ices & Ice Cream,NY,Yonkers,10710,40.0,3.5,2353 Central Park Ave,shavedice icecream,40.9789784363249,-73.8306178918062
17,TGB9AaWOtNEV7p6HykPzPQ,Tous Les Jours,NY,Hartsdale,10530,38.0,4.0,371 N Central Ave,bakeries coffee desserts,41.0298075015468,-73.790240995699
18,aH_xLAO-jaeSsbHUav-R0A,Jubilee Chocolate Cafe,NJ,Palisades Park,07650,201.0,4.0,322 Broad Ave,desserts cafes coffee,40.8489702,-73.9969001
19,BMLA6lf380knnH5c1SQw6A,Yeomiji,NY,Scarsdale,10583,187.0,4.0,13 Spencer Pl,korean bbq asianfusion,40.989967,-73.8075672
20,FLRQ-xnaSRmQ9j40Glnvmw,Mama Fina's  House of Filipino Sisig,NJ,Elmwood Park,07407,275.0,4.0,95C Broadway,filipino,40.919642,-74.124352
21,pjtSa2tcTvSEk6II9FxuBA,Mara Mara,NJ,Palisades Park,07650,19.0,4.0,110 Broad Ave,sandwiches breakfast_brunch juicebars,40.8488373683771,-74.00010580000004
22,E3B6-oyidrfFSqLo-nCLrA,Rita's Italian Ice,NJ,Mahwah,07430,18.0,2.5,3 Miller Rd,icecream desserts shavedice,41.094416,-74.1461463
23,j_ZrSx68CG5I1SLhyMQASg,Vietnam's Central,NY,Scarsdale,10583,303.0,4.5,694 Central Park Ave,vietnamese salad bars,40.9983675,-73.8152359
24,_S0-MDuStPumfveTqhpGcA,Jimmy's Soft Serve,NY,Tarrytown,10591,4.0,5.0,81 Sheldon Ave,shavedice foodtrucks icecream,41.06033,-73.85811
25,7pnQSZQ0aH-izOhXzgCtjA,Hudson Anchor Restaurant,NY,Sleepy Hollow,10591,173.0,4.0,222 Beekman Ave,seafood tradamerican cocktailbars,41.0823434191158,-73.8676577433944
26,l8F-LhA_LJgzY4pXeJRiIQ,Soosanghan Pocha,NJ,Palisades Park,07650,111.0,4.0,243 Broad Ave,korean pubs,40.846433,-73.998589
27,5nBBHCtvcJzkwTKmd6AHPA,Mavi's Pizza and Pasta,NJ,Fort Lee,07024,243.0,4.0,237 Main St,bubbletea pastashops pizza,40.852023,-73.97158
28,oRF8tpn0SoXb6QP7qf0iPg,Tea Magic,NY,New York,10025,224.0,3.5,2878 Broadway,coffee juicebars tea,40.8052599,-73.96558
29,x2kM5s7I7bppxsychF2Gbg,Blue whale,NJ,East Rutherford,07073,21.0,3.5,1 American Dream Way,chinese bubbletea,40.80896,-74.07074
30,mGGK3_Zt49HxQaEU-lhIFg,D'avant Bakery,NJ,Palisades Park,07650,192.0,4.0,449 Broad Ave,coffee bakeries cakeshop,40.8515212947963,-73.9955315337295
31,SLddJGls3pIjlt_HAywJtQ,Goosefeather,NY,Tarrytown,10591,181.0,4.0,49 E Sunnyside Ln,cantonese,41.051082,-73.8567606
32,wVZmnDlPDdVHI01_XLfBXQ,Beijing Hot Pot,NJ,Rutherford,07070,61.0,3.5,12 Sylvan St,hotpot chinese,40.827236,-74.1036817
33,cEcfPr95iq4uNkaUVkLtYA,Salsa Bembe,NY,Yonkers,10704,186.0,4.0,811 McLean Ave,bars latin puertorican,40.906942,-73.872127
34,0uk7ctUq9ppLLaAt1ZZK5A,KAI Sweets Cafe,NJ,Edgewater,07020,92.0,3.5,595 River Rd,cafes japanese creperies,40.816245803491384,-73.98001054243791
35,093cfHd4VSqyr5sSjdZmdQ,Mr BBQ,NJ,Englewood Cliffs,07632,233.0,4.0,150 Sylvan Ave,korean bbq,40.87057,-73.95717
36,9_hmh7Auc-KNMnPqSOuqag,Cafe Mignon,NJ,Leonia,07605,33.0,4.5,332 Broad Ave,cafes desserts coffee,40.86239,-73.98785
37,Lx40iKWB2f4PT2q3LCpbgQ,Croton Corners,NY,Croton-on-Hudson,10520,1.0,5.0,124 Grand St,shavedice arcades icecream,41.2088679,-73.8839303
38,4xOPFgrVjxKmRPlfKH-Meg,Binh Duong,NJ,Bloomfield,07003,671.0,4.0,61 Belleville Ave,vietnamese,40.7974008,-74.1816965
39,NXc41clC71XOmSw5c_bvqg,Q Tea Tapas,NJ,Fort Lee,07024,217.0,4.0,242 Main St,bubbletea sushi poke,40.8515995838956,-73.9720886366116
40,V52kefaXO5vykbzd52M_mw,H Mart - Hartsdale,NY,Hartsdale,10530,278.0,4.0,371 N Central Ave.,grocery korean food_court,41.0296601219145,-73.7903970499497
41,YtodbLOZumHLbo97t-1LOg,Tropical Hut,NJ,Maywood,07607,23.0,4.0,104 W Pleasant Ave,filipino,40.9053382309804,-74.0643499852662
42,1Sy1rzU0IvKFd-dukKuoKQ,Delicioso Coco Helado,NY,New York,10025,19.0,4.0,SE Corner Of 96th And Broadway,foodstands icecream,40.7946860945143,-73.971886928185
43,YfC_sbQsHL_Nhn2pInxCwA,Cocohodo,NJ,Palisades Park,07650,41.0,3.5,262 Broad Ave,coffee icecream bakeries,40.847479,-73.997842
44,GxavfPsxlWnRB_98BwkPUQ,Tospia,NJ,Palisades Park,07650,50.0,4.5,215 Broad Ave,cafes sandwiches,40.846011,-73.999499
45,T4yKvlaCm0Y3TeWc2Or5Mg,Bollywood Grill,NJ,Lake Hiawatha,07034,305.0,4.0,435 N Beverwyck Rd,indpak hotdogs sandwiches,40.876017624730835,-74.38157512947225
46,5pTQKdoMv_N1l2q06OFMYg,Empire Nutrition -Montclair,NJ,Montclair,07043,4.0,5.0,598 Valley Rd,juicebars acaibowls healthmarkets,40.84089,-74.20818
47,P6SMP91qNL_hzpj2aqEEWw,Koko Loko Coffee,NJ,Palisades Park,07650,115.0,3.0,322 Commercial Ave,cafes sandwiches,40.851814,-74.001792
48,XnBKN38V-V-ErN0g-0eCTw,Penang Malaysian & Thai Cuisine,NJ,East Hanover,07936,460.0,4.0,200 Route 10 W,thai malaysian,40.8093879,-74.3753335
49,et9pAFtSvNOct9Qcmtcf7g,Mido Japanese,NY,New York,10024,248.0,4.0,612 Amsterdam Ave,japanese sushi,40.7900491,-73.9734598
0,8pl9oj0zdSU6X6Gp-Q3mVg,Rita's Italian Ice,NJ,Pequannock,07440,16.0,4.0,225 Newark Pompton Turnpike,icecream desserts shavedice,40.9472124,-74.2892733
1,5JLhDQviFJpk51SWxRWH7Q,Bamboo Grill,NJ,Bergenfield,07621,88.0,3.5,54 S Washington Ave,filipino asianfusion,40.9261282,-73.9967216
2,SUzHgBnyIMipRHFc0PiXxQ,Rita's Italian Ice,NJ,Glen Rock,07452,25.0,4.0,1020 Maple Ave,icecream desserts shavedice,40.9526238,-74.1360506
3,Ug2_5DOrlfaU1Pce5Lvikw,Garden Shabu & Grill,NJ,Little Ferry,07643,195.0,4.0,1 Valley Rd,hotpot seafood steak,40.854026,-74.033212
4,KGFudcZaG3Q7hv8dVcowvw,Paris Baguette,NJ,Palisades Park,07650,111.0,3.5,408 Broad Ave,bakeries coffee cakeshop,40.85006,-73.99596
5,aIXcqLgAxkQvh_vS9pUltQ,Rita's Italian Ice,NJ,Englewood,07631,16.0,3.5,4 W Palisade Ave,icecream desserts shavedice,40.89385,-73.97562
6,1kzqEbA6fs6RWzT88mO6VA,Paris Baguette,NJ,Fort Lee,07024,85.0,3.5,185 Main St,coffee bakeries cakeshop,40.8511977,-73.9693398
7,svXAPghDQ84t86p-Bhh7iA,Rita's Italian Ice,NJ,Bloomfield,07003,31.0,4.0,1066 Broad St,desserts icecream shavedice,40.8281423896551,-74.1870890557766
8,CA3DTq3dZ8amwd5mJ6MA3g,La Casa Bronxville,NY,Bronxville,10708,39.0,4.0,7 Pondfield Rd,mexican cocktailbars,40.94202,-73.83523
9,1o8jSYyJNZYo3v25jYrkgA,Paris Baguette,NJ,Ridgefield,07657,31.0,3.5,321 Broad Ave,bakeries coffee cakeshop,40.8245490765603,-74.0112469524457
10,HmttG7ZJstbcc4W9hj9b6Q,Rita's Italian Ice,NJ,Lodi,07644,39.0,3.5,184 Essex St,icecream desserts shavedice,40.888806,-74.068588
11,bdkM4D9_OxHvFnkYL224eA,TUCANES Restaurant,NJ,Prospect Park,07508,54.0,4.5,299 N 8th St,latin steak spanish,40.93377,-74.17222
12,QenQiEGzs13ekpcsS3TtiQ,Paris Baguette,NJ,Fort Lee,07024,114.0,3.5,1635 Lemoine Ave,bakeries coffee cakeshop,40.8505398116565,-73.9706432586887
13,bGOnuGMDf9gVfrrnwOgZSQ,Rita's Italian Ice,NJ,Nutley,07110,22.0,3.5,401 Centre St,icecream desserts shavedice,40.8150996155698,-74.1627255088167
14,U_YjeT5GzYSNXEG9dIIUWA,Rita's Italian Ice,NJ,Butler,07405,4.0,2.5,401 Main St,desserts shavedice icecream,41.0050623923216,-74.3426173781482
15,ZL4Te6eHTsB1JXbBsQ4jJg,La Masa Bakery,NY,Bronx,10462,33.0,4.0,726 Lydig Ave,bakeries coffee colombian,40.854393,-73.8665434
16,gZNsdzoWMSE2NEnWv77d1Q,Rita's Italian Ice,NJ,Little Falls,07424,16.0,4.0,66 East Main St,desserts icecream shavedice,40.879447,-74.221656
17,bYfdVbxXrSv9vrA7ZXEWAw,Rita's Italian Ice,NJ,Wood-Ridge,07075,15.0,2.5,191-2 Hackensack St,icecream desserts shavedice,40.8471068087889,-74.0829559799039
0,sTQJwv9dQlAEF5RhLGgEaA,Eat Study & Sip,NY,Nanuet,10954,32.0,4.5,199 Main St,cafes,41.089991,-74.013422
1,m373xP6IQofjzRfuJJEJGA,iGrill,NY,Nanuet,10954,98.0,4.0,402 Market St,hawaiian coffee bubbletea,41.0929881649604,-74.0135977979782
2,BxYEXcjVFYrwGZerFRO5Lg,Kung Fu Tea,NY,West Nyack,10994,35.0,3.5,1000 Palisades Center Dr,juicebars bubbletea coffee,41.097151,-73.9561530650297
3,jC47ekBT3hT3teOJ7a8g9Q,Blossom Root Asian Cuisine,NY,New City,10956,14.0,4.5,48 S Main St,asianfusion desserts noodles,41.14572,-73.98951
4,-3pNRspw4groe_BMbfm3QA,Maki Maki,NY,New City,10956,36.0,4.0,200 S Main St,ramen sushi bubbletea,41.1399369586024,-73.989507569533
5,Qzi4zhVsIsTlE76qgMfz_Q,Zabb Thai Kitchen,NY,West Nyack,10994,2.0,5.0,724 W Nyack Rd,thai salad soup,41.0943177092791,-73.96862260000002
6,thq3C0yeUm2i0pCHKOm4mg,Zabb Thai Kitchen,NY,West Nyack,10994,6.0,5.0,724 W Nyack Rd Suite,thai,41.09439,-73.9686
13,WkI4HbTsAwU9HSGdmKxC8g,Y&E Creations,NY,Middletown,10941,9.0,5.0,1 N Galleria Dr,desserts donuts shavedice,41.452845,-74.368394
7,gUm06uF597mv6QwNO1MusA,Thai Cafe 88,NY,Haverstraw,10923,20.0,4.5,2 Suffern Ln Garnerville Ny 10923,thai,41.20762,-73.99788
1,51Xq1pj1ebobbY-Kgyxw3A,Bubble in Paradise,NJ,Denville,07834,59.0,4.5,38 Broadway,bubbletea juicebars shavedice,40.892303,-74.476839
6,X23tWTL2F3dVTo7RW373ag,Cafe Auburndale,NY,Flushing,11358,212.0,4.0,192-10 Northern Blvd,coffee desserts sandwiches,40.7576076,-73.7890946
8,k0rgC1UdwEe3pm76dlbvJw,Super Scoops,NJ,Parsippany,07054,39.0,4.5,325 Parsippany Rd,icecream desserts shavedice,40.8550188,-74.4270782
9,5JD5bSOGUF-sfGipg5BuvA,Sunshine Ice,NJ,Weehawken,07086,89.0,4.5,4514 Park Ave,juicebars coffee shavedice,40.7775611057456,-74.0181209519506
11,_yVOkHhsj8bOKfra5aQLIQ,Coffee Story,NY,Flushing,11354,16.0,5.0,152-22 Northern Blvd,coffee bubbletea desserts,40.764700604740355,-73.8121653
12,IkyRp47Jpbk_AQ35qlr-eg,Bird & Branch,NY,New York,10036,359.0,4.5,359 West 45th St,coffee desserts,40.7603099,-73.99087
14,wCiHa1cJ2p_8kWt-j7QCDA,Coffee Monster,NY,Flushing,11358,133.0,3.5,41-12 162nd St,desserts coffee shavedice,40.76101,-73.80417
15,XBrAj-qf4jjPo--1TBApHQ,Rita's Italian Ice & Frozen Custard,NY,Middletown,10940,9.0,3.5,92 Dolson Ave,juicebars shavedice icecream,41.43235012619822,-74.42294247361069
16,h-ULtMDeM-4psdx6UlL5Ng,Flower and Dessert 次第花开,NY,Flushing,11354,56.0,4.0,133-40 37th Ave,desserts chinese,40.76048,-73.83345
17,-JXnU5QdCHBc6oPHXKwz_w,Yedang,NY,Bayside,11361,63.0,3.5,210-03 Northern Blvd,cafes desserts,40.7595661239056,-73.7727699056268
18,LTB801VOOXfVt4GK7Vmf2A,Nana's Ice Cream & Grill,NY,Hyde Park,12538,12.0,4.5,864 Violet Ave,icecream sandwiches,41.77137,-73.90898
20,qR2WY9-eAxZpHFCK6ck3vw,Snow Show,NY,Flushing,11355,64.0,3.5,133-33 41st Ave,shavedice desserts shavedsnow,40.7576245267984,-73.8308786188926
21,roSAq0cm47C3eqDqrSq9ow,Cafe 1 Of A Kind,NY,Great Neck,11362,802.0,4.5,255-13 Northern Blvd,coffee breakfast_brunch,40.77253,-73.73454
22,UHLQ0S5ndP1JIkEjziZzQg,Hana Soya,NY,Flushing,11355,8.0,4.5,41-19 Kissena Blvd,desserts,40.75821,-73.82876
23,PSvmKoXb8vpLgh-LbcEvXQ,GREY Cafe,NY,Flushing,11358,152.0,4.5,195-19 Northern Blvd,cafes coffee sandwiches,40.758187,-73.7860161
24,Keo41lSMGSfoe9GMjkJ5Zw,Coffee Factory,NY,Flushing,11354,266.0,4.0,40-18 150th St,desserts coffee,40.763194039464,-73.8142673671246
26,yJD5fQRU8WySgvE9U_wd7Q,Cafe Terrace,NY,Bayside,11361,97.0,4.0,208-17 Northern Blvd,cafes,40.75905,-73.77505
28,amsqC-C-_WTU1L87XLL-UQ,UNICORN GLOW,NY,Flushing,11354,47.0,4.5,141-47 Northern Blvd,coffee breakfast_brunch,40.7647386302136,-73.8240568509854
30,4GZV8h_Sa_jq1hEKF85kkg,Eemas Cuisine,NJ,Orange,07050,4.0,5.0,406 Tompkins St,hawaiian filipino catering,40.7666141,-74.2462922
32,XBqUX8iJl_NRJQz0xHyRyg,Coffee Monster - Whitestone,NY,Whitestone,11357,53.0,4.5,22-30 154th St,cafes,40.7779352,-73.8093158
33,OvCCSwZuQ_x3czY5W2TZZQ,Rita's Italian Ice,PA,Stroudsburg,18360,6.0,3.5,1319 N 5th St,icecream desserts shavedice,41.00157,-75.19848
34,jKr0EQUrEyGu6HuX_xHl5g,520 Dessert,NY,Flushing,11354,359.0,3.5,133-53 37th Ave,desserts bubbletea icecream,40.7610699,-73.83315
41,YRmFWbhGeJJFRslXvSj6Dg,Fresh U,NY,Queens,11361,33.0,5.0,45-54 Bell Blvd,juicebars markets coffee,40.75869762687516,-73.76880349999999
43,WwiQM06S-rTtXY4mXB4FuQ,Cocohodo,NY,Flushing,11358,156.0,3.5,158-07 Northern Blvd,desserts coffee shavedice,40.7634951174259,-73.8071145862341
45,c3aWKZ3DoA932pqyZ4u-QQ,Coffee Monster,NY,Flushing,11355,18.0,2.5,149-40 41st Ave,coffee,40.762210016716,-73.8142801076174
49,ZLo3HRSSvN--Mw4eCBLxCg,Mango Mango Dessert,NY,Flushing,11354,622.0,4.0,136-28 39th Ave,desserts icecream bubbletea,40.7603809317017,-73.8294516357502
2,p04KtAlIOpzYccg0x3hf1Q,Acai Express,NJ,Rockaway,07866,38.0,3.0,395 Mt Hope Ave,acaibowls juicebars,40.90740957252784,-74.55890110203372
5,BeL9ZoZZnpePM5k-Jp1kqw,Rita's Italian Ice,NJ,Flanders,07836,5.0,3.5,286 Route 206,desserts shavedice icecream,40.832215,-74.71007
6,iWX3E4w0Bn_ar0UnwLIuKQ,Meet Fresh,NY,Flushing,11354,9.0,3.0,133-36 37th Ave,bubbletea desserts,40.760446,-73.8337502
8,XKDHsS8PevoEdFLNtt05FA,Shuya Cafe De Ramen,NY,Astoria,11103,317.0,4.5,42-13 Broadway,ramen,40.758007205736,-73.9167939666258
15,j1x37tGUHqpS0S85pi-LqQ,Cafe Bench,NY,Flushing,11358,741.0,3.5,194-07 Northern Blvd,cafes,40.7580449,-73.7873649
16,_yIN5PPNJ05YKPKuF9KkbQ,Saigon Subs & Café,NJ,Morristown,07960,442.0,5.0,98 Elm St,vietnamese bubbletea sandwiches,40.796422,-74.474255
17,ECWYXOzJkkcc7FfFlz-HMA,vine tree,NY,Flushing,11354,27.0,3.5,150-13 Northern Blvd,coffee korean,40.7654419,-73.8145523
18,kfbRpqulGPEtfV1MtmgWqw,Bakery De Paris,NY,Flushing,11358,49.0,4.0,42-35 162nd St,bakeries coffee,40.759166,-73.803863
21,web6m4jvI_IRHDhBNOdgUQ,Lulu & Dino,NY,Bayside,11361,31.0,4.0,219-02 Northern Blvd,coffee bakeries,40.76103,-73.76253
23,MNMFWEH1byvWhF7t7HeMjw,Ralph's Famous Italian Ices,NY,Williston Park,11596,31.0,4.0,127 Hillside Ave,icecream juicebars,40.756333,-73.6443768
26,KBidOWz0clYioxvlmUsOKw,Cinders Wood Fire Grill,NJ,Mine Hill Township,07803,241.0,3.5,319 US-46,bars italian breakfast_brunch,40.88020802932819,-74.60716923917002
28,Zld3i2mC6GhVKBmqLB26zQ,Ralph's,NY,Astoria,11102,6.0,4.5,30-02 30th St,shavedice icecream juicebars,40.767157,-73.922524
29,blQhf-nMBBp0O2wRXBkyeg,Malay,NJ,Morristown,07960,267.0,4.0,147 Morris St,thai malaysian asianfusion,40.7965176,-74.4744841
30,W-drUupbzZmbq8QwNG7mDQ,New World Mall Food Court,NY,Flushing,11354,889.0,4.0,136-20 Roosevelt Ave,food_court,40.7593304514751,-73.8291516155005
35,CPv_PzTVuk2q-8Ndi6pXaQ,OK Ryan Restaurant,NY,Flushing,11355,182.0,4.0,4104 College Point Blvd,chinese taiwanese,40.7559317,-73.833735
36,eMPpgfTIZt-qEZWO1VzvFw,City Kitchen,NY,New York,10036,485.0,4.0,700 8th Ave,food_court,40.75857539207855,-73.98851840000066
37,KQhsU3i6CIrwzoOxPlThng,Kulu Desserts,NY,Flushing,11354,309.0,3.5,37-06 Prince St,desserts asianfusion,40.7604922983047,-73.8330032676458
40,21t-nECNFK3w4tuba-GmPw,Cafe Toast,NY,Flushing,11358,24.0,4.0,4106 163rd St,coffee bakeries bubbletea,40.76125,-73.8030871
41,BsDu_kup3lJ2QHb-Botpeg,Covacha,NY,New York,10023,75.0,4.5,368 Columbus Ave,mexican,40.78110489839311,-73.97644500326436
43,5Sz7j2FXRqQC5Bo_O8gpeQ,Fujiyama,NJ,Hackettstown,07840,196.0,4.0,1954 Rte 57,japanese sushi,40.8217247,-74.8355534
44,diCW3Pj1PTVRSyol_d7cZw,Chef's Table at Brooklyn Fare,NY,New York,10018,577.0,4.5,431 W 37th St,japanese seafood,40.7561930774282,-73.9966090932068
45,CsoL2_OdT9SLC5MsfWM1PA,Cafe Morning of New York,NY,Flushing,11358,55.0,3.5,158-14 Northern Blvd,cafes,40.7629299,-73.8067402
46,KvyBzPAQZX71Yxd9Yf9zGg,Noches de Colombia,NJ,Randolph,07869,262.0,3.5,140 Route 10 W,colombian spanish bars,40.874144,-74.539645
2,KiPTSHk23by-8Y0PlroGKw,Rita's Italian Ice,NJ,East Orange,07018,14.0,4.0,513-517 Main St,icecream desserts shavedice,40.766221,-74.217565
3,BNyT4ticLRnaE6SF6HTAiQ,C Fruit Life,NY,Flushing,11354,122.0,2.5,13529 Roosevelt Ave,desserts juicebars bubbletea,40.7593169,-73.8309479
6,fvAPtk-nOfDFjXdLZGd7TA,Jollibee,NY,New York,10018,417.0,3.5,609 8th Ave,hotdogs filipino chickenshop,40.75576552343539,-73.99116373434124
7,qrncvjkiKN5Z-JC06ygy6A,Hutong,NY,New York,10022,397.0,3.5,731 Lexington Ave,dimsum cocktailbars breakfast_brunch,40.761551,-73.967443
10,a-Bq_yXFVk2PptoWpmry3w,Pye Boat Noodle,NY,Astoria,11106,907.0,4.5,35-13 Broadway,thai noodles,40.76043,-73.92152
11,MudZO8HTIUUEH8zjb9Hn5A,Bilao Filipino Cuisine,NY,New York,10021,122.0,4.0,1437 1st Ave,filipino,40.769598,-73.955068
12,lc8oROJ67VcPqJd33zDvOg,Tea Magic,NY,New York,10023,41.0,3.5,239 W 72nd St,bubbletea,40.7793834898764,-73.9829937368632
14,fFbbQLGkb8DAtZXWeiC8YA,One For The Road,NY,Flushing,11354,60.0,4.5,40-25 150th St,coffee sandwiches bakeries,40.7633522,-73.8140952
19,hPUrM1JgVqg4LuZdjCZbIw,Ten Ren Tea & Ginseng,NY,Flushing,11354,287.0,4.0,13518 Roosevelt Ave,coffee,40.758967,-73.831251
20,RjeW_l8OF99rn5df5-Rj4g,Totto Ramen - Midtown East,NY,New York,10022,1221.0,4.0,248 E 52nd St,ramen,40.756155,-73.968141
22,pCG5nTI-kXJBpHLPM6IyZg,Gateaux Bakery & Cafe,NY,Flushing,11354,4.0,4.5,150-24 Northern Blvd,bakeries cafes,40.7650773,-73.8142652
23,_tHF8-3rbyMesgdkQzB2yQ,Serendipity 3,NY,New York,10022,4382.0,3.0,225 E 60th St,newamerican burgers hotdog,40.761851,-73.9649001
24,WyiTT3VHjzowMnOnUpZ7TQ,Empellón,NY,New York,10022,376.0,4.0,510 Madison Ave,mexican cocktailbars desserts,40.75972,-73.97472
25,-Exv1AEsaKU6Cdb2TO_ZUg,The Lobster Club,NY,New York,10022,112.0,4.0,98 E 53rd St,sushi japanese asianfusion,40.758301,-73.971868
27,EtgNqPyHjN2sCi_LTXvAIQ,Bagel Crepas Cafe,NJ,West New York,07093,30.0,2.5,5520 Hudson Ave,breakfast_brunch creperies burgers,40.7842859330971,-74.0147852547378
28,Hm0odAmyV1K-Rcb1jdfBYw,Mojoilla Fresh,NY,Flushing,11354,109.0,3.5,136-20 Roosevelt Ave,creperies desserts,40.75933,-73.8291799
29,vu3pG38Wdyr7aFuuJVgqyw,ViVi Bubble Tea,NY,New York,10036,305.0,3.5,607 9th Ave,bubbletea taiwanese,40.7593397667085,-73.9921604184253
30,J8gvOeZaePYXsJuGwRBwwg,Paris Baguette,NY,Bayside,11361,215.0,3.5,210-20 Northern Blvd,bakeries coffee cakeshop,40.7593888,-73.7719048
31,c06A8F4Z3hP5tJ2VetxCjA,Hahm Ji Bach,NY,Flushing,11354,1234.0,4.0,40-11 149th Pl,korean,40.763106,-73.814917
32,iIcUpEOjMLuzAIfyY_vgYA,PappaRich Flushing,NY,Flushing,11354,691.0,3.5,One Fulton Sq,malaysian,40.759569,-73.832392
33,wLwmVW6-uzRciuWUOOiTug,Monchy's Colombian Grill,NJ,Dover,07801,34.0,2.5,19 Bassett Hwy,colombian,40.885074,-74.559416
34,5KQuP5ddTH1-ECdbn1ONlA,Paris Baguette,NY,Flushing,11354,467.0,3.5,136-17 39th Ave,bakeries coffee cakeshop,40.7605318,-73.8297948
35,SxKvgnkMMZdhBJcxxKQnww,Nobu Fifty Seven,NY,New York,10019,1321.0,4.0,40 W 57th St,sushi japanese,40.7636210840864,-73.9765048613641
38,nIYdswP9v_SbE4-dqY9PFA,Rita's Italian Ice,NJ,North Arlington,07031,15.0,3.0,50 River Rd,icecream desserts shavedice,40.78726,-74.14474
39,-Rat_jVuOv_HTYjHqooGzw,Malay Restaurant,NY,Flushing,11354,342.0,4.0,13517 40th Rd,malaysian noodles soup,40.7588141532412,-73.8303136825562
41,DgzQP-fH8ITqt-iYVvekbw,Gata Golosa Astoria,NY,Astoria,11106,27.0,4.0,30-18 Broadway,colombian cafes breakfast_brunch,40.761992,-73.925725
43,wx9mXol6jOrUoAK4vaFS9Q,Mission Ceviche,NY,New York,10021,561.0,4.5,1400 2nd Ave,peruvian,40.7692325,-73.9578759
45,QJTLAOMNvhV1_jPfcQ_qPw,Nippon,NY,New York,10022,184.0,4.0,155 E 52nd St,sushi japanese,40.75743,-73.97042
46,clF03gTQxdty6rzvMxSfNg,Yee Mei Fong Cafe,NY,Flushing,11354,1.0,5.0,135-11 40th Rd,cafes,40.758699,-73.831213
47,8YMsuAk1ZUlObebOsZzFgQ,Paris Baguette,NY,Flushing,11372,61.0,3.5,88-16 Northern Blvd,coffee bakeries cakeshop,40.75593,-73.87908
48,rGjcrXMlp_i-DJVOObtV5A,Tous Les Jours,NY,Flushing,11354,248.0,3.0,39-02 Union St,desserts coffee bakeries,40.7609383016825,-73.8268576562405
49,H_KyiRhwho8rdlw_R93_0Q,Marea,NY,New York,10019,2210.0,4.0,240 Central Park S,italian seafood wine_bars,40.7674213694566,-73.9810554368179
0,utItnelwAbkxF6GGHVopSg,Pho Hoang,NY,Flushing,11355,250.0,3.0,41-01 Kissena Blvd,vietnamese cantonese,40.7584358006716,-73.8293903321028
1,0sFAy3tueTdZYIywI_87AA,Paris Baguette,NY,Flushing,11354,194.0,3.5,156-24 Northern Blvd,coffee bakeries cakeshop,40.7635157983811,-73.8088456168771
2,exE-QJxK5e2ZorsLkGuULw,Paris Baguette,NY,Flushing,11354,45.0,3.0,29-44 Union St,coffee bakeries cakeshop,40.7709525,-73.8267506
3,4IbAUyetZltHdEi82LI88w,Kung Fu Tea,NY,Flushing,11354,275.0,3.5,136-20 38th Ave,coffee bubbletea juicebars,40.7606726,-73.829559
4,Y5NjZuIkWnV-ntd7BeUjzg,Happy Lamb Hot Pot,NY,Flushing,11354,670.0,4.0,136-59 37th Ave,chinese mongolian hotpot,40.762281,-73.829041
5,rufs9T2rWkejPNdWhd1gNA,Pho Bang Restaurant,NY,Flushing,11355,535.0,3.5,4107 Kissena Blvd,vietnamese,40.758418,-73.829069
0,gwY6anQtnc5PbZKMZuu0pQ,Kung Fu Tea,NY,Middletown,10940,49.0,4.5,125 Dolson Ave,bubbletea coffee juicebars,41.4272907953458,-74.426985435139
1,hnlNKptTPoKFPvh8AI80MQ,ChiFood Bistro,NY,Warwick,10990,8.0,4.5,2 Oakland Ave,asianfusion,41.25578,-74.36032
2,Ye3NbTXZ0hnUOjQb7NOk4A,Bubble Tea Ology,NY,Monroe,10950,8.0,3.5,56 Millpond Pkwy,bubbletea,41.328378343484715,-74.18894139999999
3,AiADv8STxkyRws7xBp48gg,The Daily Bean,NJ,Vernon Township,07462,106.0,4.5,514 Rt 515,coffee sandwiches waffles,41.193312,-74.485256
4,wipkYXu2UB7724VUQ0sWrQ,Green Shack,NY,Monticello,12701,4.0,5.0,422 Broadway,salad wraps juicebars,41.655279,-74.686728
5,U4sb6dXCA0tXl_BhhUlxug,BoBo Z Bakery,NJ,Mahwah,07430,16.0,5.0,9 Miller Rd,bakeries bubbletea customcakes,41.09438,-74.1460733
6,5TVfVKyOfFo2p3YFX9l3hw,Gong Cha,NY,Woodbury,10917,2.0,3.0,714 Racetrack Ln,bubbletea,41.31627599999999,-74.1243
7,pNziGahf0dgWa2nfavW2eA,Milfords Daily Grind,PA,Milford,18337,8.0,3.5,115 7th St,coffee desserts,41.32454,-74.80838
8,WpKbXfOMgyvH56SUQjbAYg,Blueberry Frozen Yogurt,NJ,Mahwah,07430,20.0,4.5,117 Franklin Tpke,icecream bubbletea acaibowls,41.099753,-74.144919
9,rbcIc6MZNwIqHiAQX7ouUw,Toppings Frozen Yogurt,NY,New Windsor,12553,30.0,4.0,287 Windsor Hwy,icecream bubbletea acaibowls,41.4678892596656,-74.047899734222
10,6ZEo0GihFYKneOMnHqNNxw,Sushigo,NJ,Mahwah,07430,21.0,4.5,190 Franklin Turnpike,sushi,41.095072,-74.145748
11,BBecYPa7vZN9Hzp1nCCj8w,Seafood Village,NY,Newburgh,12550,62.0,3.5,47 N Plank Rd,sushi poke seafood,41.5229211022623,-74.0297336610453
12,Uj0p2MVkNhWDdb4X9dtWDw,New Sai Gon Pho,NY,Newburgh,12550,78.0,4.0,202 S Plank Rd,vietnamese,41.5268814977678,-74.0702969580889
13,yCyqhVB8ERio8a6mpBQUOg,Jade Bistro,NY,Suffern,10901,63.0,3.5,25 Lafayette Ave,sushi chinese thai,41.115982,-74.153536
14,M84RSr63EsmLUKacgZLGDQ,Jay's Thai Kitchen,NY,Suffern,10901,168.0,4.0,57 Lafayette Ave,thai beer_and_wine,41.1156209364221,-74.1520102488114
15,XFwzLU07j0vjqu0gXPPWCA,Hibachi Go,NY,New Windsor,12553,13.0,3.5,334 Windsor Hwy,japanese hotdogs,41.462873342461016,-74.0526650374189
16,W0Yptq80F-rcfy9izFAxRQ,Umi Teriyaki,NY,Central Valley,10917,33.0,1.5,498 Red Apple Ct,japanese,41.316137,-74.125984
17,4i9Xp63V1KWN6ABFQrs2yw,China One,NY,Newburgh,12550,20.0,2.0,691 Broadway,chinese thai,41.5019813646045,-74.04029040883256
4,q64J5ZJjqPlLQU9y1cuD7g,Bibille,NY,Tarrytown,10591,281.0,4.5,14 Main St,korean bubbletea,41.07618,-73.85905
7,OGmE5I5zxTBnKa8X-N_rGQ,Go Greenly,NY,Dobbs Ferry,10522,44.0,2.5,1 Cedar St,icecream bubbletea juicebars,41.014908,-73.870329
9,eovnycaUOp_YdXnTfAjSiQ,Taste Of China Chinese,NY,Tarrytown,10591,136.0,3.5,17 Main St,chinese,41.0767,-73.85912
4,MKYhiSeXjahxh9O4Gqnimw,Grace Street,NY,New York,10001,2913.0,4.0,17 W 32nd St,coffee desserts shavedice,40.7478576793883,-73.9865590631962
7,dzwa-zvkW6L2ZUGyNGrmuA,Sweetory,NY,Jackson Heights,11372,90.0,4.5,71-28 Roosevelt,desserts,40.74635,-73.89383
20,wH2hXRoFORQXF319oCGmWw,Sweets Laboratory by Hanamizuki,NY,New York,10001,12.0,5.0,143 W 29th St,desserts japanese,40.747539,-73.991601
27,OFfZUS-nu6NDnsWe1B2bUQ,Tonchin,NY,New York,10018,1555.0,4.5,13 W 36th St,ramen izakaya,40.7502727,-73.9844951
39,qq27O2FIvXfhyzT2jSVgUA,Nana's Ice Cream & Coffee House,NY,Westbury,11590,193.0,4.5,225 Post Ave,icecream cafes desserts,40.7566003489503,-73.5880216956139
41,kiKUF11kNgEnM__P11nrig,Tea Cup Cafe,NY,Elmhurst,11377,141.0,4.0,76-23 Woodside Ave,thai bubbletea noodles,40.7440056330087,-73.8885498046875
44,j53yVwU29q7aQBz3TtPiRQ,Mango Mango,NJ,Hoboken,07030,70.0,4.0,620 Washington St,desserts waffles icecream,40.744176,-74.029151
45,hyveq4QHwx31tKKVZfkPOw,Ippodo Tea,NY,New York,10016,225.0,4.5,125 E 39th St,tea japanese,40.7498614,-73.9777215
46,ym-ZgwQ2ovryPAdm0xUJEg,Lin Garden,NY,Flushing,11355,67.0,4.5,42-35 Main St,salad juicebars sandwiches,40.7544332742691,-73.8278661668301
3,N6gEHzQk_fueGwxm-fw1LA,Raspados Yesenia,NY,Long Island City,11103,6.0,5.0,48 Northern Blvd,streetvendors shavedice,40.7537356102613,-73.914439781481
6,byNxzNIqXMVBBF1XKlZVwA,Guiradelco,NY,Westbury,11590,100.0,4.0,324 Post Ave,filipino intlgrocery,40.7605178,-73.58769879418534
8,xZ96vaoL-cQjfotmUKtjJQ,Barn Joo 35,NY,New York,10001,2180.0,4.0,34 W 35th St,korean gastropubs tapasmallplates,40.74964,-73.98582
10,K8KF4qgF97Qry_W4VEfJ7Q,Nieves Tia Mimi,NY,Elmhurst,11373,25.0,4.0,89-14 Roosevelt Ave,shavedice icecream candy,40.748132,-73.87731
11,aoaH3DJub24MkqMsBzew-Q,Semicolon Cafe,NY,New York,10016,50.0,4.5,516 A 3rd Ave,coffee sandwiches,40.746243585426775,-73.97810199999999
15,OR9oqAJW-U5ZnqhwH12Nuw,Khao Nom,NY,Elmhurst,11373,135.0,4.5,42-06 77th St,desserts thai,40.7432731562959,-73.8879961885031
20,fX_E2J6LqK6u77zNa8xyJQ,JUA,NY,New York,10010,176.0,5.0,36 E 22nd St,korean,40.739694,-73.987832
22,8Po2pNB3rGo0N0jJ2-5CjA,Broadway Food Mart,NY,Elmhurst,11373,6.0,4.0,8320 Broadway,grocery delis,40.740601,-73.87954
24,wbvDtrLkwPNFr4eOgTCiBg,Ice Riders,NY,Long Island City,11101,1.0,4.0,5-29 46th Ave,shavedice,40.7475815,-73.9542618
27,W1L0UB1MvlhvkKTF43emSA,Jaew Hon New York,NY,Jackson Heights,11372,221.0,4.5,71-30 Roosevelt Ave,thai hotpot,40.7464487,-73.8938216
30,Tjo8JXQzoBwvw_QYicejiw,Ding Food Market,NJ,Harrison,07029,113.0,5.0,241 Harrison Ave,japanese taiwanese asianfusion,40.7461823757412,-74.1584174860186
40,SmLFW1Ncg26KfVRVX3GVFQ,Little Mad,NY,New York,10016,97.0,4.5,110 Madison Ave,newamerican korean,40.74502,-73.98513
42,QirEbcHa6wXkkVnDpO5cqQ,Chloe's Soft Serve Fruit Co,NY,New York,10003,529.0,4.0,25 E 17th St,icecream juicebars desserts,40.73733,-73.99058
45,KVAq9pPpngkuKk2YJRgDVw,Acai Ya Later,NJ,Hoboken,07030,140.0,4.0,203 Washington St,acaibowls juicebars vegan,40.738863428563555,-74.03026140561042
48,yQDP-BgGKNUeyUeto9Fr1g,Angel Azul Bakery Cafe,NJ,Jersey City,07307,46.0,4.5,460 Central Ave,bakeries breakfast_brunch cafes,40.75032,-74.04607
49,k4gjW43heYHHFbrJwDNdmA,Anda Cafe,NY,Elmhurst,11373,238.0,3.5,83-31 Broadway,bubbletea shavedice taiwanese,40.74072,-73.87902
1,pCfGgX0WxGASGM4-Yhr2Pw,Hao Noodle Chelsea,NY,New York,10014,491.0,4.5,343 W 14th St,chinese bbq noodles,40.7406999,-74.00436
3,WQUfcgKZZe3siRXkkkwMHg,Purple Dough,NY,Woodside,11377,181.0,4.0,38-05 69th St,bakeries desserts filipino,40.7468627,-73.896251
8,Yx6xDJBEmC8oTAmIEzDRag,Tous Les Jours,NY,New York,10001,804.0,3.5,31 West 32nd St,desserts bakeries coffee,40.7479385,-73.9870117
10,qkLneEcNorM7zbD8nXb2gQ,Meet Fresh,NY,Queens,11101,11.0,4.0,44-46 23rd St,desserts bubbletea taiwanese,40.74789298560641,-73.94514075505349
11,C9brsXcyM6-5kHZPbvnofg,Renee's Kitchenette & Grill,NY,Woodside,11377,256.0,4.0,6914 Roosevelt Ave,filipino,40.746177,-73.895652
17,rIffjoP3a6ra0J-CDX_BNQ,Machi Machi,NY,New York,10001,269.0,3.5,33 W 32nd St,bubbletea,40.748008,-73.986959
21,8_6g0JiTJb_B22drsDq3DQ,Shaka Kitchen,NJ,Hoboken,07030,95.0,4.0,110 Washington St,breakfast_brunch vegetarian cafes,40.73794,-74.03112
22,vt_dcJeApljC1dLUPOmL3A,Bakery La Casa de Los Antojitos,NY,Jackson Heights,11372,17.0,4.5,81-08 37th Ave,bakeries icecream cafes,40.749435,-73.8848299
23,w3y-HuLvbpMDBkA1FQj9PA,Rita's Italian Ice,NJ,Hoboken,07030,89.0,4.0,121 Washington St,icecream desserts shavedice,40.73808,-74.03033
25,nI1UYDCYUTt23TpGxqnLKg,Buddakan,NY,New York,10011,4258.0,4.0,75 9th Ave,chinese bars asianfusion,40.7422762672197,-74.0048000961542
27,GT1OdWlLO9kRQf0SEOrrVA,Lahi,NY,Elmhurst,11373,129.0,4.0,51-24 Van Loon St,filipino,40.7373622,-73.879388
28,87NNC8Xv_0oYMNW8ne9qzw,El Palacio de Los Cholados,NY,Jackson Heights,11372,82.0,4.0,83-18 Northern Blvd,juicebars colombian,40.7555463,-73.8841396
31,8WfX23CoBT3eOOyHoJqHTA,Kabayan Bistro Lounge and Banquet,NY,Woodside,11377,16.0,4.0,69-09 Roosevelt Ave,filipino lounges,40.74656,-73.89581
36,-4pMakL1204UWQMZho5-Lw,Prontito,NY,Elmhurst,11373,111.0,4.0,40 25 Forley St,juicebars burgers colombian,40.747706,-73.880471996963
38,V7axrZMXkFp786S5x2Orsw,Yun's Cafe and Asian Mart,NY,Jackson Heights,11372,52.0,4.5,7305 37th Rd,cafes burmese,40.7472668689568,-73.8922200724483
40,XN-yzSrrbBnaLpefu93zlA,Paris Baguette,NY,Sunnyside,11104,77.0,3.5,45-22 46th St,bakeries coffee cakeshop,40.742522,-73.9189917
41,r4FfpVF0v48QznLawd4w8w,Queens International Night Market,NY,Corona,11368,351.0,4.0,47-01 111th St,foodstands festivals theater,40.747311,-73.8531885
44,6FZf17rNThWKoF4EU18wnw,Yakiniku Futago,NY,New York,10011,411.0,4.0,37 W 17th St,japanese bbq steak,40.738851870947,-73.9941236398979
45,t9Eqb50YeIcmS0b0t8mH4A,People's Pops,NY,New York,10014,174.0,4.0,W 16th St & 10th Ave,icecream foodstands,40.743258020652,-74.0072439711639
46,hcMoQDajkgihtGgNwL7k6w,K. Pacho,NY,New Hyde Park,11040,882.0,3.5,1270 Union Tpke,mexican venues cocktailbars,40.75271233,-73.69951483
47,dJdIEYv56jTBkU6hAnSypw,Awang Kitchen,NY,Elmhurst,11373,181.0,4.0,84-05 Queens Blvd,indonesian,40.737338,-73.8792701
48,J9UA6rzI5WW_cDGjwDnF5g,Tsurutontan Udon Noodle Brasserie,NY,New York,10003,2107.0,4.0,21 E 16th St,japanese noodles soup,40.73678,-73.9910699
49,RYoc4EBUNOtgbg7c32OG9A,Atoboy,NY,New York,10016,487.0,4.5,43 E 28th St,korean tapasmallplates asianfusion,40.74364,-73.98456
1,a-7_DsSqqrF95qiLamFqmg,People's Pops,NY,New York,10011,1.0,4.0,425 W 15th St,shavedice icecream,40.7464969,-74.0094471
2,dMe1eni3-zoz1gFZTZpjGA,Caffe Bene,NY,Jackson Heights,11372,142.0,3.0,80-27 37th Ave,coffee breakfast_brunch cakeshop,40.7497126,-73.885855
3,97zuXSmmdJw5mE1HVB5JaQ,Paris Baguette,NY,New York,10018,349.0,4.0,567 7th Ave,coffee bakeries cakeshop,40.75493,-73.98754
6,SLrIiJMqIOdN5KNYpinINQ,Paris Baguette ,NY,New York,10001,724.0,4.0,6 W 32nd St,bakeries coffee cakeshop,40.74738,-73.98627
7,FizBsTIAJwNrImIG1mPDcg,Barn Joo,NY,New York,10003,1741.0,4.0,35 Union Sq W,korean cocktailbars tapasmallplates,40.73684,-73.99069
8,MMotl_bi3-5JRra91A2jLA,Satay Malaysian Cuisine,NJ,Hoboken,07030,571.0,4.0,99 Washington St,malaysian chinese asianfusion,40.73731,-74.03066
9,AiiKkuu7xcrOfLE5-R5Ygg,ViVi Bubble Tea,NJ,Hoboken,07030,228.0,3.5,117 Washington St,ramen bubbletea taiwanese,40.73797,-74.0305
13,SLfVjeW6AauL6zaYjsCOTQ,Barn Joo Nomad,NY,New York,10001,74.0,4.5,816 6th Ave,korean,40.74604,-73.99022
18,hKtSEqh8fLgLneDdZZwF8w,Kusina Pinoy Bistro,NY,Woodside,11377,177.0,4.0,69-16 Roosevelt Ave,filipino,40.746172,-73.895585
20,gj6zDB5krFzL90qdmpYVTQ,Ziggle Tofu & Grill,NY,Long Island City,11101,29.0,5.0,37-4 Queens Blvd,korean noodles beerbar,40.74376729999999,-73.927711
22,EMKsuz1fQIGqmWPp3ZEDmA,Vito's Slices and Ices,NY,New York,10018,172.0,4.5,464 9th Ave,pizza shavedice italian,40.7545,-73.99528
26,FZpm4_fbd6P984foOUejWg,Jongro BBQ,NY,New York,10001,2238.0,4.0,22 W 32nd St,korean bbq bars,40.747514,-73.986884
28,rn6SmSqAYx2kLFIAxytMMQ,Kajitsu,NY,New York,10016,280.0,4.0,125 E 39th St,japanese vegetarian vegan,40.7498614,-73.9777215
29,ves5zPXMxQk1-HK3E1fNhA,Norikoh,NY,New York,10010,53.0,4.0,43 W 24th St,japanese cocktailbars,40.74336530428082,-73.99134204180429
30,xFp3xSQ43J-i7nmJfNBsZA,Norikoh,NY,New York,10010,583.0,4.0,43 W 24th St,sushi japanese,40.7433,-73.99137
32,hA5QUlrSjpxMZ90Kof0bgA,Khao Kang,NY,Elmhurst,11373,259.0,4.0,7620 Woodside Ave,thai,40.743269,-73.888039
33,qy2S_akh9RjSAktwUKf1-g,Jollibee,NY,Woodside,11377,622.0,3.5,6229 Roosevelt Ave,filipino hotdogs chickenshop,40.746091209164646,-73.90120499897989
34,s_DZ-c74Tqltc_SHub_hww,Kabayan,NY,Woodside,11377,62.0,2.5,69-12 Roosevelt Ave,filipino,40.7461700439453,-73.8957214355469
35,i68ePkcGmSimy2_OTDo5qQ,Happy Garden 813,NY,New York,10011,6.0,5.0,513 6th Ave,chinese,40.73699,-73.99744
36,9MSvj1NSKlWZKNA3aQaJOQ,Anda Cafe,NY,Flushing,11355,24.0,3.5,6002 Main St,bubbletea sushi shavedice,40.7430580638732,-73.825889
37,xw3_Pwi1YB5-8-2s_RFgzA,Kabayan,NY,Woodside,11377,162.0,3.5,4912 Queens Blvd,filipino,40.7423782348633,-73.9154891967773
39,iTke4ZsI0WyAHD6fmAtRLA,Coco Malaysian Cuisine,NY,Elmhurst,11373,276.0,3.5,8269 Broadway,thai malaysian,40.741662,-73.8804985
44,Hc7wuYIXJQD0mWWOvqvjzQ,Red Ribbon,NY,Woodside,11377,296.0,4.0,65-02 Roosevelt Ave,bakeries filipino,40.74590954342099,-73.8988405779272
46,STBNV2yArITdLJ1k5hfBig,Gotham Coffee Roasters,NY,New York,10011,93.0,4.5,23 W 19th St,coffeeroasteries coffee,40.73975,-73.99269
48,0L03onqNwxWLrbb_FCK79A,SriPraPhai Thai Restaurant,NY,Woodside,11377,2439.0,4.0,64-13 39th Ave,thai,40.7464987,-73.8992328
49,M8eB6p4udxJhLkeIoDjBzA,Pulau Pinang,NY,Elmhurst,11373,186.0,3.5,82-84 Broadway,malaysian taiwanese,40.7412362605966,-73.8813701076699
2,pBIvJHn65iqlUh1L2tN-qg,TAO Downtown Restaurant,NY,New York,10011,1530.0,3.5,92 9th Ave,panasian,40.742543316070794,-74.00384559819703
3,RH6kTt81G4OdWP603LnoDQ,Pho Best III,NY,Elmhurst,11373,193.0,2.5,83-02 Broadway,vietnamese,40.74083,-73.88012
8,1-QgkACd4atRtc4AOGWz_Q,Tacos Y Jugos Genesis,NY,Elmhurst,11373,146.0,4.0,7804 Woodside Ave,mexican sandwiches juicebars,40.7435971734647,-73.8868284970522
9,sinDhwX8Egru_3FCI7bhkw,Laut,NY,New York,10003,1349.0,3.5,15 E 17th St,thai malaysian singaporean,40.73756,-73.9911
10,i8aUeHmdINsEWceJGBy-QQ,Kung Fu Tea,NY,Elmhurst,11373,142.0,3.5,86-12 Justice Ave,coffee bubbletea juicebars,40.7375709,-73.8767088
11,veq1Bl1DW3UWMekZJUsG1Q,Gramercy Tavern,NY,New York,10003,3071.0,4.5,42 E 20th St,newamerican,40.73844,-73.98825
12,seGYMEYsw6F_H33Md1E1dA,Tito Rad's Grill,NY,Woodside,11377,769.0,3.5,49-10 Queens Blvd,bbq filipino breakfast_brunch,40.7426021292423,-73.9155745324366
16,41m0Mepm_XeBMS2azfK-vA,Ihawan,NY,Woodside,11377,409.0,3.5,4006 70th St,filipino,40.7461352719843,-73.8955235481262
18,nRO136GRieGtxz18uD61DA,Eleven Madison Park,NY,New York,10010,2273.0,4.5,11 Madison Ave,newamerican french cocktailbars,40.7416907417333,-73.9872074872255
19,1m6viubAWUgsTgguIrJT6A,Cosme,NY,New York,10010,1126.0,3.5,35 E 21st St,mexican desserts cocktailbars,40.739691,-73.988428
20,CTUqeP0Z7kgi5Tvsx-mU7A,Satay,NY,Flushing,11355,176.0,3.5,4601 Kissena Blvd,chinese malaysian,40.750602722168,-73.818717956543
3,DtMLmhonf6FCmt3Nworc_A,Gong Cha,NJ,Closter,07624,21.0,4.0,245 Closter Dock Rd,bubbletea,40.97295,-73.96077
6,E2pLus5pOMwr-w9FK5_ZbQ,Mochinut,NJ,Norwood,07648,54.0,4.5,450 Livingston Str,donuts hotdog,40.99738656449265,-73.9548561
7,v3BJ71AzK8tpSI8MpgNKFg,TAO HAUS,NJ,Closter,07624,115.0,4.0,272 Closter Dock Rd,dimsum noodles bbq,40.97131,-73.96008
9,ug7LrvC4foM9f2WyJUkt3A,Marinade,NJ,Norwood,07648,63.0,4.5,544 Livingston St,korean chicken_wings asianfusion,41.0002152,-73.9530759
12,JHCf1edqV2CyXBP5hu53Jg,Tokyo Cafe,NJ,Westwood,07675,47.0,3.5,59 Washington Ave,japanese thai desserts,40.991486,-74.0347171
15,Z05fWXTLDPbEyP7fPQH7Kg,Matsu Japanese Restaurant,NJ,Hillsdale,07642,79.0,4.5,140 Broadway,japanese,41.0040936,-74.0407868
9,4Tf397QPrUrhJ38h6YYPRA,Go Greenly,NY,Scarsdale,10583,64.0,4.0,1109 Central Park Ave,juicebars bubbletea icecream,40.986319,-73.826576
12,IMUyuyZ6WPnCU_CrYamlZg,Cafe L'ami,NY,Yonkers,10710,4.0,4.0,1789 Central Park Ave,bubbletea coffee juicebars,40.959701,-73.8431263748113
14,czp2dfwZ8MK0GwemL_6pWA,H Mart - Yonkers,NY,Yonkers,10710,108.0,4.0,1789 Central Park Ave,grocery korean food_court,40.9601819036675,-73.8426773250103
15,SNZjma_-Ts9k7vXO6ErJWw,Dumpling + Noodle,NY,Bronxville,10708,285.0,3.5,26 Palmer Ave,noodles panasian,40.9413694,-73.8374813
17,vfqn_rZ2N1TSo8SwO1rXhw,Zai’s Dessertery - Cresskill,NJ,Cresskill,07626,4.0,5.0,22 Union Ave,desserts icecream macarons,40.941829,-73.961653
5,UZViRVpxNZvOM5KarmbT1g,Sweet Moment,NY,New York,10013,964.0,4.5,106 Mott St,coffee icecream waffles,40.71763,-73.99714
12,hre6ViIFlo74cFha5bptdg,Pelican’s SnoBalls - Valley Stream,NY,Valley Stream,11580,12.0,5.0,254 Rockaway Pkwy,shavedice,40.673167,-73.694312
13,NkOpM1SBI50qviqE6LCKRg,The Little One,NY,New York,10002,264.0,4.0,150 E Broadway,desserts icecream shavedice,40.714158,-73.990942
33,LQ8ITaZIbaiQ8pHPOx5i6w,SkyIce Thai Food & Ice Cream,NY,Brooklyn,11217,769.0,4.0,63 5th Ave,icecream thai,40.6806411743164,-73.9772872924805
37,D8UbXnZ1Q9zR8-sPPpsJ-A,Jell & Chill,NY,New York,10009,136.0,4.5,110 E 7th St,desserts,40.7264350340106,-73.9846681058407
3,s0j7hGOWMXJ2Glb7HThD8Q,Rita's Italian Ice,NJ,Stewartsville,08886,2.0,4.5,450 County Rd 519,shavedice desserts icecream,40.68782,-75.145582
5,fxN2HYA1uyrdkXR9XX-Uwg,I CE NY,NY,New York,10012,589.0,4.0,101 Macdougal St,desserts shavedice icecream,40.7296251968846,-74.0009496311209
6,aNCF4-9nH3hbLJXqIW3EgA,Semicolon Cafe,NJ,Jersey City,07302,182.0,4.5,77 Hudson St,coffee cafes,40.714351,-74.034801
8,xymropCDcEvCYGKC0AKe-w,Fob Brooklyn,NY,Brooklyn,11231,277.0,4.0,271 Smith St,filipino breakfast_brunch bbq,40.6826583,-73.9930755
13,5QgBCrAbXbM1ORiqZDrBPQ,Cha-An,NY,New York,10003,1839.0,4.0,230 E 9th St,japanese tea desserts,40.72947,-73.98813
17,zaYK-LuVRUoUVt6EV-xmPg,Tokyo Record Bar,NY,New York,10012,172.0,4.0,127 Macdougal St,izakaya,40.73063650237976,-74.0000907846602
19,55Cxx3T296dsLMrsxwTckQ,Meet Fresh,NJ,Jersey City,07310,24.0,3.5,525 Washington Blvd,desserts coffee taiwanese,40.72686,-74.03506
20,TjoAtyJU4ikN3CUlBlmDUA,Lazy Sundaes,NY,New York,10003,40.0,4.5,11 Waverly Pl,bubbletea shavedice,40.73014,-73.99416
25,AR_0QV4O12sHojkky_IMkg,Canal Street Market,NY,New York,10013,202.0,4.0,265 Canal St,food_court,40.71897,-74.00102
26,OQ_Ghn4IHnnTYAiTVUFxCA,Little Quiapo,NJ,Jersey City,07306,68.0,4.5,530 Newark Ave,filipino,40.731,-74.05565
27,mlm40NxsVJUPnh3LTayaaw,Kimika,NY,New York,10012,255.0,4.0,40 Kenmare St,japanese italian cocktailbars,40.720572,-73.995206
29,PTz2nRSGpyD7PhTaS7etag,Rita's Italian Ice,PA,Wind Gap,18091,7.0,3.5,501 E Moorestown Rd,desserts shavedice icecream,40.8320248,-75.302491
30,jRhMGHISqe44FM9HR-m9kQ,Sweet Cats Cafe,NY,Fresh Meadows,11366,220.0,4.0,168-17 Union Tpke,desserts bubbletea customcakes,40.723314,-73.799678
36,p9Mqv-KhO9oltVoz5w-9Tw,Meet Fresh,NY,New York,10003,509.0,3.5,37 Cooper Sq,desserts bubbletea taiwanese,40.72807,-73.99064
39,YFwncruQm44GTqn2jZ9BwQ,Mango Mango Dessert,NY,New York,10013,701.0,4.0,63 Bayard St,desserts juicebars icecream,40.71528,-73.99811
41,IIM-dzbOvg4x7h-AjHsq9Q,Bulbap Grill,NY,Brooklyn,11222,165.0,4.5,646 Manhattan Ave,korean asianfusion,40.7243,-73.9509099
43,e_hmhxJbpSPAGEfim86PVQ,Gentle Perch,NY,Brooklyn,11206,142.0,4.5,112 Graham Ave,korean,40.705106,-73.942587
45,CzCflUw_oWoDelAGl4scbw,"Love, Nelly",NY,Brooklyn,11233,23.0,5.0,53 Rockaway Ave,bakeries coffee empanadas,40.681351,-73.911186
3,D0EV-xXaUUi35raZ_hWg-w,Momofuku Ssam Bar,NY,New York,10038,65.0,4.0,89 South St,asianfusion newamerican steak,40.705476024827576,-74.0016428
7,gTkXGwTH9irJ9EFTMB5PQQ,Mango Mango Dessert,NY,New York,10003,465.0,4.0,23 St Marks Pl,desserts juicebars creperies,40.72911,-73.98858
10,1fjSEO-5JMP8jcn-7F1T1g,Rita's Italian Ice,NJ,Clinton,08809,3.0,4.5,2632 Rt 31 S,icecream desserts shavedice,40.670877,-74.915428
13,1VulIvaA95_ZjBIs1O0sxQ,Brooklyn Ball Factory,NY,Brooklyn,11206,140.0,4.0,95 Montrose Ave,coffee japanese sandwiches,40.7072338027948,-73.9458661779097
15,fVsH6QIJPzXpVbgmeiolsA,Jungsik,NY,New York,10013,690.0,4.5,2 Harrison St,korean,40.7188032533572,-74.0090829725856
20,lRSa3dFw_3ItdcE2032hnA,Arepalicious,NY,Ozone Park,11417,157.0,3.5,137-20 Crossbay Blvd,colombian gourmet,40.671139,-73.8433307
27,r2JVKalbucGf2nryywuL2w,Kopitiam,NY,New York,10002,837.0,4.0,151 E Broadway,malaysian desserts breakfast_brunch,40.71387,-73.99091
28,3aypSFXLfkAL4dhHVFobKg,Lazy Sundaes,NY,New York,10002,34.0,4.5,23 Clinton St,bubbletea desserts shavedice,40.720597,-73.984539
31,Ut4N7Fxikkxi214fy5Qo2w,Send Noods,NY,New York,10013,1.0,4.0,11 Mott St,thai,40.7140600199484,-73.9988298341632
32,szyoiJXuX8shNnsm8-Bffg,Cafe Atelier,NY,New York,10013,37.0,4.5,112 Hudson St,cafes,40.719573,-74.008365
33,bxCjNLVDQggNTbpviV0RMw,Lazy Sundaes,NY,New York,10013,70.0,4.0,265 Canal St,bubbletea shavedice desserts,40.7189689,-74.0006772
37,vEn8MGxD1cKXJ3-L4EGUZQ,Rita's Italian Ice,NJ,Union,07083,18.0,4.0,1353 Stuyvesant Ave,icecream desserts shavedice,40.70262,-74.26301
40,ikazsJps1k-Br2FbunwCtg,Spot Dessert Bar,NY,New York,10003,3200.0,4.0,13 St Marks Pl,desserts coffee icecream,40.72939,-73.98892
42,XyGpSrE6aUO45xctVCHfvg,Spot Dessert Bar,NY,New York,10003,282.0,4.5,5 Saint Marks Pl,desserts,40.72944,-73.98934
44,EfayCQ-uIn-yGDF4kcjBiQ,Paris Baguette,NY,Brooklyn,11201,153.0,4.0,97 Court St,coffee bakeries cakeshop,40.6910452600365,-73.9915985693088
49,o6q3jm-dU5A6nV3r2lBg9A,Chinatown Ice Cream Factory,NY,New York,10013,2935.0,4.0,65 Bayard St,icecream desserts,40.715452,-73.99818
6,kN3rkbjvqkY62CDRYUVz4g,Yopparai,NY,New York,10002,245.0,4.5,49 Clinton St,izakaya,40.71975013980203,-73.98488557728082
7,p7QwIzWXMBYwCGdS6V36tg,Rita's Italian Ice,NJ,Berkeley Hts.,07922,17.0,4.0,412 Springfield Ave,icecream desserts shavedice,40.6855185,-74.43836
9,luKlh0-Id9y7KXNvbgFmQg,Chick'n Rotonda,NY,Middle Village,11379,22.0,4.5,64-58 Dry Harbor Rd,filipino desserts cafes,40.7181135,-73.8726757
11,uPVYeVOSLmvAkbxM9cTAQg,Mamak House,NJ,Jersey City,07305,99.0,4.5,250 Rte 440,malaysian chinese cocktailbars,40.705152,-74.099596
13,dnhEMFIYnkF0ke5oWv9hMg,BAMBU,NY,New York,10002,97.0,4.5,124B Hester St,bubbletea juicebars vietnamese,40.71697,-73.99471
14,8Oo2AtQEPDfxIOnA8wfXoQ,886,NY,New York,10003,533.0,4.0,26 Saint Marks Pl,taiwanese asianfusion,40.72877,-73.98873
19,iJzOUDE0T8uDonhTKpqDCw,Plaza Ortega,NY,Brooklyn,11221,10.0,5.0,140 Stanhope St,mexican acaibowls icecream,40.69815931227013,-73.9226344664632
30,npiIhpcWePbVT3JYEcy3zg,Wayan,NY,New York,10012,414.0,4.0,20 Spring St,indonesian french breakfast_brunch,40.7213813139202,-73.9950757664721
35,mIhqKMgru4002wfrVW-Gfw,ChikaLicious Dessert Bar,NY,New York,10003,1357.0,4.0,203 E 10th St,desserts japanese donuts,40.72964636531206,-73.98620154365136
41,nxTEuWKzkK1tCF4LrhFSUQ,Pig and Khao,NY,New York,10002,1751.0,4.0,68 Clinton St,filipino thai panasian,40.71926,-73.98475
49,uqzVqsDfrsH2mWVGn_yOSQ,PaTea,NY,New York,10003,251.0,4.5,227 E 14th St,bubbletea tea,40.73306,-73.98589
1,96svxj2NIOrba2fBMZAqOQ,Bogota Latin Bistro,NY,Brooklyn,11217,2370.0,4.0,141 5th Ave,bars gluten_free colombian,40.678165,-73.978976
3,gUJ6pHYd_fp2Ypq377P_vA,Williamsburg Smorgasburg - Saturday,NY,Brooklyn,11211,1141.0,4.5,90 Kent Ave,foodstands,40.721021,-73.962177
8,WxNlqGSsj_2TCodkx9Sa4A,ViVi Bubble Tea,NY,New York,10013,658.0,4.0,49 Bayard St,bubbletea,40.715099,-73.997535
10,P_UREWCQxEYVbBa-KW_Wew,EN Japanese Brasserie,NY,New York,10014,1304.0,4.0,435 Hudson St,japanese diners bars,40.7306,-74.00698
12,u3ZX9LGb1gwtGZ-n-9tmpA,Brisas Empanadas,NJ,Elizabeth,07208,3.0,4.5,308 Morris Ave,colombian empanadas coffee,40.66883,-74.21824
13,ybAfKElsgVcm60sS-39zyA,Clark's Restaurant,NY,Brooklyn,11201,460.0,4.0,80 Clark St,diners newamerican,40.69740294105,-73.993250079407
18,kNOr6_g6QfBHdhf89j3g5w,Taiwan Pork Chop House,NY,New York,10013,535.0,4.0,3 Doyers St,taiwanese chinese noodles,40.71429,-73.99798
21,O4rYM6YBj90W2u7RhG3Mvg,Maison Premiere,NY,Brooklyn,11249,1173.0,4.0,298 Bedford Ave,seafood bars venues,40.7142634,-73.96166459999999
22,G_zDrPTmfNCL2R1tHpEouw,The Archer,NJ,Jersey City,07302,326.0,4.0,176 Newark Ave,cocktailbars tapasmallplates,40.721315204191,-74.045283556493
24,c78DChkLL_qVFWpU-IRY_Q,Playa Bowls,NY,New York,10012,109.0,4.0,108 Macdougal St,acaibowls juicebars,40.72945,-74.00064
28,vyKBwzRdNX4yiJDIFv37iw,Oxomoco,NY,Brooklyn,11222,444.0,4.0,128 Greenpoint Ave,mexican,40.7299099,-73.95548
29,bnDfFdiCcPzhuNWUJORvLQ,Noodle Village,NY,New York,10013,1257.0,4.0,13 Mott St,chinese noodles,40.714167,-73.998803
30,Smj-UqUvNFneHKkuZ0BN7A,Kona Coffee and Company,NY,New York,10003,193.0,4.5,57 2nd Ave,coffee coffeeroasteries hawaiian,40.72587,-73.98988
31,iEMv0DKjYWHRmayodgRozg,Rita's Italian Ice,PA,Nazareth,18064,5.0,3.0,52 East Lawn Rd,desserts shavedice icecream,40.74795,-75.30307
32,DzudMRbtpg8WVCS88GjIBw,Monchy's Colombian Grill,NJ,Elizabeth,07208,50.0,3.0,330 Morris Ave,colombian,40.6695020003151,-74.2186459703036
33,EzuRT_4vOrvWdHqZzEFf0w,Oh Taisho,NY,New York,10003,1008.0,3.5,9 Saint Marks Pl,japanese,40.729463,-73.989096
38,4x5suSKSAOKYdTvKaRKxKQ,New Thanh Hoai,NJ,Jersey City,07302,592.0,3.5,234 10th St,vietnamese seafood soup,40.729157116151576,-74.04346469503243
39,HevQNI17wfKosXovlBW2HQ,Rita's Italian Ice,PA,Easton,18045,10.0,3.5,3730 William Penn Hwy,icecream desserts shavedice,40.671630859375,-75.2670440673828
45,M-odQWSEfsR2mVEw7nKG-g,Nyonya,NY,New York,10013,2221.0,4.0,199 Grand St,malaysian chinese,40.719116974367,-73.9968322948353
48,_EBQhV-UQ7NoV66uXYH0dw,Golden Diner,NY,New York,10002,263.0,4.5,123 Madison St,diners breakfast_brunch sandwiches,40.71244,-73.994
2,Fbt32h6hv56IyczrurIq3A,Max's Restaurant - Jersey City,NJ,Jersey City,07306,313.0,3.0,687 Newark Ave,filipino seafood chickenshop,40.73476,-74.06018
3,q11TljTQd33XCWlVoPyRqg,The Osprey,NY,Brooklyn,11201,249.0,4.0,60 Furman St,newamerican,40.702241,-73.995539
5,EbX_9tqAJs4gW51gZpOB7g,Rasa,NY,New York,10011,791.0,4.0,25 W 8th St,malaysian thai halal,40.7327654,-73.9975674
6,pfbIskfmnrEKiWBYfpOsQw,Paris Baguette,NY,Rego Park,11374,89.0,4.0,96-33 Queens Blvd,bakeries coffee cakeshop,40.7301166012797,-73.8615339249372
7,YtU1rb_oDHTbYzl-NFglPQ,Burmese Bites,NY,Elmhurst,11373,73.0,4.5,90-15 Queens Blvd,burmese,40.73456587384498,-73.86885806649397
16,y_ylOQzCP-9D_4DcUIJ3jA,Shabu-Tatsu East Village,NY,New York,10003,652.0,4.0,216 E 10th St,japanese bbq hotpot,40.729147,-73.985906
17,nYhEcrY0zqh6Hc3-ERcVXw,Silk Road Cafe,NY,New York,10013,177.0,3.5,30 Mott St,coffee bubbletea bagels,40.714702,-73.998573
18,YjDOSFuRWNp2d1znivWyIA,Sunrise Mart,NY,New York,10012,283.0,4.0,494 Broome St,gourmet japanese,40.7232311,-74.0025149
21,BX0Ybutt3XFaO9G2yTtyqA,Panya Bakery,NY,New York,10003,487.0,3.5,8 Stuyvesant St,bakeries japanese desserts,40.7297668,-73.989357
25,MDMw0HFK3rgeGRl-FZC9Fg,Banh Mi Saigon,NY,New York,10013,1558.0,4.0,198 Grand St,vietnamese sandwiches,40.7192950325997,-73.9967160153442
27,SqVHETmH6bf3rPKmdftvvw,Ten Ren's Tea Time,NY,New York,10013,657.0,4.0,73 Mott St,bubbletea,40.7163819,-73.9982683
31,aSFBv64GBpMOFPqIleeQFQ,Lure Fishbar,NY,New York,10012,1783.0,4.0,142 Mercer St,seafood sushi bars,40.724612166991,-73.998574708004
32,0zmFmXrFFEWxj8RxpVMfzA,Madame Vo BBQ,NY,New York,10003,175.0,4.0,104 2nd Ave,vietnamese bbq,40.72741,-73.98816
34,0GftSP2dRwEzujkv2VKIgA,Wok Wok Southeast Asian Kitchen,NY,New York,10013,1095.0,4.0,11 Mott St,chinese malaysian thai,40.7140555,-73.9988387116394
35,qrydcGQpeDP_1oFvx3qOeg,Somtum Der,NY,New York,10009,802.0,4.0,85 Ave A,thai,40.7252151982238,-73.9842741682317
40,m6sYBuozGY1JhnHlBf1Bzg,BondST,NY,New York,10012,1050.0,4.0,6 Bond St,japanese sushi,40.726934,-73.994404
42,1851MMElaLteR03rnGAMlw,Pho 87,NY,New York,10002,504.0,4.0,87 Chrystie St,vietnamese,40.717587,-73.9944029
45,j_ZW3vvpjLDG34nBq5f-UA,Grill 21,NY,New York,10010,557.0,4.0,346 E 21st St,filipino,40.73570710809612,-73.9799634876969
46,3BGG2nlFs_TOkRCC2j3m5Q,Tous Les Jours,NY,New York,10002,95.0,3.5,7 Division St,bakeries coffee desserts,40.71389,-73.99706
0,GURmB4kTMLpG8AGjx52ILw,New Pinang South East Asian Cuisine,NY,Forest Hills,11375,270.0,3.0,11110 Queens Blvd,seafood noodles soup,40.7182146404843,-73.8372966119012
1,W2sR69xVLzMI_CXJXk-PZg,Henry Public,NY,Brooklyn,11201,293.0,3.5,329 Henry St,gastropubs burgers cocktailbars,40.69029751922101,-73.9962894811474
3,ut9ZIbHxcGc9DT6h213XxQ,Chowking,NJ,Jersey City,07305,24.0,2.0,393 Danforth Ave,filipino,40.703987,-74.098805
5,YAOJAXBqQTHuY85kN8VulQ,Mama Fina's,NY,New York,10009,214.0,4.0,167 Avenue A,filipino,40.72829,-73.98226
13,vscYK65F_MUH8WqACKSdog,The Musket Room,NY,New York,10012,533.0,4.0,265 Elizabeth St,newamerican cocktailbars,40.72392,-73.99378
14,IYlO-XRwjZlUl0yoKY87cA,Cagen,NY,New York,10009,219.0,4.0,414 E 9th St,japanese sushi newamerican,40.72779,-73.98417
16,bDkpPJoEI_bKFvhIhaa26g,Rita's Italian Ice,NJ,Irvington,07111,5.0,3.0,693 Lyons Ave,icecream desserts shavedice,40.7208099365234,-74.2312088012695
19,SAUBVV-yj9DFQ7NnZr5b1w,Prodigy Coffee,NY,New York,10014,213.0,4.0,33 Carmine St,coffee,40.7302096,-74.0032381
20,nimSBSdPKva3QhepfVjIiw,Bene Bistro,NY,New York,10009,1.0,1.0,208 Avenue A,breakfast_brunch,40.729474,-73.980645
22,9-qeAhHDxNblcFrSTBzkGA,Go Natural Self Serve Frozen Yogurt,NY,Woodhaven,11421,1.0,1.0,88-20 Jamaica Ave,juicebars acaibowls icecream,40.6924915,-73.8556671
23,zEIt0xaPM9DIS-pc118O6A,Hometown Hotpot & BBQ,NY,New York,10013,1371.0,4.0,194 Grand St,hotpot bbq,40.71931,-73.99689
28,eVBVn6bjwl_mMLxN-35_6w,Hotel Chantelle,NY,New York,10002,1448.0,3.5,92 Ludlow St,cocktailbars tradamerican venues,40.71843,-73.98909
30,1Duix1fA6zcJGdYAmBPkmw,Dumpling Man,NY,New York,10009,850.0,3.5,100 Saint Marks Pl,dimsum szechuan,40.727171,-73.9847508
31,SgRt4YefG3Zkh60MtO5PoQ,Ten Ren Tea,NY,New York,10013,165.0,3.5,75 Mott St,bubbletea,40.7164175,-73.9981933
37,bYolHbAgMb-zOHpa41Lp0Q,Nam Son Vietnamese Restaurant,NY,New York,10002,563.0,3.5,245 Grand St,vietnamese,40.71818,-73.994333
38,KkMXFomcmJZBmDdmTMh8yw,West New Malaysia,NY,New York,10013,755.0,3.5,69 Bayard,malaysian,40.71560896185754,-73.99824907718484
41,5K0b-fEk96xUJCV_5ytNog,Contra,NY,New York,10002,342.0,4.0,138 Orchard St,newamerican,40.719878,-73.989063
42,-VvrQWfbkQWeuGC4L0KcfQ,Il Buco Alimentari & Vineria,NY,New York,10012,561.0,3.5,53 Great Jones St,italian,40.7264539,-73.992549
43,sb1_MyLHzmjV1Jk21pyOIA,Sao Mai,NY,New York,10003,599.0,4.0,203 1st Ave,vietnamese noodles soup,40.730362,-73.98362
7,q3RvOktlLoYeUHWZbEpIDQ,Hug a Mug Coffee & Tea,NJ,Pompton Lakes,07442,13.0,4.5,222 Wanaque Ave,coffee bakeries bubbletea,41.00505,-74.29178
9,zKIJzq7LMffj11YV39EWiQ,Mr. Ramen,NJ,Pompton Lakes,07442,96.0,3.5,1 Cannonball Rd,ramen,41.00698,-74.29136
10,lHyWwkhaWaSGY4Zz1UBb-w,Poke Time,NJ,Ramsey,07446,60.0,4.5,11A Interstate Shopping Ctr,hawaiian poke bubbletea,41.06683333,-74.13726167
11,bj7nke26v46TppYWXtF8tQ,Blueberry Frozen Yogurt,NJ,Oakland,07436,17.0,3.5,350 Ramapo Valley Rd,icecream bubbletea juicebars,41.023926,-74.241125
13,zUEcZ5p5TGW2D2RJEQT-sQ,Bonchon Midland Park,NJ,Midland,07432,122.0,4.0,15 Central Ave,korean chicken_wings asianfusion,40.9982339,-74.15206
16,mVXKOPc6DHj2n-TNqorngA,Lettuce Inn,NJ,Ramsey,07446,55.0,3.5,30 E Main St,salad juicebars wraps,41.05712890625,-74.1412353515625
17,uz8Gh_tEfPKO-EyjegSYXQ,Ramsey Gourmet,NJ,Ramsey,07446,36.0,3.0,20 W Main St,delis bagels,41.057,-74.14284
18,MorGoKD2FpvknyBpDT34SA,Poke Time - Allendale,NJ,Allendale,07401,1.0,5.0,55 W Allendale Ave,bubbletea poke asianfusion,41.03023,-74.12798
5,O6p1D8Tg0GQyTLIoAAj9nA,The Whale Tea,NY,White Plains,10601,11.0,4.0,148A Mamaroneck Ave,bubbletea,41.02874,-73.76546
8,NfHDTc8ZyIlVYiwX6cf6MQ,Bubble Shop,NY,Scarsdale,10583,27.0,4.0,365 Central Park Ave,bubbletea,41.00904,-73.80959
10,9PW0ZJSQvk-z_vKzDHe0sA,Gong Cha - Ridgewood,NJ,Ridgewood,07451,11.0,4.5,194 E Ridgewood Ave,bubbletea,40.9788519,-74.1152467
11,yQsbei7X47AaJDtP1KGVPg,Village Tea Shop,NJ,Ridgewood,07450,136.0,4.5,2 S Maple Ave,bubbletea coffee juicebars,40.9783906,-74.1135196
12,RedCeS4SmT34euXIKgib3g,Matcha Thomas,NY,Beacon,12508,17.0,5.0,259 Main St,coffee bubbletea,41.5064,-73.97274
17,sFbzzqw-KY3I1HiVDAfdig,Shimmy’s Açai,NY,Jefferson Valley,10535,1.0,4.0,3633 Hill Blvd,bubbletea juicebars acaibowls,41.33058,-73.80212
21,PcU_Q5odSvZ4NMQNxn0SQg,Junction JT's Food Market,NY,Croton-on-Hudson,10520,21.0,4.5,123 Grand St,asianfusion korean,41.208907,-73.884424
25,e1kUb_b2SItWazvnMJF-ng,Sook Pastry,NJ,Ridgewood,07450,798.0,4.5,24 S Broad St,bakeries desserts cafes,40.979123,-74.12077
28,Ua7wavpx8AGXcEGtBdYtkA,Toppings Frozen Yogurt,NY,Wappingers Falls,12590,21.0,4.0,1485 Rte 9D,icecream bubbletea,41.5277714351779,-73.9644341526028
32,5PfUXP3r33dI2ttKHVKspw,T-swirl Crepe,NY,White Plains,10601,166.0,4.5,151 Mamaroneck Ave,creperies coffee,41.0289985,-73.7649754
34,qIYfsIg4T_V5r9Qq6VVfyw,Hastings Tea & Coffee,NY,White Plains,10601,116.0,4.0,235 Main St,coffee wine_bars juicebars,41.03326,-73.76625
37,0Ybi8ZShju5Rm83WXb3Q-Q,Truly Sichuan,NJ,Ridgewood,07450,257.0,4.5,31 Chestnut St,szechuan,40.98042,-74.11888
39,N9BcEnfPnsV_1NmsTBiAeA,Flour and Sun Bakery,NY,Pleasantville,10570,71.0,4.0,19 Washington Ave,bakeries bubbletea customcakes,41.1356232,-73.7917719
40,dukq5LZu41f6-D5sHMV0_A,The Tasty Table,NY,Ossining,10562,130.0,4.5,21 Campwoods Rd,tradamerican breakfast_brunch,41.16901,-73.8431
46,rw5uKUdVo2slHHEtKTBDgg,Asian Fusion,NJ,Glen Rock,07452,53.0,5.0,914 Prospect St,asianfusion bubbletea gluten_free,40.952041,-74.1080638
47,-G4mI0H6lV1_5I6UwmPguA,Tso's Asian Cuisine,NY,Hopewell Junction,12533,41.0,4.0,1906 Rt 52,chinese asianfusion sandwiches,41.5380044834459,-73.8413468707862
49,g3VmznTxqsJn_tda9t9hMg,The Banh MI Shop,NY,White Plains,10601,226.0,4.0,148 Mamaroneck Ave,vietnamese sandwiches noodles,41.02875,-73.76547
4,YMps1sSjPjp718NiAGXH0Q,Kurumi,NJ,Hawthorne,07506,66.0,4.5,1103 Goffle Rd,japanese sushi,40.968811,-74.151871
9,R450lVPMmxQXZJQCkJw_TA,Poke Zone,NJ,Ridgewood,07450,84.0,4.0,43 E Ridgewood Ave,poke ramen sushi,40.97983,-74.11885
15,b6GIUsckql5_VafI6FPa-A,Asian Wave,NY,Thornwood,10594,110.0,4.0,636 Columbus Ave,sushi asianfusion,41.1140317798627,-73.7703984715469
16,Iygd1pF4-0crf-u4N31DVQ,Little Asia,NY,Fishkill,12524,101.0,3.0,17 Merritt Blvd,japanese sushi chinese,41.5313,-73.89321
17,bpbWWUa0Ol8XZzv9uDabYg,Aberdeen,NY,White Plains,10601,427.0,4.0,3 Barker Ave,dimsum seafood,41.034927,-73.770276
20,ihZ7VVwNreU4FXUrowbqnQ,Dim Sum Dynasty,NJ,Ridgewood,07450,305.0,3.0,75 Franklin Ave,dimsum cantonese catering,40.981266,-74.118173
21,mhIxjP-wjfihK8BTuf-Apw,Noodle Plus,NY,White Plains,10601,295.0,3.5,245 Main St,thai chinese noodles,41.0330189019442,-73.7657408416271
22,gsqZEDmd2AvzJPy8aYC0Bg,Ramen Musashi,NY,Scarsdale,10583,109.0,4.0,816 White Plains Rd,ramen japacurry,40.97586,-73.80246
23,7-v1ip-6XTm-GguqfDwyCw,Fantasy Cuisine,NY,Hartsdale,10530,282.0,3.5,20 N Central Ave,dimsum szechuan,41.019325,-73.797458
25,XHY--nkIkINrRTthKG_BFA,Sweet Harvest Smoothie Shoppe,NY,Cold Spring,10516,9.0,4.0,82 Main St,juicebars,41.418144040506554,-73.9580861
27,NDScGBCiyo0xcHXr4Po2kg,Asian Legend,NY,White Plains,10601,41.0,3.0,23 Mamaroneck Ave,chinese asianfusion japanese,41.03196,-73.76625
8,E21LeD3u5bJE-EI1T1zoCw,Gong Cha,NJ,Rockaway,07866,5.0,5.0,301 Mt Hope Ave,bubbletea,40.90718869895643,-74.55344415959098
10,4W-i6uHuqTxhLbQf-Bw4Wg,Meow & Sip,NJ,Wayne,07470,14.0,4.0,186 Mountainview Blvd,bubbletea,40.91479200000001,-74.2687849644182
17,4MIy4tGetG1Jzlp533xI4w,Gong Cha,NJ,New Milford,07646,12.0,5.0,854 River Rd,bubbletea,40.9258,-74.02674
18,QIJDyRmxefsFvd4Er5MVAg,Ma's Tea House,NJ,Elmwood Park,07407,23.0,4.5,73 Broadway,bubbletea coffee,40.9194,-74.12551
20,gAixZISKIQjtgry7Kqc22g,Sinofilia Tea Shop,NJ,Boonton,07005,10.0,5.0,805 Main St,coffee bubbletea tea,40.9057047,-74.4123767
22,FoPXzYFHgOn1wUlMbEBTnw,Mochinut - Tenafly,NJ,Tenafly,07670,3.0,5.0,24 W Railroad Ave,donuts bubbletea hotdog,40.9268785,-73.9645831
24,gTQ281D4gmzVCqRa3u21Xw,Kudo Society Teaneck,NJ,Teaneck,07666,83.0,4.0,336 Queen Anne Rd,coffee bubbletea cakeshop,40.875143,-74.020996
25,e03wSXsY1H6ZacVf-yMoOQ,Gong Cha,NJ,Paramus,07652,61.0,4.5,1 Garden State Plaza Blvd,bubbletea,40.916919,-74.076579
26,iH6T0X0gY_HrH3hmS_k7mw,Coco Fresh Tea & Juice,NJ,Hackensack,07601,31.0,4.0,450 Hackensack Ave,bubbletea coffee juicebars,40.9094014884328,-74.0293392046842
27,yrBkOcyjbYg_JByikHtKTQ,Lucky Rolls cafe,NJ,Englewood,07631,64.0,4.0,2 E Palisade Ave,icecream bubbletea coffee,40.8937953113406,-73.9751863674938
33,H44-U1mQG_iADyPBNeyNrg,Creations Frozen Yogurt & Smoothies,NJ,Lodi,07644,91.0,4.0,170 Main St,juicebars icecream bubbletea,40.87880897312334,-74.08377665488331
35,epyxy2aJdFwAXI3Kcmgsxw,Quickly,NJ,Bergenfield,07621,12.0,3.5,475 S Washington Ave,bubbletea,40.91302,-73.99665167
36,JUkucdxLJmdO9c57KuRRmA,Kung Fu Tea,NJ,Wayne,07470,6.0,3.0,1400 Willowbrook Mall,bubbletea coffee juicebars,40.88870687931294,-74.25938227267106
37,VvrcS0--86SMehS25ACGIQ,Zai's Dessertery,NJ,Bergenfield,07621,90.0,4.5,108 N Washington Ave,desserts bakeries macarons,40.9313183,-73.9958811
41,z-HX-xyhDALBXUJnfQYslg,Real Fruit Bubble Tea,NJ,Paramus,07652,32.0,4.0,1 Garden State Plaza Blvd,bubbletea,40.916666740968225,-74.07672172946751
42,Duz8-42RPb_QfXiy0puILA,Mochinut,NJ,Paramus,07652,35.0,4.5,60 NJ-17,donuts hotdog,40.916049240501074,-74.07182010276664
44,2aMq5kZ7jOwxCJof0FM4Gw,Kung Fu Tea,NJ,Paramus,07652,74.0,2.5,1 Garden State Plz,bubbletea coffee juicebars,40.9181941,-74.0758376
45,HPmvwgs5SrF5zWSVzyglQA,Loving Hut,NJ,Roxbury Township,07852,133.0,4.0,538 Rt 10 W,vegan vietnamese,40.87774,-74.64983
0,VZm24d96ojAU8k73Yq4lBg,Mr Tofu House,NJ,Wayne,07470,139.0,4.5,146 Mountain View Blvd,korean,40.91503305216392,-74.26676399681217
1,KeqUfOTz2pNODvZjR4fi7w,Poke n' Ramen 360,NJ,Wayne,07470,67.0,4.0,1400 Willowbrook Mall,poke ramen,40.8888916112293,-74.2594809301536
7,OebKj1Q9KMd-6YUdrW-rRQ,Beard Papa's,NJ,Paramus,07652,29.0,4.5,1 Garden State Plaza Blvd,desserts bakeries,40.91692738602365,-74.07652192009306
9,7YOtLhcUTNFaV5_TIx3KQw,Yo-Delight,NJ,Teaneck,07666,33.0,4.0,984 Teaneck Rd,desserts icecream,40.88882,-74.00514
13,5oFnV25_-2aIYVmiccSSLA,UberBrunch Cafe,NJ,Saddle Brook,07663,20.0,4.0,365 N Midland Ave,cafes breakfast_brunch sandwiches,40.90966,-74.10793
15,8CSWfE3wxI1UyiemtF0YRw,H Mart - Paramus,NJ,Paramus,07652,117.0,3.5,60 State Route 17 North,korean grocery food_court,40.91562,-74.071739
16,nxUs6svpNSL0wAwAA2F34w,Clifton Thai Restaurant,NJ,Clifton,07011,469.0,4.0,239 Parker Ave,thai,40.8758985,-74.1237514
17,4toUVA7fXIkuSU18s6G-dg,Kenko Sushi,NJ,Lincoln Park,07035,769.0,4.5,261 Comly Rd,japanese sushi,40.9223563233663,-74.3019069648009
18,hnBgmEQsJgRhY3VvWnwkfA,The Green Papaya,NJ,River Edge,07661,414.0,4.0,110 Kinderkamack Rd,thai malaysian asianfusion,40.91157,-74.03576
19,sYjlOxsohlTro3Ja3GW3mA,Hummus Grill,NJ,Wharton,07885,11.0,4.0,301 Mt Hope Ave,mediterranean halal,40.9071091538645,-74.5539528876543
20,g-Ln2hn8-T63T2orCTVbeQ,Cheng Du 23,NJ,Wayne,07470,517.0,4.0,6 Willowbrook Blvd,seafood soup szechuan,40.889931,-74.2488356
23,aoBzPmAnWoOYxKntvzp1ug,Hola Halal,NJ,Paterson,07501,49.0,3.5,407 Main St,bubbletea sushi chinese,40.9115524291992,-74.1719589233398
24,0nCfhFAHGslcU--6ZdPQmw,Asian American Food Mart,NJ,Bergenfield,07621,17.0,4.0,23 Veterans Plz,grocery gourmet filipino,40.9286890178919,-73.997962474823
25,yl-xBLlos6WUs--mKLKPmA,Cusinera,NJ,Bergenfield,07621,37.0,4.0,66 S Washington Ave,filipino,40.9254140406847,-73.9967930316925
27,HGigOaTSwYT1nK-Q6ur_Zg,Maguro Sushi,NJ,Rochelle Park,07662,114.0,4.5,430 Rochelle Ave,sushi japanese,40.90965,-74.07298
31,bU1v_0Xugf4XBeQMUN4KIg,Cafrea,NJ,Paramus,07652,18.0,3.0,1 Garden State Plz,icecream juicebars,40.9176086210572,-74.0765103965777
33,LETHWk8S7hajLFuKcmzX_w,Asian Kawa,NJ,Montville,07082,65.0,3.5,652 Main Rd,japanese sushi thai,40.92400133113347,-74.34314634417687
34,A2OkNFvMNyuaEgRx6wcobg,Ramen Azuma,NJ,Englewood,07631,266.0,4.0,39 S Van Brunt St,ramen,40.8930197731678,-73.9765897346638
35,Ihh68YZfn6dG7kkiBwfKqQ,Veggie Heaven,NJ,Denville,07834,348.0,4.5,57 Bloomfield Ave,chinese sushi salad,40.8909606933594,-74.4750442504883
36,4B6eFlvdGCkibMxsUk43jw,New Asia Chinese Restaurant,NJ,Teaneck,07666,64.0,2.0,567 Cedar Ln,chinese,40.8903963,-74.0253596
38,i9WB9IZx1-Db2aP8x_4xGA,Tous Les Jours,NJ,Paramus,07652,20.0,3.0,60 NJ-17,bakeries coffee desserts,40.916111,-74.071636
39,64V4Rk4Zs8iHa39pbEA6aw,Bonchon Lodi,NJ,Lodi,07644,47.0,3.5,184 Essex St,korean chicken_wings asianfusion,40.888878,-74.06825
40,CSmGpzkX0rqaJ4RIj8KbZQ,Mr. Wok & Sushi,NJ,Tenafly,07670,94.0,3.0,1 Highwood Ave,chinese sushi japanese,40.92598,-73.96388
41,fBQvUemE3OVI1NAZt5KDFA,Pho Saigon,NJ,Hackensack,07601,165.0,4.0,296 Main St,vietnamese panasian soup,40.8876794664474,-74.0409277752042
42,hlysl46pqJgpi6UjrwEdkQ,Beijing Kitchen,NJ,Bergenfield,07621,16.0,4.0,20 Columbia Ave,chinese,40.93605,-73.995903
43,cML123f1bsv0PFJ1I0qFRA,16 Handles,NJ,Paramus,07652,12.0,4.0,1 Garden State Plz,icecream juicebars desserts,40.915914733809075,-74.07648554314419
44,gJSX5IDyhjeMjz9IS2DIwQ,Veggie Heaven,NJ,Teaneck,07666,504.0,4.5,473 Cedar Ln,vegetarian kosher vegan,40.889845,-74.023091
45,_M2QGXnL5oWXcf0IT4pAcw,Boiling Cajun Seafood,NJ,Paterson,07503,15.0,3.5,1139 Main St,cajun seafood,40.8900267915855,-74.1546874374344
46,NobiWRVSe06yPFptVEUx_w,2sis Thai Kitchen,NJ,Montville,07082,21.0,4.5,634 Main Rd,thai,40.923308,-74.344041
48,pIjUBSJWk4A_W2FioAR3Dg,Bonchon - Hackensack,NJ,Hackensack,07601,51.0,3.5,450 Hackensack Ave,chicken_wings korean asianfusion,40.908844,-74.03151
49,zzBs458_Te-DQSCMknkrdA,Yong Kang Street,NJ,Paramus,07652,25.0,3.0,1 Garden State Plaza Blvd,food_court chinese taiwanese,40.91631,-74.076394
0,aMmN0pO9VJRoS_Z_dALx4g,Gogo Sushi,NJ,Hackensack,07601,2.0,4.5,450 Hackensack Ave,sushi,40.90959119048002,-74.0312303613283
1,r3TB-2Rz-fLBo5YkhhULBg,King Wok,NJ,Fairfield,07004,28.0,4.0,397 Rt 46 W,japanese chinese asianfusion,40.882402,-74.290592
2,3bbeog_gGO-kTIyJhzemEA,Great Wall Chinese Kitchen,NJ,Hackensack,07601,17.0,3.0,254 Main St,chinese,40.886188,-74.041413
26,meBLW7RzoIH2eY6B2AQ_ng,5 Spice Teahouse & Restaurant,NY,Mount Kisco,10549,49.0,4.0,11A S Moger Ave,chinese asianfusion bubbletea,41.2079792,-73.7282908
32,A3Ji6YXwqltYk-wmi3CuQg,Let's Have Thai,NY,Mahopac,10541,89.0,4.5,961 Rte 6,thai,41.39097021313901,-73.7238348
39,ehsSVl-mrviWUoxN9ua7kA,The Grange,NY,Larchmont,10538,23.0,4.5,158 Larchmont Ave,breakfast_brunch bubbletea sandwiches,40.928595,-73.753239
6,6wQ1mOWyim8GSCKlsBtBRw,Thai Golden,NY,Carmel,10512,163.0,4.0,5 Seminary Hill Rd,thai,41.4215974148607,-73.6782511200877
31,qbT4AnuSOl2y4fwLtb_XUQ,Bagels & Deli Express,NY,White Plains,10601,15.0,3.0,38 Westchester Ave,bagels delis sandwiches,41.032759,-73.760998
32,XjMc9k5Hg2KOqj9Z8e-x3Q,China Taste,NY,Carmel,10512,15.0,3.0,1922 Rt 6,chinese,41.414539367032,-73.6677002156254
39,W90fK45NcaehiJLRDsssEw,Panda Garden,NY,White Plains,10601,25.0,2.5,3 S Kensico Ave,chinese,41.0373401,-73.7589609
24,O8ywmI_PjgKalLB6WBiluA,Yum Ice Cream&Bubble Tea,NY,New Rochelle,10801,49.0,5.0,8 Anderson St,icecream juicebars bubbletea,40.9108799,-73.7807123
27,X7Opl9IQDOJNK1tJplhdXw,Korean BBQ Grill,NY,New Rochelle,10801,122.0,4.5,496 Main St,korean bbq bubbletea,40.909017,-73.7813176
31,fB2QftugXW1ltthIXWSGPA,Bento & Tea,NY,Yonkers,10704,2.0,5.0,954 B McLean Ave,bubbletea japanese,40.9034907,-73.8663122
2,88dpHyEMek3aYlMEG396Ig,Steam  Asian Kitchen,CT,Greenwich,06830,34.0,3.0,374 Greenwich Ave,chinese asianfusion,41.022740158893534,-73.62498132596478
3,KMp2rILlUcwBg2-hfg13YA,Guerrero's Juice Bar,NY,Yonkers,10705,12.0,3.5,434 S Broadway,juicebars,40.918582779016,-73.8962936773896
29,gBoqjD5MTJuGx65QjAhJGg,Bangkok City,NY,Pelham,10803,166.0,4.0,100 Fifth Ave,thai,40.9123096,-73.8089336
7,oJtepqd05qirG0kPpapEFw,Golden Phoenix,NY,Bronx,10471,43.0,2.5,5646 Riverdale Ave,chinese,40.90562374271547,-73.90424189040809
21,Bi6veGhmhQKIDYawK36RGA,Moon,CT,Greenwich,06830,48.0,4.0,130 E Putnam Ave,sushi chinese japanese,41.033963,-73.623425
5,VI871H1Uxl6Jv70s-bjXGg,Friend's Corner Tea & Snack Bar,NY,Highland,12528,5.0,5.0,6 Main St,bubbletea,41.71935,-73.96456
6,G1ub6oGNKpktEHiLZbE1Xw,IPho,NY,New Paltz,12561,140.0,4.0,154 Main St,vietnamese,41.74694,-74.08153
11,YAM7oE7VoSbLRmiht2gM8g,Delish Frozen Yogurt Cafe,NY,New Paltz,12561,20.0,2.5,188 Main St,desserts icecream coffee,41.7457,-74.078544
12,bRxw3H2hqR9TO6ZpjoQelg,Bangkok Cafe New Paltz,NY,New Paltz,12561,130.0,4.5,119 Main St,bars thai,41.74808,-74.08375
13,GwAmbjm4G-2Q378FUU4xPA,Crazy Bowlz,NY,New Paltz,12561,25.0,3.5,232 Main St,asianfusion mexican,41.74316,-74.0738
34,73rFaAJPuEc_vqDDC5cY-w,Sprinkles Ice Cream Shoppe,PA,Bath,18014,2.0,5.0,626 E Main St,foodtrucks shavedice icecream,40.72243,-75.38205
1,XYqpEzrPAmGSwmCisQ5DUA,Rita's Italian Ice,PA,Mount Pocono,18344,1.0,1.0,613 Pocono Blvd,desserts shavedice icecream,41.132654,-75.363124
34,GThdh1MY-JGWIRYwwR5jWA,Kawa Ni,CT,Westport,06880,248.0,4.5,19A Bridge Square,asianfusion bars japanese,41.122119,-73.369729
43,u_2hxQtNusF07MsxFRcsYw,Match Restaurant,CT,Norwalk,06854,276.0,4.0,98 Washington St,newamerican,41.09875,-73.41777
14,Kiisn6FeH0iJS879wzHAFQ,Kashi Japanese - Syosset,NY,Syosset,11791,194.0,4.0,343 Jericho Tpke,japanese sushi soup,40.8106099,-73.50346
22,lj8BVEI4agXjb1iFof42lg,Punto Rojo Bakery and Restaurant,NY,Huntington Station,11746,3.0,3.5,1666 New York Ave,colombian,40.84126001284842,-73.41188002377748
7,uSfmEYbZw4_5taheKLGt0g,Saigon Pho,NY,Wappingers Falls,12590,236.0,4.0,1582 Rt 9,vietnamese,41.597578,-73.910487
9,4jmDzb582KrwBSFU6F-bRw,Twisted Soul,NY,Poughkeepsie,12603,212.0,4.0,47 Raymond Ave,asianfusion argentine bubbletea,41.692246132595415,-73.90086157729864
11,5jQYxmj8qageLo6eg-rpBg,Asia City Juice Bar & Ice Cream Roll,NY,Poughkeepsie,12601,24.0,4.0,311 Main St,juicebars bubbletea icecream,41.7033891247102,-73.9265736595078
13,BcbRx2tTXAIBkW8q6Xb4CQ,Amanda’s Macaron Shoppe,NY,Arlington,12603,39.0,4.5,44 Eastdale Ave N,gluten_free bubbletea desserts,41.710298,-73.866982
15,BgmS8g5miSMORfB6pOd4Ig,Tea Talk Café,NY,Poughkeepsie,12601,67.0,4.0,2600 South Rd,coffee cafes bubbletea,41.667119743708,-73.9283034731181
25,-Rr_TaN3lQkzzjMNceSt-Q,Palace Dumplings,NY,Wappingers Falls,12590,437.0,4.5,1671 Rte 9,chinese,41.603235,-73.913041
27,ylAAS6NutxxYrwvark1BWQ,Chinatown Restaurant,NY,Wappingers Falls,12590,20.0,3.5,1830 South Rd,chinese,41.6148967582955,-73.913364717936
30,a4G-yqNQMXn97vaNG0ArBA,Ichiban,NY,Poughkeepsie,12603,55.0,4.5,702 Freedom Plains Rd,japanese,41.6690635681152,-73.8398284912109
31,1YRp_5BO_0bh8ylfU4hDbQ,Mr. Smoothie,NY,Poughkeepsie,12601,3.0,5.0,2000 S Rd,juicebars,41.6270377,-73.91661
32,xDdEyg7wuxmnoW0cgoDQSg,Sushi Village,NY,Poughkeepsie,12603,71.0,3.5,8 Raymond Ave,sushi japanese buffets,41.69574,-73.90099
34,3nlFJf3iA4Gq9e7m51m21A,Tokyo Express,NY,Poughkeepsie,12603,59.0,4.0,8 Lagrange Ave,japanese,41.6928919404745,-73.900214061141
31,4d_ZGRqRvGCg_BPwOKYXuQ,Thai Elephant 2,NY,Patterson,12563,108.0,3.5,2693 Rt 22,thai,41.490177,-73.578068
7,xUMKhSMaFjDgugv4x_RpnQ,The Lemon Ice King,NY,Valley Stream,11580,21.0,4.5,128 Rockaway Ave,shavedice,40.66272,-73.69922
0,J-XiklgHs_j4ujfmAoPAMA,PYO Chai,NY,Stewart Manor,11530,135.0,4.5,100 Covert Avenue Stewart Manor Ny 11530,bubbletea tea,40.72021,-73.688415
1,70sJiHrxP42V3dvNhwNnOQ,Kung Fu Tea Jamaica,NY,Jamaica,11426,4.0,4.5,251-73 Jericho Turnpike,coffee juicebars bubbletea,40.7275,-73.71262
2,m0t4r7E3KVlzX0eEazFyAQ,Kung Fu Tea,NY,Williston Park,11596,81.0,4.0,434 Hillside Ave,bubbletea coffee juicebars,40.75407,-73.65736833
3,b4EsyqGUef3zVmBKxoTnzg,Black Pearl Bubble Tea,NY,Valley Stream,11581,8.0,4.0,2034 Green Acres Mall Sunrise Hwy,bubbletea,40.6618,-73.71966
4,aBHnJI-pxU30vTWnV26DOA,Ha Long Bay,NY,New Hyde Park,11040,128.0,4.5,1200 Jericho Tpke,vietnamese bubbletea juicebars,40.73274413500989,-73.68345234543085
5,Asi1RJsHcdzGc06G5R6-cg,Swan Crepe,NY,Franklin Square,11010,35.0,4.0,727 Franklin Ave,bubbletea creperies,40.688307,-73.6858687
6,3Xz_ErRp-MxuATl8IJ0X1g,Drunk Tea,NY,Rockville Centre,11570,11.0,4.0,10a S Park Ave,bubbletea,40.655822543760515,-73.6456522
7,Ge5pGRQioyGYg2E1eqsHWA,Anda Boba Tea,NY,Queens,11364,3.0,5.0,6115 Springfield Blvd,bubbletea,40.74858326246673,-73.75613638647592
8,v-HxM9bBgHVFI6kkJu-Amg,Chen's Poke Bowl,NY,Mineola,11501,85.0,4.5,106 Old Country Rd,poke hawaiian,40.74016,-73.63414
9,7CFOZuRSQZitXCqPEc22Cw,Donut Craft,NY,Little Neck,11362,15.0,4.5,254-18 Northern Blvd,donuts bubbletea coffee,40.77167701640995,-73.7341275
10,1I0BqA7zkYBEiGba_9AuyQ,Kung Fu Tea,NY,Bayside,11361,100.0,4.0,42-21 Bell Blvd,coffee bubbletea juicebars,40.76204,-73.76976
11,SU4eCPWGHu-mrgzU9zWQdw,Moge Tee - Bayside,NY,Bayside,11364,109.0,4.5,4319 Bell Blvd,coffee bubbletea,40.760879,-73.769338
12,4wz4FUZiYeCmqzdzQyAo1A,V3nom Cafe & Lounge,NY,Jamaica,11426,34.0,4.5,246-09 Jericho Tpke,hookah_bars bubbletea lounges,40.72536,-73.72174
13,pqj-rtSFBmodB1EDgf4cvw,Gong Cha - Little Neck,NY,Little Neck,11362,37.0,4.0,252-01 Northern Blvd,bubbletea tea,40.76995,-73.73645
14,rWoxkBQ1HUEG0Wkl0m-0oQ,kiko Ramen,NY,Garden City South,11530,102.0,4.5,361 Nassau Blvd,ramen,40.71661,-73.661247
15,kq_B_t6T-XB1NafS98R4ag,Efresh,NY,New Hyde Park,11040,143.0,3.5,271-16 Union Tpke,bubbletea salad wraps,40.7519122334391,-73.702410370639
16,Hht3GaTFj8qXDldQZrXCrQ,Momo Ashi,NY,Bayside,11361,160.0,4.5,40-06 Bell Blvd,bubbletea coffee waffles,40.7642746295096,-73.7712760729056
18,zf5_OmlziKvo9KrjplaYSQ,CoCo Fresh Tea & Juice,NY,Bayside,11361,184.0,3.5,45-40 Bell Blvd,coffee bubbletea juicebars,40.759092,-73.76909
19,ekoXDJe_eo1tTBAVDia-ew,Mr.Wish,NY,Great Neck,11021,74.0,4.5,38 Middle Neck Rd,juicebars bubbletea,40.78748,-73.72874
20,ySSW2T0wfhszVYkgvT82mg,The Bowl,NY,Lynbrook,11563,5.0,5.0,88A Atlantic Ave,poke ramen bubbletea,40.654,-73.67143
21,Gx3eGrQmtJHVHgQ6SPrJPg,Tidal Tea - Great Neck,NY,Great Neck,11021,13.0,4.5,6 S Station Plz,bubbletea coffee fooddeliveryservices,40.78675,-73.72647
22,b9yBl6sORC27RXKNf1Ec6Q,CoCo Fresh Tea & Juice,NY,Great Neck,11021,7.0,4.5,501 Great Neck Rd,bubbletea,40.774776,-73.732666
23,nyfIJuj9BbvsmWLsUrjXjw,Manny's Sweet Treats,NY,Mineola,11501,230.0,3.5,156 Jericho Tpke,waffles desserts creperies,40.7491259,-73.64197583097696
24,xQ-KY7C2j73Nnc4CbPX3Cg,Dango Chicken & Tea,NY,Little Neck,11362,11.0,4.5,56-09 Marathon Pkwy,chickenshop bubbletea japanese,40.76011270000001,-73.7315824
25,zeAQoSOP_PEBQUBytolKCA,Gong Cha,NY,Garden City,11530,60.0,3.5,630 Old Country Rd,bubbletea,40.738527,-73.613641
26,4aDrZUA-gg_TIKeLfIhizA,Sweet Adele's,NY,Oakland Gardens,11364,46.0,4.0,73-10 Bell Blvd,bubbletea notaries chocolate,40.7404077,-73.7582947
27,jizUggU8TnQBcMuqIVt3Ww,Mochinut Bayside,NY,Bayside,11361,18.0,4.5,45-43B Bell Blvd,desserts donuts bubbletea,40.76449,-73.77146
28,86pjbrORHXYsVtWHA3ySkg,Meadows Cafe,NY,Fresh Meadows,11365,16.0,4.5,195-09 69th Ave,cafes bubbletea icecream,40.73718807932918,-73.77819544383243
29,W2Dj_3C2ySoXgg1SaGVj6g,Nippon Cha,NY,Bayside,11361,965.0,4.0,39-34 Bell Blvd,ramen tea,40.76432,-73.77167
30,BO9T78kUJainPTvtzzLezA,Coco Fresh Tea & Juice,NY,Flushing,11365,91.0,3.5,182-4 Horace Harding Expy,bubbletea coffee juicebars,40.7391127,-73.7916629
31,BMSercVWfNEnnvU6-A00SQ,Sweet & Savory Cafe,NY,Baldwin,11510,255.0,4.5,821 Merrick Rd,coffee breakfast_brunch bubbletea,40.6509511393644,-73.6117230038576
32,T1MrJBb42ZdXgh7w6C3Dig,Swirl Bliss Frozen Yogurt,NY,Baldwin,11510,34.0,4.5,1777 Grand Ave,icecream acaibowls bubbletea,40.6670113,-73.6080606
33,H9EJqZvzhSIqMv39RfHQ8A,Walt Itgen's Ice Cream Parlour,NY,Valley Stream,11580,160.0,3.5,211 Rockaway Ave,icecream tradamerican,40.66121,-73.69938
34,LGGkKFMglQ_jW7J1ZcHATQ,Remedy Lounge and Cafe,NY,Bellerose,11426,62.0,4.0,252-09 Union Tpke,hookah_bars cafes bubbletea,40.7437943,-73.7184192
35,8BbeJmdz62BaePjcL4xmng,Cold Crush Ave,NY,Jamaica,11432,3.0,3.0,16417 Hillside Ave,icecream bubbletea,40.7090795,-73.7984094
36,JNcrWtYVozFXRZNCOp1TtQ,Red Lotus Bakery & Cafe,NY,Douglaston,11363,90.0,3.5,255-07 Northern Blvd,bakeries coffee desserts,40.77231,-73.73446
37,oMgJ1-eQQVDTsCGr066Yew,HI Tea Hong Kong Style Cafe,NY,Oakland Gardens,11364,143.0,3.0,61-24 Springfield Blvd,coffee breakfast_brunch hkcafe,40.7483950384702,-73.7565841716383
38,zITQkU7NuvGjAQQLiNq27Q,Off The Bone,NY,Queens,11361,9.0,4.0,213-02 42nd Ave,halal bubbletea wraps,40.76238,-73.77104
39,2ds0ggRpf35-3UI3c4aBnw,SriPraPhai Thai Restaurant,NY,Williston Park,11596,551.0,3.5,280 Hillside Ave,thai,40.75466,-73.65088
41,ibIZX1wZ6zYUkkrHsVdNuQ,Thai Table,NY,Rockville Centre,11570,174.0,3.5,88 N Village Ave,thai,40.659533,-73.6481842
42,WJ2BcDWq0rYYjztn3MRPAA,Möge Tee,NY,Fresh Meadows,11365,61.0,4.0,61-12 182nd St,bubbletea,40.73865,-73.79205
43,tnXikL8Qq3wMOypdGaZSJA,Kung Fu Kitchen,NY,Garden City,11530,60.0,4.0,630 Old Country Rd,chinese,40.7380483415529,-73.6128174281723
44,ET4xGd-SQ6gs9lce4xVpQg,Tum Thai Cuisine,NY,Rockville Centre,11570,725.0,4.5,274 Merrick Rd,thai,40.65591,-73.64574
45,sbUSms-JHodarRfxNmuqlQ,Little Dumpling,NY,Little Neck,11362,702.0,4.0,252-20 Northern Blvd,taiwanese shanghainese,40.770172,-73.7357067
46,NMYuVomBMDQMuS_qmyeQYA,New China,NY,New Hyde Park,11040,47.0,3.5,1525 Jericho Tpke,chinese,40.7339294,-73.6793689
47,j8o8b0cD9vb-mRBd3gvp1g,Crepe N Tearia,NY,Fresh Meadows,11366,173.0,3.5,177-07 Union Tpke,creperies tea bubbletea,40.7262611,-73.7907523
48,wzUQu0Gkir5XXeeD-fG7oQ,The Yunique Tea,NY,Flushing,11358,27.0,4.0,42-01 162nd St,bubbletea,40.760083,-73.803827
49,pL5ptg_MKz5OsEcXeRtzTQ,Munchys,NY,Hempstead,11550,12.0,4.5,719 Fulton Ave,sandwiches burgers salad,40.713008,-73.607521
0,NYdIAon4Wj5ZWVFpSNEKsA,Tea Station,NY,Bayside,11361,90.0,4.0,47-16 Bell Blvd,chinese hkcafe noodles,40.7564226,-73.7676567
2,zF3pOzWLQ2ynn_qDBZNaDA,Fukuoka ShaBu ShaBu,NY,Oakland Gardens,11364,106.0,4.0,61-02 Springfield Blvd,taiwanese hotpot seafood,40.7489148257975,-73.7568265199661
3,xO18YHvpixE31AZEgo27kA,Majlis of NY,NY,Bellerose,11426,217.0,3.5,248-05 Union Tpke,hookah_bars cafes,40.742581,-73.7219231
4,4FsbKPzRSOiae9pP0fsVYg,Gong Cha,NY,Flushing,11358,10.0,5.0,159-17 Northern Blvd,bubbletea,40.76319608486079,-73.80590055137874
5,SOi5aLm8K_0jvtgIeDQmqw,Al Nar Hookah Lounge,NY,New Hyde Park,11040,49.0,4.0,271-21 Union Tpke,hookah_bars halal,40.7522202,-73.702545
6,mcd8xc9mmJTL0COywENbug,Manny's Sweet Treats Petit,NY,Rockville Centre,11570,3.0,3.0,280 Merrick Rd,desserts icecream,40.6560078,-73.6450529
7,okJ3n13qMzoYndanvbc0cQ,Lasaka House of Noodles,NY,Valley Stream,11581,10.0,3.0,2034 Green Acres Mall,noodles asianfusion,40.6607232293379,-73.7190745142073
8,qbMZn6BvM3H2QsOcjwD5XA,98K Hamburger,NY,New York,11363,11.0,3.5,249-11 Northern Blvd,chicken_wings burgers hotdogs,40.76842,-73.73806
9,0KigVE4iFCpAguHR-KnhYQ,Poprice,NY,Fresh Meadows,11366,27.0,4.0,162-16 Union Tpke,chicken_wings asianfusion,40.7210122,-73.8052574
10,Uc6Gm3qaXLlCVbnVomRfYA,Bake Culture,NY,Long Island City,11101,16.0,4.5,43-21 Hunter St,bakeries desserts,40.76272483949692,-73.80545054450165
12,J3yvVdCSEyDF3xnEkwqoLg,I'm Mochi,NY,Bayside,11361,45.0,4.5,42-14 Bell Blvd,hotdog donuts icecream,40.76226,-73.77063
13,va0wfKQyDzvOyXvX4pzm6w,Little Saigon Cuisine,NY,Little Neck,11362,137.0,3.5,25309 Northern Blvd,vietnamese chinese soup,40.77102,-73.73559
14,dfNfopJ6voJXinhXOAdY_Q,Bayside Dumpling House,NY,Bayside,11361,140.0,3.5,42-18 Bell Blvd,chinese noodles,40.7621674,-73.7705664
15,IYtCs8A71DUbIMs2dJfGeA,Texas Bar B Q Factory,NY,Garden City,11530,2.0,2.0,630 Old Country Rd,bbq chinese,40.7426186,-73.6157227
16,GPwmKR7K0BGQpzAcnTvMTA,CoCo Fresh Tea & Juice,NY,Queens,11358,5.0,3.0,36-1 162nd St,bubbletea coffee juicebars,40.76575,-73.80325
18,-E5PfobEXNQ_WC8Qv2wGJA,Halal China Kitchen Plus,NY,Jamaica,11432,34.0,3.5,87-48 Parsons Blvd,chinese bubbletea halal,40.7081726,-73.8032476
19,n5XiGT_J_5HtZ7VO_M4CxA,Century Super Buffet,NY,Queens Village,11427,254.0,3.0,220-18 Hillside Ave,chinese buffets,40.7303973,-73.7431664
20,VnnuUGARPaTevTIIApWWVw,The Sweet Sap,NY,Flushing,11358,447.0,4.5,189-11 Northern Blvd,newamerican korean cocktailbars,40.7578205497777,-73.7917962842939
21,upCM15Y3YQoWNc7UXo_QhQ,Happy Garden,NY,Williston Park,11596,67.0,3.0,418 Hillside Ave,chinese,40.7536896,-73.6562275
22,wuKyN4At84CE8wPOC8uvjw,Pho32 & Shabu,NY,Bayside,11361,312.0,3.0,4534 Bell Blvd,vietnamese,40.759318389282654,-73.76902350619756
23,cP2A04yujzVL6MpJv6aerw,Sunshine Cafe,NY,Flushing,11365,3.0,4.5,185-24 Horace Harding Expy,sandwiches bubbletea breakfast_brunch,40.73981,-73.78857
24,qI18SQBMcNTNo4ZqosfEig,Fitoor Cafe & Grill,NY,Fresh Meadows,11366,88.0,4.5,179-22 Union Tpke,hookah_bars halal cafes,40.7266456,-73.788371
25,XK6YteDmgUFdAkjYQoJvVA,Eternal Deli,NY,Hempstead,11550,6.0,5.0,115 Main St,delis pizza catering,40.71036,-73.62603
26,HHXLMk2tBxVcSmZYt6FAOQ,Tea Shop & Bakery,NY,Fresh Meadows,11365,85.0,3.0,61-09 Utopia Pkwy,coffee chinese,40.738687744972,-73.7928751838085
27,oT7hMPTuoqsIW_Vp0UTdaA,Entre,NY,Great Neck,11021,23.0,3.5,10 Grace Ave,coffee vegetarian juicebars,40.788184,-73.727929
28,7ckeFOzUW4A0LkGxlfqlMA,BonBon Bakery,NY,Fresh Meadows,11365,47.0,4.5,164-18A 69th Ave,bakeries customcakes cafes,40.73287,-73.7989599
29,t74WH7e3mgPedVbHxFsYEQ,Bake Culture,NY,Flushing,11358,78.0,3.5,160-6 Northern Blvd,bakeries desserts bubbletea,40.762337,-73.80517
30,1wdJ1vJR_Z1vJebQGlZU3Q,Krungtep Thai Bistro,NY,Great Neck Plaza,11021,265.0,4.0,23 S Middle Neck Rd,thai noodles salad,40.78661,-73.725858
31,69_uRnB0amB6FbmASCo0-A,Pho Che,NY,Flushing,11358,438.0,4.0,193-16 Northern Blvd,vietnamese korean,40.7576858,-73.7881441
32,YjV1J7aw37hod7F1PglxGQ,EDO Sushi,NY,Lynbrook,11563,115.0,4.0,226 Merrick Rd,sushi bubbletea poke,40.6578164,-73.6672811
33,OaXBp5wfH0oY0IQB0kI1Ng,Cafe 48,NY,Bayside,11364,71.0,3.5,212-09 48th Ave,hkcafe,40.7555,-73.76897
34,RgIFYmjtBp5k90AK1jP7Zw,Peking Express Chinese Rest,NY,South Ozone Park,11420,52.0,3.5,13412 Rockaway Blvd,chinese sushi ramen,40.674299,-73.804021
35,4Yd9De70J-Hcd3jfTjzG8w,Miso Ramen and Hibachi,NY,Mineola,11501,108.0,4.0,228 Old Country Rd,japanese,40.73897,-73.64024
36,lMtmOKihaiUBq8T2xHvfOg,O2 BBQ,NY,Bayside,11361,479.0,4.0,45-53 Bell Blvd,korean bbq buffets,40.7589126,-73.7683094
38,IH7POsW-7u8REmanJAWDug,Modoo - Chicken & Noodle Bar,NY,Bayside,11361,322.0,4.0,216-17 Northern Blvd,chicken_wings korean ramen,40.7610944545275,-73.7651000000002
39,DXMfEyJCCAUFgtVZpSkwVA,Nan Bei Ho Corp,NY,Bayside,11364,207.0,3.5,212-22 48th Ave,taiwanese chinese noodles,40.75523,-73.76834
40,-YazuZbXAM_NOny8LpLQpQ,BKNY Thai Restaurant,NY,Bayside,11361,1382.0,4.0,47-11 Francis Lewis Blvd,thai seafood salad,40.7530184239866,-73.780074009384
41,5a9rnHJ0FMxEJGgb5WMLIg,Pho Choice,NY,Fresh Meadows,11365,75.0,3.0,184-22 Horace Harding Expy,vietnamese chinese,40.7396739513779,-73.7898179987494
42,BPCvT8GkSo0-BY5fVQk9-Q,Doodh Patti,NY,Flushing,11358,3.0,3.5,192-08 Northern Blvd,afghani hookah_bars halal,40.75762645001718,-73.78902576083848
43,dJgIS_So__W3vwJWhca8bg,Star Cafe,NY,Fresh Meadows,11365,33.0,4.0,18301 Horace Harding Expy,ramen asianfusion burgers,40.74012,-73.791185
44,xhYLdSHqDzkPl4GXJAs_kQ,Teriyaki Monster,NY,Flushing,11358,17.0,4.5,43-54 162nd St,japanese,40.7572197746031,-73.8045497238636
45,_DvYPB_Vsm37KKoqPUZsTQ,Sunny Garden Restaurant,NY,New York,11432,2.0,4.0,170-07 Jamaica Ave,chinese,40.70743458036395,-73.78948489999999
46,U0EPA8UioDjeL7DVZi_2ww,New Yummy Taco,NY,Fresh Meadows,11366,76.0,3.0,177-09 Union Tpke,tex-mex,40.72633,-73.79067
47,ZZdpczlvjYES_C9jEFIrHw,Paris Baguette,NY,Bayside,11361,25.0,2.5,46-40 Francis Lewis Blvd,bakeries coffee cakeshop,40.7540324,-73.7811815
48,kAwN-eXOLkZ4OJSRgmjojw,Futigi,NY,Fresh Meadows,11365,134.0,3.0,164-04 69th Ave,japanese sushi thai,40.7330466243197,-73.8047376629297
49,Y7cKrhINvxMtYGh5I_V60g,Press 195 - Bayside,NY,Bayside,11361,990.0,4.0,4011 Bell Blvd,sandwiches bars tradamerican,40.763961,-73.770781
0,xsAyLxRlbcKoLmOirWdETQ,Yamato Sushi,NY,Flushing,11358,144.0,3.5,33-23 Francis Lewis Blvd,japanese sushi,40.7667904,-73.7898953
1,53gU4WPWw4SJoijYXKknVw,Jian,NY,Little Neck,11362,88.0,2.5,25435 Horace Harding Expy,chinese,40.76474,-73.726168
2,I8qw99wrI8_6q8LgnL4pYQ,Little Dumpling Bayside,NY,Oakland Gardens,11364,172.0,3.5,221-02A Horace Harding Expy,taiwanese shanghainese,40.74890585705298,-73.75599543396578
3,lauCM3GVV3S6HzUuflJXXQ,Bagel Station,NY,Great Neck,11021,15.0,3.5,6A Bond St,bagels salad sandwiches,40.7879045605659,-73.7273906171322
4,k5qu6Hb63vh1jIqRt6ME3A,Vincenzo's Pizza,NY,Fresh Meadows,11366,135.0,4.0,168-19 Union Tpke,pizza italian,40.7232032,-73.7999885
5,hemsJKNncqsFiOAY_5v2rQ,Taco Fun,NY,Flushing,11358,57.0,3.0,32-67 Francis Lewis Blvd,tacos tex-mex,40.7678895238873,-73.7908273245693
6,Pi5mDnNrhOgLlBlt9sdEPw,Ocean Restaurant,NY,Little Neck,11362,55.0,2.5,249-32 Horace Harding Expy,chinese japanese,40.7605663101823,-73.731138002232
7,1qRlCnjr4V_idaNDysmgmA,Subway,NY,Oakland Gardens,11364,33.0,2.0,61-13 Springfield Blvd,sandwiches,40.748683,-73.75618070344386
8,RCGLzdLq5lrzOJSAS7lw0A,Grande Mela Market,NY,New York,11361,1.0,4.0,38-01 Bell Blvd,delis,40.7664489001036,-73.7724188715219
13,g3wrmpOkQ2mz4WZryOSF2A,Ralph's Italian Ices,NY,Oceanside,11572,2.0,4.0,3111B Lawson Rd,icecream shavedice,40.635599,-73.654478
20,hCj9SLM-xAGUhS8Ph1OEuw,Wired Coffee House,NY,Oceanside,11572,42.0,4.5,3118 Lawson Blvd,coffee breakfast_brunch sandwiches,40.635211884848,-73.6544715653723
44,QxIsBUWQvb2wxCWvSibGMQ,Thai Ramen and Bubble Tea,NY,East Rockaway,11518,7.0,5.0,10 Davison Plz,ramen bubbletea vegan,40.64325424679517,-73.65963267579838
5,AQqUiXi0hn1xu5qVfM54IQ,Beijing Dumpling House,NY,Jamaica,11435,341.0,4.5,88-38 Sutphin Blvd,bubbletea chinese noodles,40.7043147,-73.8091804
15,8hRd2HOVQyH51yoyf4qW4w,Ming Hing Chinese,NY,Hewlett,11557,4.0,2.5,1305 Broadway,chinese,40.6386313,-73.7008926
43,LyVdb1eW0dWA5ViCXVsruA,China King Express,NY,Queens,11435,15.0,2.5,146-13 Archer Ave,chinese sushi,40.700619,-73.808194
49,PqJLW0N5cT0W_Svt2dE9OQ,Moment Cafe 小苏州,NY,Flushing,11355,47.0,4.0,157-02 45th Ave,noodles coffee shanghainese,40.7566295,-73.809031
10,YMJbrX_n3juXDRsemE81hg,Hu's Teashop,NY,Queens,11355,1.0,2.0,202 Capa,bubbletea,40.7480917509622,-73.8087227282263
23,iys6LRvfAg71hbdr11FlfQ,Great Neck,NY,Great Neck,11024,1.0,5.0,181 Steamboat Rd,bubbletea,40.8094591,-73.7524384
42,3JZdNyQ0Ezp9hIuSgQ-feA,27 Dressings,NY,Great Neck,11023,23.0,3.0,519 Middle Neck Rd,salad juicebars gluten_free,40.8005753,-73.7342758
44,0tY7uPrv2sQ-npalLNPFsw,Tofu Story,NY,Queens,11358,155.0,3.5,15222 Northern Blvd,korean,40.76477812489028,-73.81226077
29,LdeWzWjrV8e_1oFZ5I0v_w,Lucky Penguin,NY,Glen Head,11545,11.0,4.5,675 Glen Cove Ave,icecream bubbletea juicebars,40.8323481,-73.6298649
39,f99NgqbUHN6-bRZRvChg7w,Croffle House,NY,Flushing,11354,232.0,4.5,40-17 149th Pl,bakeries cafes donuts,40.762998,-73.814836
5,MWtBVRNZwahTwr9wniDqyA,Ikedo Ramen,NY,Port Washington,11050,70.0,4.5,983 Port Washington Blvd,ramen tapasmallplates,40.829901,-73.683615
6,X9B1HeoaN2ghvHpt9MkSeQ,The Whale Tea,NY,Flushing,11355,5.0,3.0,60-05 Kissena Blvd,bubbletea,40.73957636370774,-73.81478049659326
8,yU-ZxFJIDSgEoNbpqyPdRw,Narinatto,NY,Port Washington,11050,49.0,4.0,5B Irma Ave,asianfusion diners korean,40.83097,-73.68856
28,fgKc9ng-zKBz_KUA5kS1WQ,Momo Ashi,NY,Flushing,11355,7.0,3.5,147-05 45th Ave,bubbletea coffee waffles,40.7556442,-73.8151292
29,FOQc04Bg26J-zMdRGi_j9g,sushi and ramen,NY,Queens,11355,3.0,3.5,60-05 Kissena Blvd,japanese,40.73957618977829,-73.814784577405
48,DED8tBg7SFg1_3xsASWReg,Kissena Cafe,NY,Flushing,11355,38.0,3.5,6004 Kissena Blvd,cafes bubbletea,40.7395042,-73.8152871
1,yUOusjB6AVX4Qm_muXtl7g,Anderson Cake Bakery,NY,Flushing,11355,5.0,2.5,14901 41st Ave,korean bakeries,40.76229,-73.81579
3,f1MSMLQPpY_-L4YnWgUPcQ,Dr. Sea Sealicious,NY,Flushing,11355,24.0,2.5,45-08 Parsons Blvd,seafood steak bars,40.755368,-73.815613
19,VhBFncnsCU_O5YlXgsmumQ,Umi Sushi And Lounge,NY,Flushing,11355,34.0,2.0,4508 Parsons Blvd,asianfusion sushi,40.75533,-73.81566
43,PGypdUA66H-yTF2aSeNVsA,Han Noodle House,NY,Westbury,11590,17.0,3.5,467B Old Country Rd,chinese noodles,40.746692,-73.596644
9,8LVhb_lcWyZq47mwFvEhKQ,Gateaux Desserts,NY,Westbury,11590,1.0,5.0,225 Post Ave,bubbletea fooddeliveryservices waffles,40.756839,-73.588131
15,8RUCBrnIp6uqupKMEqE02A,Basil Express Halal,NY,Westbury,11590,7.0,3.0,623 Old Country Rd,chinese japanese thai,40.75104,-73.57514
15,PbsxaiLU2tl5_IaSOGP_xw,Mr. Wish,NY,Kew Gardens,11415,133.0,4.5,80-62 Lefferts Blvd,bubbletea juicebars tea,40.7092903,-73.8297658
17,wusuW7VDDWEGKfOBbm2k_g,Xing Fu Tang,NY,Flushing,11345,385.0,4.0,40-52 Main St,bubbletea desserts taiwanese,40.75816,-73.82982
25,1gXKzs-1EPxJ7gkHW6SDyg,Chun Yang Tea,NY,Flushing,11355,183.0,4.5,133-41 41st Ave,bubbletea,40.758001,-73.8299476772982
33,al18yEngUcmhWzJyMBDsNQ,Möge Tee - Flushing,NY,Flushing,11354,191.0,4.0,38-03 Main St,bubbletea tea,40.760793452528084,-73.83055053424576
0,tbUsJOkqz2sWL4QfbjMZaA,The Whale Tea,NY,Queens,11354,2.0,4.0,25-25 Parsons Blvd,bubbletea,40.7760786363067,-73.82359709590673
3,bn0zZ9nT_j1INOwfpxWmEw,Tiger Sugar,NY,Flushing,11354,741.0,4.0,136-20 Roosevelt Ave,bubbletea desserts coffee,40.75922023369396,-73.83030496537685
4,lE-SOH9bN462YiKvyBTpsg,Song Tea,NY,Flushing,11354,56.0,4.0,38-21 Main St,bubbletea,40.760447,-73.830369
6,E8pooTXfQLYCcS3ncjruXA,CoCo Fresh Tea & Juice,NY,Flushing,11354,234.0,3.5,39-22 Main St,coffee juicebars bubbletea,40.75958,-73.8305
22,Lj8Ui6wlV7Er3-4r3yNsoA,Moon Cafe,NY,Flushing,11354,186.0,3.5,137-06 Northern Blvd,cafes desserts coffee,40.7629495940754,-73.8306925482605
25,9dhGePWNyepzSg4_Z7GzGA,Tea Shop 168 & Bakery,NY,Flushing,11355,111.0,3.5,5920 Main St,bakeries coffee,40.743309,-73.825935
26,slh3P8F44v6Ue3FlOZVdRA,Gong Cha,NY,Flushing,11354,84.0,3.5,40-06 Union St,bubbletea,40.7602238538863,-73.8264785798832
28,tRkS7n-kw1Kekxj4CPViVQ,Gong Cha,NY,Flushing,11354,140.0,3.5,136-20 Roosevelt Ave,bubbletea,40.759645,-73.829045
29,coaneiOkJhPMUuXgJOy1YQ,Fruitea,NY,Queens,11355,8.0,4.5,57-5 Main St,coffee juicebars,40.7462020363573,-73.8259457666659
33,8cFOJd4dTkkE7EFUns8kGQ,Ikko Hibachi Sushi Asian Bistro,NY,Bronx,10465,102.0,4.0,3938 E Tremont Ave,asianfusion japanese sushi,40.821186,-73.818848
35,Aw5BX_3jWWpkbyCQl6rT5Q,Sugar Story,NY,Flushing,11355,57.0,1.5,41-61 Kissena Blvd,desserts,40.7578145,-73.8268632
39,zE4uc_e2xASMJX3OrVq56g,Vivi Bubble Tea,NY,Flushing,11355,23.0,3.5,41-42 Main St,taiwanese bubbletea juicebars,40.756965,-73.829318
40,2hPBnt2OkrvnbLTBlDgLpQ,88 Canteen,NY,Flushing,11355,141.0,3.5,58-46 Main St,hkcafe customcakes,40.74402,-73.82608
41,QBBbWJJpw19qExpGVk5Y8g,Miju Dessert & Tea,NY,Flushing,11355,3.0,4.5,41-90 Bowne St,desserts coffee juicebars,40.7573147577722,-73.8224725797772
42,-7TECR1UmdqwuAUwfN5GUA,Rainbow Bakery,NY,Flushing,11355,17.0,4.0,41-39 Kissena Blvd,desserts bakeries bubbletea,40.75799,-73.828332
47,_IMmtGFVfyHHR8RhONabog,Möge Tee,NY,Flushing,11355,7.0,3.0,42-35 Main St,bubbletea,40.7543916,-73.8277266
2,_HnHXaptod3lx2WlKYYNnQ,Kung Fu Xiao Long Bao,NY,Flushing,11355,927.0,4.0,59-16 Main St,shanghainese dimsum cantonese,40.7433429,-73.8257699
5,piSw7-cflBu7SqwskoIuTQ,QQ Cafe & Bakery,NY,Flushing,11355,34.0,3.5,4257 Main St,taiwanese,40.7538118,-73.8274643
6,HvwzpovfVUYPxWR6nogX-g,Golden Chef,NY,Bronx,10461,19.0,4.5,1632 Crosby Ave,hotdogs chinese,40.8449738353256,-73.8306849996683
10,741IMLpXPq755tDaEYXAtA,Joe's Steam Rice Roll 石磨腸粉王,NY,Flushing,11354,774.0,4.5,136-21 Roosevelt Ave,dimsum cantonese food_court,40.76012,-73.82941
12,jWuUibgnTGsJibOrr6UUSw,Haidilao Hotpot Flushing,NY,Flushing,11354,1664.0,5.0,138-23 39th Ave,hotpot chinese,40.76099,-73.827853
14,b6O3gPP3S0eugOO4tIbxPg,Ok Canaan Taiwanese Gourmet 台灣好滋味,NY,Flushing,11355,79.0,4.5,43-18 Main St,taiwanese,40.75182,-73.8272
20,k8vE6g59i4JrAmXd6K1g5w,Friendship Foods BBQ,NY,Flushing,11354,324.0,4.0,136-76 39th Ave,bbq hotpot,40.76071,-73.82759
23,Dv04gXJ8y4szp6y3LXr81w,Tiger Hill,NY,Flushing,11354,13.0,3.5,136-49 Roosevelt Ave,bubbletea,40.76027,-73.82834
25,XkIW7sygtBLk7wuaLI4w4g,HK Seafood Restaurant 香港風味食坊,NY,Flushing,11355,136.0,3.5,42-96 Main St,hkcafe cantonese dimsum,40.752527,-73.827342
26,0yDphBUqoxi-QppknNX9bw,Bubble Tea,NY,New York,11354,2.0,3.5,144-50 Northern Blvd,coffee,40.76456,-73.82151
28,ztqyZIUJA3T8twBA-8l5Cg,LKF Cafe 蘭桂坊,NY,Flushing,11354,136.0,3.0,142-38 Roosevelt Ave,hkcafe noodles,40.7606101325647,-73.825157135725
29,frbWzplkpgFx8TJy35ezPw,T-Swirl Crepe,NY,Flushing,11354,306.0,4.0,40-08 Union St,creperies desserts,40.76020973750528,-73.82652261011252
33,R0nqkZjgKLpgvj2Qk39MeA,Shero Cakes,NY,Flushing,11354,33.0,4.5,137-06 Northern Blvd,cakeshop customcakes desserts,40.7629617,-73.8307749
36,dUxhYX4hfWa4wDfIFgii3g,Kimganae,NY,Flushing,11354,820.0,4.0,3912 Union St,korean breakfast_brunch coffee,40.7608325,-73.8269221
37,1-oCMIHLTRyK1wOD9k2cVw,Ke Zhang,NY,Flushing,11355,112.0,3.5,45-72 Kissena Blvd,chinese,40.7506275,-73.8193525
38,gk62O7awikAWLbWeNk8gcA,Mask Hotpot Galatea,NY,Flushing,11354,2.0,4.0,136-20 Roosevelt Ave,bubbletea,40.759362,-73.8290939
39,6n2rHuzmtk0cJORtUJ3i4w,Teaus Sushi Burrito,NY,Flushing,11355,39.0,3.5,42-35 Main St,sushi,40.7544399,-73.8277479
40,r7Fgjubcm4I4OmbOwzCIow,TKK Fried Chicken Queens Crossing,NY,Flushing,11354,41.0,3.0,"136-20 38th Ave,",bubbletea chickenshop asianfusion,40.76096,-73.8297
41,uy-rlHFzdiGT7lrGqSYJbA,Taipei Hong,NY,Flushing,11354,110.0,4.0,136-55 Roosevelt Ave,taiwanese chinese,40.760271,-73.828224
42,7jCmJS7LypWjU1JYf9RoQw,TBaar,NY,Flushing,11355,70.0,4.0,136-20 Roosevelt Ave,bubbletea juicebars tea,40.759362,-73.8290939
44,lLO8Nj-kPJ_b6vEs022GxQ,Xiang Hot Pot,NY,Flushing,11354,388.0,4.0,136-20 Roosevelt Ave,hotpot chinese soup,40.75933,-73.8291799
45,KJjP84Tbxv8r3vdpxl1Smg,Tasty House 18,NY,Flushing,11355,79.0,3.0,44-12 Kissena Blvd,chinese,40.7535185,-73.8223787
47,CHlSivNP8U8R5ARvXvz8QQ,Spring Shabu-Shabu,NY,Flushing,11354,1263.0,4.0,136 20 38th Ave,buffets hotpot seafood,40.760924701904784,-73.83002707689919
48,ZSzJiWKmcf2KSgx1_MN0lg,Chakra Japanese Fusion,NY,Flushing,11355,44.0,4.0,59-08 Main St,bubbletea ramen sushi,40.743631,-73.825962
1,f1Q1n_dLzCvqU-dq0EBNsQ,Asian Gourmet,NY,Flushing,11355,119.0,3.5,57-11 Main St,vietnamese malaysian thai,40.74609368699216,-73.82589484105429
7,w5b3Vbi7Fqvpe0ObyWdeWw,Zhang Liang Hot Pot,NY,Flushing,11354,30.0,2.5,136-49 Roosevelt Ave,hotpot chinese noodles,40.76027,-73.82834
11,Ok8mKk6ESg9o2KQwjDDkkg,Yummy Sushi,NY,Flushing,11354,2.0,1.5,,fooddeliveryservices sushi poke,40.76559829711914,-73.82565307617188
12,Nb7tu28Fmt-TmWeI6TaKQw,The Food Hall at Queens Crossing,NY,Flushing,11354,9.0,4.0,136-17 39th Ave,food_court chinese korean,40.7604295,-73.829968
14,LktxVJKPev11aC5SeqlLTA,Daxi Sichuan 大喜,NY,Flushing,11354,306.0,4.0,136-20 Roosevelt Ave,szechuan,40.75933,-73.8291799
16,WUbS6uP7i8GIRayM1SRF7Q,Kung Fu Tea,NY,Flushing,11354,47.0,3.0,136-20 Roosevelt Ave,bubbletea coffee juicebars,40.759175,-73.829656
17,Vz6hbICqQfyMWq9wzAKakw,TBaar,NY,Flushing,11354,6.0,4.0,37-11 Main St,bubbletea juicebars coffee,40.7613116,-73.8308122
18,QBebLBqhiuDlWasPgp6s4Q,Tbaar,NY,Flushing,11354,2.0,3.5,135-52 Roosevelt Ave,bubbletea,40.759357,-73.830396
20,cZ42z2_urryidlWp1pjT0w,New Kissena,NY,Flushing,11355,47.0,4.0,44-29 Kissena Blvd,chinese,40.7534522,-73.8220494
21,YBgAPbviWYtVP2gAUhc7_A,T Baar,NY,Flushing,11354,8.0,3.5,135-36 40th Rd,bubbletea,40.7587509,-73.830162
24,d_eInFpX-Ix9qxFFYAqqLA,Xinjiang BBQ Cart,NY,Flushing,11355,334.0,4.5,41ST Ave,bbq foodtrucks asianfusion,40.75871232880857,-73.82939837197522
25,Cf_XvhoRJj9Ku0glKGu7aQ,Lucia Pizza,NY,Flushing,11354,586.0,4.0,136-55 Roosevelt Ave,pizza,40.76032,-73.82813
26,eF50uwEQ_jtPdHq4kT9cFw,Banh Mi Stop,NY,Flushing,11354,6.0,2.0,13706 Northern Blvd,vietnamese,40.762967,-73.830778
27,SOd1tlb9zl_oDYRUOEjK-Q,Parsons Diner,NY,Flushing,11354,29.0,3.0,2527 Parsons Blvd,breakfast_brunch,40.7756081,-73.8242899
28,uoWPlDpOoRa91GU6Czo28w,New Super Snack,NY,Flushing,11355,12.0,3.5,4128 Main St,asianfusion,40.757205,-73.829391
29,f5UVQXvDpOrrIZdCjsw47w,Maxin's Cafe,NY,Flushing,11354,15.0,3.5,135-24 40th Rd,bakeries chinese bubbletea,40.7585,-73.83064
30,9pLZ9PNlrs7MYTGnTEthTg,Old Street - Lao Jie Food 老街食坊,NY,Flushing,11354,42.0,3.0,86 138th St,food_court chinese noodles,40.7607645357617,-73.8293480873108
31,zVHUh3HAWoAkX2yW95sQCw,LaoMa MaLaTang,NY,Flushing,11354,180.0,3.5,New World Mall,szechuan,40.75933,-73.8291799
33,_X8K1SI2ikAYgxbpB8lBiQ,East Buffet & Restaurant,NY,Flushing,11355,385.0,2.5,4207 Main St,buffets dimsum hotpot,40.7550707,-73.8280097
34,fUBE0G6F-NR3I6IYjOUgeA,Lan Zhou Handmade Noodle,NY,Flushing,11355,169.0,4.0,41-28 Main St,chinese noodles,40.75723,-73.82937
25,xkoWpDYcWVHPhAWPopcdDg,Prince Tea House,NY,Flushing,11354,958.0,4.0,36-39 Prince St,tea desserts coffee,40.76133,-73.83264
26,nRj8YycVcptNPeTg-Av_DQ,PARTEA NYC,NY,Flushing,11354,159.0,4.5,135-29 Roosevelt Ave,arcades bubbletea chicken_wings,40.75949,-73.83101
39,qF8Y3WvaWe7EaALWsIjdLA,The Alley,NY,Flushing,11354,332.0,3.5,38-02 Prince St,bubbletea coffee,40.7601296749072,-73.8327264543844
42,W-WfjxBnMhv_ah386BlcvA,Yi Fang Taiwan Fruit Tea,NY,Flushing,11354,313.0,3.5,135-15 40th Rd,bubbletea,40.75875,-73.83105
47,p4TERLi-Oqc5-M2pIsBvtw,15 Flavors,NY,New York,10461,25.0,3.5,1763 Crosby Ave,icecream bubbletea juicebars,40.8466751,-73.832048
49,ae8AqaVJ0sUHT4eJwMq-Pg,Spot Dessert Bar,NY,Flushing,11354,761.0,4.0,39-16 Prince St,desserts coffee icecream,40.75924,-73.8326
15,W9QrnhZm7f05cnMKZxmmxQ,Cuppa Tea 廣芳園,NY,Queens,11354,53.0,4.0,37-12 Prince St,coffee,40.76044182255339,-73.83315599887182
18,cwSU8dMbmj3yi10tFXdy6A,TSAôCAA,NY,Flushing,11354,55.0,3.0,38-04 Prince St,bubbletea,40.759908,-73.832656
20,RE2CIXCaVtN9H9KruYNRvg,Yomie's Rice x Yogurt,NY,Flushing,11354,52.0,4.5,135-28 Roosevelt Ave,juicebars bubbletea icecream,40.759186526090566,-73.8309482
21,eLyC22lOMqYXdSzsTONuyA,Teazzi Tea Shop,NY,Flushing,11354,75.0,4.0,135-17 38th Ave,bubbletea,40.76058,-73.83213
28,F6CyiY-TkgWG06c6bdzo3Q,M Tea,NY,Flushing,11354,111.0,3.5,36-56 Main St,bubbletea desserts juicebars,40.761704,-73.8314553
29,OBQ2IKvREm5oW6_uu-v_uw,Shangerila Restaurant,NY,Bronx,10461,261.0,3.0,2893 Buhre Ave,sushi buffets seafood,40.847301,-73.8330438
30,M_dRPQ2O0RBRTGSWh0fZew,YanYan Tea,NY,Flushing,11354,45.0,4.0,135-03A Roosevelt Ave,bubbletea,40.759241,-73.831772
38,x1W1n8eWeS3FMTAlN3AQww,Sweet Cats Cafe,NY,Flushing,11354,47.0,4.0,35-21 Farrington St,arcades desserts bubbletea,40.763856,-73.83124
40,Pysmvb6_b0aFU_-3N50O-A,Juice Rite,NY,Middletown - Pelham Bay,10461,32.0,3.5,3042 Buhre Ave,salad juicebars breakfast_brunch,40.8470617748617,-73.8317152027474
14,kBZggrnSP1kcUMnsnfkTaQ,Nan Xiang Xiao Long Bao,NY,Flushing,11354,4037.0,4.0,39-16 Prince St,shanghainese gourmet noodles,40.75924,-73.8326
17,r9ohtnv2CIXAmWcxq7USMg,Happy Lemon,NY,Flushing,11354,143.0,4.0,133-35 Roosevelt Ave,taiwanese bubbletea juicebars,40.758700458232674,-73.83313231841552
19,sxngBOOFdKJ2Ogiy6GRyqw,Eggcellent Souffle Pancake,NY,Flushing,11354,174.0,4.0,135-15 40th Rd,desserts pancakes,40.75875,-73.83105
29,-86K6KX3HlUwkWTWRO3VAQ,KYURAMEN,NY,Flushing,11354,1023.0,4.0,133-42 37th Ave,ramen burgers soup,40.76051,-73.83339
32,gqoFq6ptn1C1D0R8DypaRw,39 Kings Cafe,NY,Flushing,11354,106.0,3.5,39-07 Prince St,dimsum bubbletea hkcafe,40.759646115666015,-73.83219154403531
33,hTgz6L9PbB5f5fGF5lMWUA,Duomi Rice Yogurt House,NY,Flushing,11354,20.0,4.0,3907 Prince St,bubbletea juicebars,40.7594624,-73.83203209999999
47,54_wHr9PpvpZDeEeIVtXCA,Nai Brother,NY,Flushing,11354,15.0,4.0,135-3 Roosevelt Ave,chinese soup bubbletea,40.75917756288389,-73.83158504672816
49,X9HdHsP3H0HXIjGOX8ADOQ,Sugar Story,NY,Flushing,11354,57.0,2.0,4049 College Point Blvd,desserts,40.7567219996262,-73.8336795195937
3,jfGKLQT9GhaSQrD8xMngsw,Bake Culture,NY,Queens,11354,8.0,4.5,38-04 Prince St,bakeries desserts,40.75998,-73.832761
4,mEi57As_Gwyt1F73V2x__A,1392 Seafood BBQ,NY,Flushing,11354,69.0,4.0,39-16 Prince St,seafood bbq chinese,40.759217,-73.832547
7,3xEGnchichHRlEKbU_jV5w,Iris Tea & Bakery,NY,Flushing,11354,249.0,3.5,3907 Prince St,bakeries coffee desserts,40.7592324619422,-73.8317422785042
8,ONAYYHa-QALPbDde9C-ujQ,99 Favor Taste- Flushing,NY,Flushing,11354,720.0,3.5,135-41 37th Ave,hotpot bbq buffets,40.76167,-73.83179
13,cqaEC8brOh7P2OLT_r2xNg,The Coop,NY,Flushing,11354,973.0,4.0,133-42 39th Ave,korean,40.7592888,-73.8326492
14,F2Pffrayfs1eQK1Y5How7w,Legend Chicken,NY,Flushing,11354,186.0,4.5,135-15 40th Rd,chicken_wings taiwanese chickenshop,40.75875,-73.83105
23,AynBeXwACR_uJ9v3ZLnR5A,Young's Dessert Bar,NY,Flushing,11354,69.0,3.5,38-02 Prince St,desserts coffee,40.7600334029779,-73.8327984139323
32,ZybTcEwBUeQqiiyyBpoiPQ,White Bear,NY,Flushing,11354,1056.0,4.0,135-02 Roosevelt Ave,chinese,40.758783,-73.83163
36,JWSdQBww6MiRk6gYgxLUaQ,One Nice Tea,NY,Flushing,11354,1.0,2.0,37-12 Main St,bubbletea,40.76097,-73.83147
45,EzMdq_Hhx034EAmgYTpRYQ,Tous Les Jours,NY,Flushing,11354,72.0,2.5,39-16 Prince St,desserts coffee bakeries,40.7593849,-73.8326682
48,gKjp0KHyrU1AFPOnkuo_Fw,Spicy Palace 马路边边,NY,Flushing,11354,106.0,3.0,3717 Prince St,szechuan,40.76041,-73.83262
4,pKTVpJCpfIUQ1AfXzgleVA,Four Four South Village Taipei Beef Noodles,NY,Flushing,11354,151.0,3.5,38-06 Prince St,taiwanese noodles,40.75996,-73.8327
6,rLa-9Tt1LDfpB78mhHuXZw,698 Cafe,NY,Flushing,11354,87.0,4.0,39-07 Prince St,cantonese szechuan,40.75945,-73.83195
7,dKm4qh_UGFJy6OBsRf_XRg,Kaotea Sushi,NY,Queens,11355,9.0,1.5,41-12 College Point Blvd,sushi,40.7558402,-73.8337732
10,zZecd370h2jxzh1kRJ4y2g,Asian Jewels Seafood Restaurant,NY,Flushing,11354,1172.0,3.5,13330 39th Ave,seafood dimsum cantonese,40.759076,-73.8337556
11,81mLu3JU5t3r2u5g7CKD1g,Vanilla Cafe,NY,Flushing,11354,44.0,3.5,135-20 Roosevelt Ave,coffee bakeries,40.75898,-73.83119
13,l5ayMkjXp-B-WxvYkQBo4A,New York Food Court 紐約美食城,NY,Flushing,11354,176.0,4.0,133-35 Roosevelt Ave,chinese food_court,40.75898,-73.83325
15,5agbggvhHI_juAZRfCqtZw,Iki Modern Japanese Cuisine,NY,Flushing,11354,278.0,4.0,133-42 39th Ave,japanese sushi,40.7593752743543,-73.8328623173734
16,fKLFQAhevr3GuzOPpZobRg,Fay Da Queens,NY,Flushing,11354,8.0,3.5,13516 Roosevelt Ave,bakeries desserts,40.758938,-73.831332
5,w2oSwwvOf-DBnEUumq_TIA,The Buffet,NY,Flushing,11356,846.0,3.5,20-07 127th St,buffets sushi seafood,40.78139892324089,-73.8412969
12,tx-gxkns4uFyve7Eu5mYKA,Tana Thai,NY,Bronx,10461,209.0,3.0,1890 Eastchester Rd,thai,40.8513635,-73.8439993
6,eqElqa8H3duE2wFUUpObXQ,Gong Cha,NY,Flushing,11354,31.0,4.0,40-24 College Point Blvd,bubbletea,40.7572289,-73.8341357
9,g3qNap66pAFlX_SG3xe60w,Grandma's Dim Sum,NY,Flushing,11354,253.0,2.0,40-24 College Point Blvd,dimsum cantonese,40.7571235214672,-73.8353595882654
19,0p5OZcoiDjoYRaS-hBX3jw,Coco Fresh Tea & Juice,NY,Flushing,11354,80.0,3.5,40-24 College Point Blvd,juicebars,40.7573433,-73.8341904
20,94rbbfGsUIER8bysytaWPw,Beard Papa's,NY,Flushing,11354,143.0,4.0,4024 College Point Blvd,desserts bakeries japanese,40.7574069471889,-73.8354960456491
24,6s_BnrbjsQO-bipbLMsb1w,Meet Fresh,NY,Brooklyn,11220,79.0,4.0,5815 8th Ave,desserts bubbletea taiwanese,40.63621,-74.0086
25,SSFLeA5QdUqaj_RODhOrAQ,Bubble Hut,NY,Bellmore,11710,140.0,4.0,2026 N Jerusalem Rd,bubbletea sushi ramen,40.7010745,-73.5515274
41,m58nsEI5G0l3qcgZoy9urw,Mars Tea,NY,New York,11214,33.0,4.0,2037 86th St,icecream bubbletea juicebars,40.60414090608403,-73.99715547041212
