,id,name,state,city,zip code,review count,rating,address,categories,latitude,longitude
0,gNy6r6xysB_FpsRWGSLRDw,Tropical Waters' Snowball Stand,MD,Clarksville,21029,1.0,5.0,12260 Clarksville Pike,shavedice foodstands,39.211272,-76.940245
1,e2DAoYO7EnSE-d3aXgvX_w,Ky Ky's Hawaiian Ice,MD,Ellicott City,21043,2.0,4.5,4910 Waterloo Rd,shavedice foodtrucks,39.23631,-76.79916
2,tHOb7MPNOA_Cf7NA8YRz8w,The Original Woodstock Snowball Stand,MD,Woodstock,21163,39.0,4.5,1970 Woodstock Rd,icecream desserts shavedice,39.31754,-76.8837999
3,_tqyh9Q2Cg6TpkvJhEuaWA,Shorty's Ice Shack,MD,Severn,21144,4.0,5.0,7865 Quarterfield Rd,shavedice,39.1411647556537,-76.6506160297262
4,jnF3rYtZlBMSzxsLA2nLzw,Bears Shaved Ice,MD,Gaithersburg,20878,14.0,4.0,12311 Darnestown Rd,shavedice,39.1183221,-77.2562328
5,Dnei5u4ypzhH3OB5O2Utow,Sno Zone,MD,Glen Burnie,21061,2.0,5.0,1011 Crain Hwy S,shavedice,39.1536182798668,-76.6309445433495
6,4CW1DHhwOb2OBHgUSPBtAw,Siroo Juk Story and Tea Cafe,MD,Ellicott City,21042,118.0,4.0,10176 Baltimore National Pike,desserts coffee korean,39.2803780176038,-76.8632296610002
7,NKGOPa20Oae_JqgB3Wq-uA,Hula Honey's Hawaiian Shave Ice,MD,Baltimore,21211,2.0,5.0,,streetvendors shavedice,39.3281288146973,-76.6384963989258
8,4ykmgjVNEHxpEOZmUvac1g,Wendys Wonderful Snow Cones,MD,Silver Spring,20903,1.0,5.0,9625A Mt Pisgah Rd,shavedsnow juicebars,39.01451,-76.97673
9,s4S3CDFCff-oibqPYxD9TA,Blizzard’s Shaved Ice,MD,Westminster,21157,1.0,5.0,200 Clifton Blvd,shavedice,39.584641,-76.986561
10,E50TYss1pPYQvAID04xPYQ,SnowBots,MD,Rockville,20852,722.0,3.5,1701 Rockville Pike,desserts bubbletea shavedice,39.0611330304181,-77.1242393725521
11,20IvMOrMSaGpt2zyu96N8Q,Cherry's Shaved Ice,MD,Westminster,21157,3.0,4.0,113-159 Englar Rd,desserts,39.5823265,-76.9912571
12,YZyW2YMCS-XVj0Tw1X-e1g,Hawaiian Shaved Ice Snowball Stand,MD,Glen Burnie,21061,11.0,4.0,1003 S Crain Hwy,shavedice,39.153526,-76.630722
13,2mmWxSW5V22gQ2xTWPXt1Q,Fruti Raspados Mary,MD,Gaithersburg,20877,2.0,5.0,6 E Diamond Ave,shavedice,39.14186,-77.19817
14,ebd5xdjv4oJViKf3fvVK4w,"Chill Snowballs, Ice Cream & More",MD,Reisterstown,21136,9.0,4.5,249 Main St,shavedice icecream,39.462577,-76.827861
15,PKFZmEiQzMjVqf_QtU8gSA,Tiki Treats,MD,Bethesda,20817,4.0,5.0,10319 Westlake Dr,foodtrucks shavedice catering,39.0259094,-77.1480942
16,3WHx1O85XjN2W-Q6be_h0Q,Bon Appetit Bakery,MD,Ellicott City,21042,90.0,3.5,10155 Baltimore National Pike,bakeries coffee sandwiches,39.27903,-76.86197
17,CchyzPHSTv1NPFeTPQ1Yrg,Old School Ice Cream,MD,Westminster,21157,11.0,4.0,4211 Ridge Rd,icecream shavedice,39.458905990503,-77.0856480672956
18,NppigKGKr9COGSZ9MKrq1Q,Bear's Shaved Ice,MD,Bethesda,20814,9.0,4.0,8804 Old Georgetown Rd,shavedice,38.9999670614323,-77.1100353565672
19,jODDoWqPXxSCrQS6WCBcjA,Tous Les Jours,MD,Ellicott City,21042,373.0,4.0,9380 Baltimore National Pike,bakeries coffee desserts,39.278494,-76.8347723
20,iVKScd2o9FuIqFt6uWwgzw,Manila Mart,MD,Beltsville,20705,169.0,4.5,5023 Garrett Ave,filipino intlgrocery,39.0411696112803,-76.9057238101959
21,yI53cmtcCz2BGE480LprJg,Clayboys Shave Ice,MD,Bethesda,20814,6.0,5.0,4803 Bethesda Ave,shavedice desserts,38.981144,-77.096131
22,L4QDGo-AUBrn0Rhjwrf6ug,Rainpia,MD,Ellicott City,21042,206.0,4.5,10194 Baltimore National Pike,korean pubs chicken_wings,39.28048,-76.86406
23,NFjbxYN8y8r3zPdYAOX6-A,Melt Cafe & Gelato Bar,MD,Boyds,20841,20.0,4.0,22705 Clarksburg Rd,desserts creperies gelato,39.228038,-77.285245
24,07zDj69h5e-eiGBRR9n-6g,Snoasis,MD,Lutherville Timonium,21093,38.0,4.0,30 E Padonia Rd,icecream shavedice,39.456887,-76.630471
25,Fzw_M1ZHlHDxHyWdZMU3Mw,Los Obreros Food Truck,MD,Laurel,20724,1.0,5.0,3495 Laurel Fort Meade Rd,foodtrucks tacos,39.10014,-76.81837
26,JwmN8v-3Qs3tj4rAwZobJQ,Quality Snowballs,MD,Baltimore,21211,31.0,4.5,1014 W 36th St,shavedice,39.33125,-76.63351
27,IkcbMU0FQGAkuIqGaEP52g,T zone Dessert,VA,Sterling,20165,124.0,4.0,45999 Regal Plz,bubbletea cafes desserts,39.036379,-77.408136
28,o7zUpvpp2HGWT3e8GCa5jA,The Eskimo Shack,MD,Baltimore,21227,16.0,4.0,5500 Carville Ave,desserts,39.2454972,-76.6941462
29,3mcP9dqzaslsjO3S572Ivg,Matcha Time Cafe,MD,Ellicott City,21043,236.0,4.5,3785 Hamilton St,japanese cafes,39.2670313,-76.7996449
30,34SIp3olCmOFtflwPgWHmg,BAMBU,MD,Rockville,20852,179.0,4.0,12242 Rockville Pike,bubbletea juicebars vietnamese,39.05644,-77.12024
31,YFq_vC0QiZb-qXONM3SDJg,Temari Japanese Cafe,MD,Rockville,20852,727.0,4.0,1043 Rockville Pike,japanese,39.0714270798006,-77.1333415754005
32,45p6RDNrBE7AmFIek-F54g,Kismet Cafe,MD,Eldersburg,21784,101.0,4.5,1311 Londontown Blvd,coffee bagels breakfast_brunch,39.407903,-76.949584
33,BtSOttKaXhtuv-Ek2cElqw,Kyoto Matcha,MD,Rockville,20850,425.0,4.5,33 Maryland Ave,desserts cafes bakeries,39.0855446,-77.1511761
34,j3VG7GbSAGTYHJxbGQJ1Wg,Summer Shack Snowballs,MD,Lutherville,21093,11.0,3.5,2339 W Joppa Rd,icecream shavedice foodstands,39.418929,-76.668986
35,ncKJnevIZpQDxuU7GwPEuA,Carmen's Italian Ice & Cafe,MD,Rockville,20850,373.0,4.5,1115 Nelson St,icecream cafes shavedice,39.091840608606,-77.1743243036659
36,q298SO7pY-u7rP4MbKx0OQ,Bubbles&Tea,MD,Rockville,20852,180.0,4.0,1319 B Rockville Pike,bubbletea,39.06872,-77.13084
37,0MS_nHaj5fk434u-jRNbYg,Taipei Cafe,MD,Rockville,20850,420.0,4.0,802 Hungerford Dr,taiwanese chinese,39.0941629777418,-77.1536915631576
38,smTFfg1g_BjsUkorL_ZxLQ,Kuya Ja's Lechon Belly,MD,Rockville,20895,693.0,4.5,5268-H Nicholson Ln,filipino,39.0442007,-77.1069208
39,MfmSTjy_vOewRRZIPbYJwQ,Rita's Italian Ice,MD,Marriottsville,21104,3.0,2.5,2470 Long Stone Ln,desserts icecream shavedice,39.3089691,-76.8980822
40,3RK8cBMciI7NFSH7bwz5Iw,Pike Kitchen,MD,Rockville,20852,530.0,4.0,1066 Rockville Pike,korean vietnamese coffee,39.072276,-77.132562
41,cLFS7QP5qr1c3PI00XXdBQ,Casey's Crab,MD,Laurel,20724,427.0,4.0,3244 Ft Meade Rd,seafood,39.0916009508529,-76.7763980672429
42,2wu59mTBIBNyFrEnXfaVvA,Xtreme Snow,MD,Baltimore,21215,2.0,5.0,,icecream shavedice,39.3417266695147,-76.6817391153443
43,TXUwKmeyTd_A9xLfWiucSQ,Rita's Italian Ice,MD,Owings Mills,21117,5.0,3.5,9700 Groffs Mill Dr,desserts shavedice icecream,39.4062004,-76.8104401
44,gwBeJK-46Rme4X1ePQ6DtA,Dave & Buster's,MD,Hanover,21076,436.0,2.5,7000 Arundel Mills Cir,tradamerican arcades bars,39.157564320485605,-76.72472137783366
45,CaI48e6h-gD88ojN-W6AmQ,The Block,MD,North Bethesda,20852,275.0,3.5,967 Rose Ave,asianfusion bars sandwiches,39.0509391,-77.118538
46,N_qM2hMmGANnlUVGwYdPXw,Safari Ice,MD,Gaithersburg,20878,1.0,1.0,,eventplanning shavedice,39.1452868350348,-77.2018849779297
47,ajnib-5m4eNZAcfnoCS59w,The Hub Asian Food Hall,MD,Catonsville,21228,139.0,4.0,6510 Baltimore National Pike,asianfusion desserts food_court,39.28703,-76.761989
48,E5MQ2fpBEljbM9OhfFSr5w,Shilla Bakery,MD,Rockville,20851,161.0,3.5,2098 Veirs Mill Rd,bakeries coffee desserts,39.0752267,-77.1158247
49,W4H3g1Y9G9AXdGSIJUEBdQ,Rita's Italian Ice,MD,Odenton,21113,28.0,3.5,1111 Odenton Rd,desserts shavedice icecream,39.07835316431528,-76.6860008
0,zP-hHEhcbQI2KxBAzp9u2A,Jumbo Jumbo Cafe - Germantown,MD,Germantown,20874,132.0,3.5,19732 Germantown Rd,taiwanese coffee bubbletea,39.180501,-77.265835
1,3iRy665wtPG2XnrFRolK8g,Chirp Ice,NJ,Woodbine,08270,1.0,5.0,8046 Old Washington Rd,shavedice,39.355015,-77.016132
2,3WupV-yujHBW3fG66X-7Dw,Bob's Shanghai 66,MD,Rockville,20850,1305.0,4.0,305 N Washington St,shanghainese seafood noodles,39.0889926587079,-77.1531214361068
3,bxvzEbNKaJzpp1oj7ePnng,Matthew's Grill,MD,Gaithersburg,20878,271.0,4.5,213 Muddy Branch Rd,filipino asianfusion,39.1283549786855,-77.2048717383858
4,uMiddVkJWY2kebEmjdfO-Q,Rita's Italian Ice,MD,Frederick,21701,29.0,3.5,538 W South St,icecream desserts shavedice,39.4129064,-77.4250841
5,0NsYwwKEQfcGnYYkc2yqJA,Expressway Pit Beef,MD,Odenton,21113,134.0,3.5,8388 Piney Orchard Pkwy,bbq foodstands,39.0850297089852,-76.70022941752411
6,K-Qe3WpivRgL0ZMOnYKXiw,Rita's Italian Ice,MD,Gaithersburg,20877,14.0,4.5,701 Russell Ave,icecream desserts shavedice,39.153864,-77.20422
7,R8G9LuBW0gkVvsprULHBkg,Rita's Italian Ice,MD,Westminster,21157,5.0,4.5,625 Baltimore Blvd,desserts shavedice icecream,39.589131179972554,-77.01080822549027
8,2iKehxdWxjcWrRE3XQB70g,Rita's Italian Ice,MD,Hunt Valley,21030,11.0,4.0,11351 York Rd,desserts shavedice icecream,39.49508,-76.6499
9,M6RfCM9PZHPBnZwGLyEaaw,Rita's Italian Ice,MD,Columbia,21046,39.0,3.5,8640 Guilford Rd,icecream desserts shavedice,39.16936,-76.86489
10,6kmOmTcSjgU19lTLtHRnQw,Rita's Italian Ice,MD,Ellicott City,21042,19.0,3.5,9095 Frederick Rd,icecream desserts shavedice,39.27127,-76.82645
11,l1yP7pdwOCz_GOJD6Wd5og,Gwenie's Pastries,MD,Rockville,20852,127.0,4.5,12113 Nebel St,desserts cupcakes bakeries,39.051603,-77.109732
12,cvHouR1ESe5QM5WgsKeTFw,The Spot,MD,Rockville,20850,354.0,3.5,255 N Washington St,taiwanese sushi ramen,39.087424,-77.152515
13,MKzBzkzSYkIHpQFRVmprOw,Eboni's,MD,Baltimore,21217,1.0,5.0,605 Baker St,desserts shavedice icecream,39.3079667825204,-76.6406404227018
14,OqNmlr0g2Eym3PkjGH2R-w,Rita's Italian Ice,MD,Germantown,20874,44.0,3.5,12801 Wisteria Dr,icecream desserts shavedice,39.1762828,-77.2687877
15,5bLMzqwhn8q6JCAtM_YG4w,Rita's Italian Ice,MD,College Park,20740,48.0,4.0,8900 Baltimore Ave,icecream desserts shavedice,38.99875,-76.93185
16,j7aMO03RgoPLvUHdgZO6hw,Rita's Italian Ice,MD,Windsor Mill,21244,9.0,3.0,7171 Security Blvd,icecream desserts shavedice,39.3133154,-76.7567965
17,vxvtkxkOekYyhnndOT7niQ,Rita's Italian Ice,MD,Laurel,20724,32.0,4.0,3353 Fort Meade Rd,icecream desserts shavedice,39.0980038000753,-76.8086907386212
18,7hzPVIMvKkMZQIesyn7IbA,Jumbo Jumbo Cafe Asia Taste,MD,Rockville,20850,340.0,3.5,15192 Frederick Rd,taiwanese asianfusion bubbletea,39.104272,-77.157873
19,Mt8KF8_1T27QAY3ol1S2cg,WOW Food Cafe,MD,Baltimore,21201,178.0,4.5,222 N Charles St,bubbletea chinese coffee,39.292012,-76.616007
20,LgW3nHtswfnAY6WEncd3JA,Fryer’s Roadside,MD,Silver Spring,20904,48.0,3.5,12830 New Hampshire Ave,icecream foodstands,39.06572,-77.00083
21,NGjMv0lGy0LsfFk4d_bnQQ,Rita's Of Linthicum,MD,Linthicum,21090,8.0,4.5,810 Nursery Rd,icecream desserts shavedice,39.225177,-76.663864
22,NshgPTwtIdxvZqjmFAZ29Q,Berrycup,MD,Rockville,20850,99.0,2.5,36-B Maryland Ave,icecream shavedice,39.0859179771357,-77.1508916646881
23,eW40llUTvlGGcLqb28sSmA,Artifact Coffee,MD,Baltimore,21211,556.0,4.0,1500 Union Ave,cafes coffee,39.3323352622044,-76.641398876826
24,iUhtjF609wob232LQ_yYBg,Rita's Italian Ice,MD,Burtonsville,20866,27.0,3.5,15430 Old Columbia Pike,icecream desserts shavedice,39.109247995603,-76.935828383226
25,jlQZ8ZQtboJ3X3P6-jRbdw,Carmen's Italian Ice Truck,DC,"Washington, DC",20850,2.0,3.5,,foodtrucks shavedice icecream,39.087347,-77.17452
26,iNDIAWJKY_bM50hHfhQERg,Kung Fu Tea,MD,College Park,20740,133.0,3.5,7313 Baltimore Ave,coffee bubbletea juicebars,38.9801298737325,-76.9376070226761
27,GOftt95WT0kv_KKeeZ0vBg,Rita's Italian Ice,MD,Owings Mills,21117,10.0,3.5,9103 Reisterstown Rd,desserts shavedice icecream,39.3962782,-76.7474418
28,KlEzQTp4OKweCrSvQ8P9Aw,Cafe Rice & Kabob,VA,Sterling,20164,134.0,4.0,47100 Community Plz,mideastern vegetarian sandwiches,39.01431,-77.37566
29,6ML_6-GQuzgDpVjUtItN0Q,Rita's Italian Ice,MD,Glen Burnie,21061,16.0,3.5,7381 A Baltimore Annapolis Blvd,icecream desserts shavedice,39.1719953,-76.6324921
30,Yv3Q-hC8CsX9O3FaUuJJnA,Pho Nom Nom,MD,Rockville,20852,804.0,4.0,842 Rockville Pike,vietnamese,39.0756378,-77.137001
31,StW7Kz0GYESQ0I_AQcVdPg,Rita's Italian Ice,MD,Crofton,21114,20.0,3.0,2163 Defense Hwy Route 450,icecream desserts shavedice,38.991755,-76.69886
32,2t_W-ePLkY1KysqfD4LfZA,Hot Pot City,MD,Rockville,20850,172.0,4.5,199 E Montgomery Ave,chinese noodles hotpot,39.083964,-77.150733
33,Lfv64Grh0gKGy2n3dqZm4w,Rita's Italian Ice,MD,Silver Spring,20906,55.0,3.0,13621 Georgia Ave,icecream desserts shavedice,39.08018,-77.07251
34,pjE55j9SqwobeiP96y4_eA,Vivi Bubble Tea,MD,Montgomery Village,20877,39.0,3.5,18320 Contour Rd,bubbletea,39.154654,-77.2001256
35,dH2Fv7wjv0BxMnDBBVvAaA,Rita's Italian Ice,MD,Baltimore,21215,3.0,4.5,6796 Reisterstown Rd,desserts shavedice icecream,39.3592224,-76.7066411
36,tRhgp6syOtfBJ6MVWfw_kw,Kangnam BBQ Sports Bar & Grill,MD,College Park,20740,345.0,3.5,8503 Baltimore Ave,korean bbq,38.994812,-76.931832
37,FbIWBdjY3dkO0gpcRIBvww,Rita's Italian Ice,MD,Bowie,20715,26.0,2.5,3329 Superior Ln,icecream desserts shavedice,38.9793434143066,-76.7325210571289
38,HMru5q9iEaSCoPjZVE52ag,Dairy Queen,MD,Frederick,21701,19.0,2.5,1293 Riverbend Way,icecream hotdogs,39.4471294,-77.3885871
39,x9WPCKDpMBrQLCAmodzKHQ,Tutti Frutti Frozen Yogurt,MD,North Bethesda,20852,89.0,3.5,11802 Rockville Pike,icecream bubbletea,39.049637078461565,-77.11553064906278
40,v6GFelL9G0-P_U-wtw92Nw,Sorrento of Arbutus,MD,Halethorpe,21227,82.0,3.5,5401 E Dr,pizza,39.2490639582011,-76.6935191249008
41,gx5RXeJMMBgOzB6jKpKniw,Rita's Italian Ice,MD,Columbia,21044,12.0,2.5,5485 Harpers Farm Rd,icecream desserts shavedice,39.22231,-76.88925
42,avyz1tLuh11GRCooq8zQ9A,Super Bowl Noodle House,MD,Rockville,20852,141.0,3.5,785-G Rockville Pike,chinese noodles,39.0769097703546,-77.1414869873108
43,kTdtYeE7HpaZTa95ltgPVw,Rita's Italian Ice,MD,Reisterstown,21136,7.0,4.5,11700 Reisterstown Rd,icecream desserts shavedice,39.442166424177145,-76.80904821235457
44,y563Rbuay-fCdMHZdnCUbw,Rita's Italian Ice,MD,Catonsville,21228,8.0,4.0,609 Frederick Rd,shavedice icecream desserts,39.2722589,-76.72963034110754
45,RcWABfPHCMfZjT-aXz7lhQ,Sausage Master,MD,Baltimore,21201,4.0,5.0,400 W Lexington St,hotdog streetvendors,39.2913391,-76.6212304
46,KX5MeSga6Y5cBj0K14P1JA,Rita's Italian Ice,MD,Baltimore,21229,1.0,4.0,4408 Edmondson Ave,desserts shavedice icecream,39.2937098,-76.6897271
0,EAgr2WrrYZXPsdKB_dLC3A,Tea Top,MD,Ellicott City,21042,142.0,4.5,10030 Baltimore National Pike,bubbletea desserts juicebars,39.2815,-76.8565799
1,CNbebTsAZprXGXE-m-nzzw,Bengong's Tea,MD,Ellicott City,21042,38.0,4.0,10045 Baltimore National Pike,bubbletea,39.27774469540326,-76.85925329681343
2,HotEs88B8gwhsit9Nt8geA,Kung Fu Tea,MD,Laurel,20707,33.0,4.5,14708 Baltimore Ave,bubbletea juicebars icecream,39.094202843828164,-76.85788497635784
3,BwRjMIs5Z0PoZFFXABtJFw,The Common Kitchen,MD,Clarksville,21029,35.0,4.5,12250 Clarksville Pike,food_court bubbletea coffee,39.2113207122673,-76.9391424581409
4,Km-sxt6OElxLryD665-51A,Tiger Sugar,MD,Ellicott City,21042,155.0,4.5,9338 Baltimore National Pike,bubbletea,39.2780120488232,-76.8334446
5,pJJM4iDF0zyoQcQR8Lgc2g,Kung Fu Tea - Ellicott City,MD,Ellicott City,21042,8.0,5.0,9210 Baltimore National Pike,bubbletea juicebars coffee,39.27742,-76.83029
6,iM4nCP4tjsEEmCyQvN_oWw,Royaltea,MD,Clarksville,21029,49.0,4.0,12250 Clarksville Pike,bubbletea,39.21107,-76.93899
7,9xjPjb6_GgAlvKUpfNKhtA,Hippo Kitchen,MD,Baltimore,21207,18.0,4.5,5514 Baltimore National Pike,bubbletea tapasmallplates sandwiches,39.29128,-76.72229
8,FAWOzcGjLh6ml36zyQyP9g,Tea-Do Ellicott City,MD,Ellicott City,21042,110.0,4.0,3355 St Johns Ln,cafes bubbletea juicebars,39.2777867951788,-76.8251511664863
9,02JYDSjcaIOnhrQmuHyUCw,Gong Cha,MD,Fulton,20759,72.0,4.0,8194 Westside Blvd,bubbletea,39.14875,-76.90952
10,Lo-w870U2PeLmTpyE8BVOw,Kung Fu Tea,MD,Columbia,21044,91.0,4.0,10100 Twin Rivers Rd,bubbletea coffee juicebars,39.21553,-76.86558
11,vCDK8jRqec8-JM2oJtTwrA,Vivi Bubble Tea,MD,Hanover,21076,44.0,4.5,2733 Annapolis Rd,bubbletea,39.136286,-76.749984
12,MzvDSnRzwi0FGV3aLt5sEA,168 Asian Burritos,MD,Olney,20832,136.0,5.0,18000 Georgia Ave,asianfusion sushi bubbletea,39.15111301957993,-77.06693328429245
13,yyt7V1qRhVO8--BF0mVdUg,Delimanjoo,MD,Ellicott City,21043,18.0,4.0,8801 Baltimore National Pike,desserts gelato bakeries,39.2773857116699,-76.8173446655273
14,agFLzZ5g56QmC5OvGa2hUQ,Yo Bubble,MD,Frederick,21704,49.0,4.0,3327 Worthington Blvd,juicebars icecream,39.326331,-77.342488
15,6ML9fKzq1Eo3yzUO921iqg,jidong tea,MD,College Park,20740,2.0,5.0,8145 Baltimore Ave,bubbletea,38.99091,-76.93276
16,ztoBtIvdTLgvd_7MjpzZAQ,Gong Cha The sweetest spot,MD,Cockeysville,21030,6.0,4.5,100 Shawan Rd,bubbletea coffee,39.49593,-76.65277
17,ZG3n3WWBo7_LK91gAvjiFw,Mr Wish,MD,Rockville,20852,37.0,4.5,1615 Rockville Pike,bubbletea juicebars coffee,39.0628,-77.12517
18,Jp507_olnFz3QyOZknVP5A,AunTea Boba,MD,Lanham,20706,16.0,4.5,9448 Lanham Severn Rd,bubbletea,38.97325,-76.84516
19,aOLIa19RbLxbcaTEzXsSpw,Gong Cha Arundel Mills,MD,Hanover,21076,88.0,4.5,7645 Arundel Mills Blvd,bubbletea coffee juicebars,39.1519495793978,-76.7237138338684
20,1qV_NRA4rGCiwrajhby8Ug,Seoul Fusion,MD,Owings Mills,21117,31.0,4.5,11000 Owings Mills Blvd,asianfusion korean bubbletea,39.426791,-76.781069
21,ddSB60389L0RVBv16pSQww,BoBaPoP Tea Bar - Kentlands,MD,Gaithersburg,20878,194.0,4.5,312 Main St,bubbletea coffee tea,39.12189,-77.23824
22,cLa8QFj1ye4da07ighfrqQ,Sharetea Germantown,MD,Germantown,20874,12.0,4.0,13012 Middlebrook Rd,bubbletea coffee juicebars,39.1805620388865,-77.27165122033838
23,1H2kcrjAK5FoOwXo2fluEg,Kokee Tea,MD,Wheaton-Glenmont,20902,18.0,4.5,11160 Veirs Mill Rd,bubbletea,39.0368361,-77.054806
24,4JH7er2Q9QAcdSHYTr3lUg,BobaPop Tea Bar - Germantown,MD,Germantown,20874,13.0,5.0,19847 Century Blvd,bubbletea coffee,39.181558880848776,-77.26587982839627
25,4hPwhbhGVWmLMRqMRe_1Ow,Mr. Wish,VA,Herndon,20170,33.0,4.5,1242 Elden St,bubbletea juicebars,38.962045462458136,-77.40073013894929
26,BPkTVke5BW-dXzZUKaKJWg,The Crepe Escape,MD,Catonsville,21228,136.0,4.5,724 N Rolling Rd,creperies icecream,39.28213,-76.755253
27,Im4nEY4ZmW2cqOB-dmne-g,Gong Cha,MD,Ellicott City,21043,5.0,4.5,8450 Baltimore National Pike,bubbletea coffee juicebars,39.28680729206387,-76.8068977460266
28,Ce2j8AVPRNwrXPFOCcskZA,Kung Fu Tea,MD,Gaithersburg,20878,4.0,5.0,130 Market St,bubbletea coffee juicebars,39.12255,-77.2347698
29,RuL3BDA9t7vbcJOs4TC6vg,Yi Fang,MD,Rockville,20850,119.0,4.5,777 Hungerford Dr,bubbletea,39.093511120396,-77.15276174319638
30,GnjUvZO9g3MIxytBOv1g0Q,Jumbo Jumbo Cafe,MD,Ellicott City,21042,86.0,4.5,9050 Baltimore National Pike,bubbletea taiwanese,39.277404,-76.8243882
31,q1Aig7z0L_Di01dYOwsbgw,Ben Gong's Tea,MD,Gaithersburg,20879,77.0,4.0,108 Paramount Park Dr,bubbletea coffee juicebars,39.15946,-77.22129
32,oeG8kNmEN1JTDTBDLIcZ-A,Kung Fu Tea,MD,Owings Mills,21117,39.0,4.0,10209 Grand Central Ave,coffee bubbletea juicebars,39.406052,-76.781677
33,nTUs_D2fhLCCMWm2AfWxbA,Moge Tee,MD,College Park,20740,4.0,4.5,8150 Baltimore Ave,bubbletea,38.99130585228645,-76.93393004332248
34,gG0BoUNK3DFt_KGBV46dQw,Cuppa Tea,MD,College Park,20740,43.0,4.5,8700 Baltimore Ave,coffee bubbletea,38.99732809863413,-76.93187575888224
35,sEtgVuoB_LczcPctLYltkw,Bubble Tea Café,MD,Rockville,20852,395.0,4.5,130 Rollins Ave,coffee bubbletea,39.05839,-77.12305
39,VPXQ9Ay5w58hUp4pF1RX_w,Delimanjoo,MD,Catonsville,21228,3.0,5.0,822 N Rolling Rd,desserts juicebars bubbletea,39.28290293659391,-76.75510248421458
40,oLgfvyoyaM09MVUxUeBwtA,Gong Cha & Fuji Teriyaki Grill,MD,Silver Spring,20904,46.0,4.0,12058 Cherry Hill Rd,bubbletea asianfusion,39.05540443552998,-76.954921708337
42,i8i7Pg8j7eqxfOl_PFVOYg,TBaar,MD,Rockville,20852,149.0,4.0,5540 Randolph Rd,bubbletea juicebars,39.05225,-77.1119
43,mDaGzGeInIt5W-4HobYEDw,Bubble n' Berry,MD,Derwood,20855,63.0,4.0,7234 Muncaster Mill Rd,bubbletea icecream,39.145675281783,-77.1458093419715
44,6A9FX24UAfMrOfuMGT-oew,Kokee Tea,MD,Hanover,21076,41.0,4.0,7000 Arundel Mills Cir,coffee juicebars bubbletea,39.1558930367008,-76.7240604758263
45,ld1gml-bparLdqOu4pfzzw,Taste Tea,MD,Arbutus,21227,58.0,4.0,5403 East Dr,bubbletea coffee pancakes,39.24907,-76.6935
46,G_7r5Z7B5TlSztq1EgislA,Ding Tea - Rockville,MD,Rockville,20852,180.0,4.0,785 Rockville Pike,coffee bubbletea juicebars,39.076917,-77.141434
47,4za-X4e_ng1-xPjS0atn9Q,Gong Cha,MD,College Park,20740,19.0,4.5,4207 Knox Rd,bubbletea,38.981025,-76.94264
0,mNmwlLRYJp9iAjTc9oDhag,8Tea8,MD,Frederick,21701,6.0,4.0,211 Shorebird St,bubbletea,39.447474,-77.395212
1,W93EGo49mQj39ZInDECIKQ,One Tea House,MD,Rockville,20850,39.0,4.5,605 Hungerford Dr,bubbletea taiwanese cafes,39.091821,-77.15182
2,9SZcJ4n55gGWcDs0K7M1-g,Main Street Pearl ,MD,Takoma Park,20912,11.0,4.5,7050 Carroll Ave,bars bubbletea kombucha,38.97519,-77.010854
3,n6HTs1k5cMN0pI3BoH-KWQ,Utepia Tea,MD,Wheaton,20902,2.0,4.5,11160 Veirs Mill Rd,bubbletea,39.0368483014879,-77.05482346674414
4,YRrwnICEc3UwSHGAu4yu9g,Poke Bowl,MD,Frederick,21704,55.0,4.5,5253 Buckeystown Pike,hawaiian asianfusion,39.37481667,-77.412905
5,PEbu8PycdKIVAcDP4Sxm0w,HH Tea,MD,Baltimore,21201,82.0,4.0,30 W Biddle St,bubbletea,39.30364,-76.61705
6,UXTzYCs3zH_1Tr2Xr3GhYQ,Kung Fu Tea,VA,Sterling,20164,81.0,4.5,46950 Community Plz,bubbletea coffee juicebars,39.016345,-77.3769248
7,sLUqrxBB1-P_gMhQEWjMYA,Kung Fu Tea,MD,Gambrills,21054,99.0,4.0,2638 Chapel Lake Dr,coffee bubbletea,39.0397150420843,-76.6805340699406
8,0dOVgF-cZBvYN8YZHafwdg,Cafe EZ - Ellicott City,MD,Ellicott City,21043,590.0,4.5,3290 N Ridge Rd,creperies breakfast_brunch sandwiches,39.28087,-76.81824
9,QDTmgqqWLLfnYG_hls3jGg,Pho & Grill,MD,Olney,20832,170.0,3.5,18153 Village Mart Dr,vietnamese,39.15376358115,-77.063378927986
10,NfH5I_Qci_bF_Lx2SEFqNw,Kung Fu Tea,MD,Rockville,20850,499.0,4.0,275 N Washington St,bubbletea coffee juicebars,39.0881178976814,-77.1532658292297
11,El4tJ6z2j63GnvEUUMqonw,Bubble Tea Bar Cafe,MD,Wheaton,20902,4.0,4.0,2301 University Blvd W,bubbletea cafes,39.0418173,-77.049126
12,uwNY8_Vo8Va85XByC5xyiw,Kung Fu Tea,MD,Silver Spring,20910,108.0,4.0,8661 Colesville Rd,bubbletea coffee juicebars,38.9968464090274,-77.0255323242975
13,dTr7iPNa1g3Es7_4LxiO6g,Market Street Boba & Beans,MD,Frederick,21701,22.0,3.5,35 N Market St,coffee bubbletea,39.41504,-77.411
15,tf9Ath7sM1ooNYHcX_q_-w,Teabreak Pho & Boba,VA,Sterling,20164,213.0,4.0,46580 S Cottage Rd,vietnamese bubbletea juicebars,39.029024,-77.389129
16,NVMdygTmmoEu4zDjY47aiA,Gong Cha,MD,Baltimore,21228,6.0,4.0,6510 Baltimore National Pike,coffee bubbletea,39.28621999440132,-76.76223631305349
17,FMmE9jYdOqDOUACfp8UTfw,Tea Mansion,MD,Bethesda,20817,2.0,4.5,7101 Democracy Blvd,tea bubbletea coffee,39.02284,-77.14688
18,3eErkYVnoEnO1TJCgPtNug,Ikura Asian Sushi,MD,Gaithersburg,20879,3.0,5.0,18212 Flower Hill Way,japanese sushi,39.15522,-77.16462
19,c4JI9FgNM2XStyQbg2MIhQ,Kung Fu Tea,MD,Germantown,20876,112.0,4.0,19717 Frederick Rd,coffee bubbletea juicebars,39.1785664861058,-77.2372257239005
20,2hX0BC3kI247SDhZ7zAOUA,Coldspoon Coffee,VA,Sterling,20165,208.0,5.0,20789 Great Falls Plz,icecream coffee,39.0395140446262,-77.358118
21,2adR6b2k-Po50R2CiDn0vg,Teamania,MD,Rockville,20852,363.0,4.0,130 Rollins Ave,bakeries cafes coffee,39.058536,-77.122945
22,cFlIPfcL-xxQ5UbyUNED2Q,TIGER SUGAR,MD,Rockville,20852,80.0,4.0,12266 Rockville Pike,bubbletea cafes coffee,39.05769,-77.1207
24,-41K7K3wDEpHSeJtbgKMNQ,The Spot Mini,MD,College Park,20740,45.0,4.0,4209 Knox Rd,poke bubbletea japanese,38.98094,-76.9439
25,EjhbOkB7s0gvH4_EEU9nmg,Foobao,MD,Catonsville,21228,74.0,4.0,6600 Baltimore National Pike,chinese coffee breakfast_brunch,39.28666,-76.76409
26,gzxDMIyKOD5RfrV8BubApg,Jasmine Smoothie World And Bubble Tea,MD,Columbia,21044,21.0,3.0,10300 Little Patuxent Pkwy,juicebars bubbletea,39.216442,-76.860205
27,8PO8XwYLCzfxcTLPiJbL7w,KA Ming Food House,MD,Glen Burnie,21061,17.0,3.0,7550 Ritchie Hwy,chinese bubbletea,39.15956,-76.6213090717793
28,rr4nEGO4y8AcLFpoiEVEHA,Tea Break Pho & Boba- Herndon,VA,Herndon,20170,142.0,4.0,150 Elden St,vietnamese bubbletea,38.9670124518295,-77.3678452894092
29,ns07YcGLvdky4CWt5YvpkQ,Sushi Tendou,MD,Fulton,20759,154.0,4.0,8194 Westside Blvd,japanese sushi,39.14875,-76.90952
30,84nP8yA8l-WtAN5RB9IOeQ,Black Lion Cafe,MD,Rockville,20850,282.0,4.5,9705 Traville Gateway Dr,coffee coffeeroasteries,39.0913405,-77.2040876
31,z1KL71IU7gFfklNqiknzoQ,Oishii Ramen Cafe,MD,Bethesda,20814,30.0,4.5,4901 Fairmont Ave,bubbletea ramen,38.9884677,-77.0968706
32,LKUWGTP0-EpI6i7xcT3L_Q,Cafe Su,MD,Ellicott City,21043,19.0,4.0,3301 N Ridge Rd,coffee bakeries,39.2808598279953,-76.8173993378878
33,FHz8jH7XwY0jINcEB6XUSQ,August 32 Tea,MD,Greenbelt,20770,8.0,3.5,6000 Greenbelt Rd,bubbletea,38.99844,-76.91072
35,ClrWjbNb1NtV7d5JQ3VNfQ,Chopstixx,MD,Elkridge,21075,225.0,4.0,7260 Montgomery Rd,chinese panasian thai,39.2077471081218,-76.7290068045259
36,8LYT0Sm6uDbIJggZ6fn63w,TKK Fried Chicken,MD,Laurel,20707,18.0,4.0,14708 Baltimore Ave,juicebars chicken_wings bubbletea,39.094087,-76.857852
37,xqne1_bHgnkEFfzx79j8jw,Kyoto Matcha,MD,Ellicott City,21042,114.0,4.5,10045 Baltimore National Pike,desserts bakeries icecream,39.2777,-76.859271
38,Fx8gnB4OXkSXARO2dknp8g,Ten Ren Tea,MD,Rockville,20852,142.0,3.5,825-G Rockville Pike,coffee bubbletea,39.075028800773,-77.138634501113
39,jbEqutaFaNegfIhBPleF8w,Tea-Do,MD,Rockville,20852,412.0,3.5,838 C Rockville Pike,coffee bubbletea juicebars,39.07597,-77.13711
40,o-yKoI0pyNf8OM-uRC5Q_Q,Cafe Mezcla,MD,Columbia,21044,244.0,4.0,6470 Freetown Rd,coffee breakfast_brunch creperies,39.194623,-76.883619
42,wABwdtzP9U2kva4iUxPA6Q,Panda Tea House,VA,Sterling,20166,35.0,3.5,21100 Dulles Town Cir,icecream bubbletea,39.03166,-77.42297
43,jFEptlgrgQ8YtpfWgK8Ehw,Lulu’s Gourmet,MD,Laurel,20707,27.0,4.5,13600 Baltimore Ave,vietnamese,39.077301449393346,-76.8695556033108
45,DuebmSWx7C5-XU-HVgWikg,Bubble Tea Cafe,MD,Wheaton,20915,8.0,2.5,11160 Veirs Mill Rd,bubbletea juicebars,39.03679840493034,-77.05465068456334
46,L-1z53wpScqgwt-zY3eQLQ,Jumbo Jumbo Cafe,MD,College Park,20740,101.0,3.5,3711 Campus Dr,taiwanese bubbletea asianfusion,38.98424,-76.94935
48,ldz1ynRG38tEncupNwH-aA,Kung Fu Tea,MD,Clarksburg,20871,33.0,3.5,22705 Clarksburg Rd,bubbletea coffee juicebars,39.228732,-77.285848
49,GRr8JkzAybKTHyfUUImgtA,Kung Fu Tea,MD,North Bethesda,20852,120.0,4.0,11802 Rockville Pike,coffee bubbletea juicebars,39.049871,-77.115395
0,REY-F7E__ygdBJgPrVgeBA,Luckies,MD,Hanover,21076,5.0,4.0,7002 Arundel Mills Cir,gelato coffee,39.15632908541705,-76.72738474396023
1,VaLEmfgFvEJAKdVbyto6Ig,Kung Fu Tea,VA,Sterling,20166,37.0,3.5,21100 Dulles Town Cir,bubbletea coffee juicebars,39.03238658500485,-77.4239385
2,c8VJBSIyi4HqHvGJl7BuBg,Class 520,MD,Bethesda,20814,129.0,3.0,4941 Elm St,bubbletea icecream,38.9822106,-77.0975053
3,Hm_iSxDeUUxn4YaQiZGNRg,Saigon Noodle House,MD,Crofton,21114,231.0,4.0,2171 Defense Hwy,vietnamese noodles,38.9915923878695,-76.698913089931
4,E0HLLcy8ur_OJ8YsamOOjw,Pho Real,MD,Silver Spring,20904,400.0,4.5,13876 Old Columbia Pike,vietnamese,39.08431,-76.95218
5,TGKf2KSONz3szA6N_8La4w,Gong Cha,MD,Rockville,20852,284.0,4.0,1800 Rockville Pike,bubbletea,39.05986,-77.12192
6,joUPKOL_RAOlvn7_Vwd-9A,Pearl Lady,MD,Rockville,20850,133.0,3.5,201 E Middle Ln,bubbletea ramen chicken_wings,39.084911,-77.1507951460167
7,rP8YVkgLGxdGsqnn-77jwg,Pho D'Lite,MD,Bowie,20715,183.0,3.0,6840 Race Track Rd,vietnamese thai asianfusion,38.9838346,-76.7294063
9,jUZvcGZM8SP-OkGwTDS8LQ,Yog Crepes and Frozen Yogurt,MD,Baltimore,21209,61.0,4.5,6053 Falls Rd,creperies bubbletea,39.372334,-76.649596
10,sDaOdNHv7C1fFledPKH6Jw,The Red Boat Asian Fusion,MD,Glen Burnie,21061,158.0,4.0,440 Crain Hwy N,asianfusion vietnamese korean,39.1709699,-76.62166
11,bdztoMpHZJnpbChj5ZWiYw,Fuji Japan,MD,Silver Spring,20906,21.0,4.5,14314 Layhill Rd,sushi japanese bubbletea,39.09069,-77.045
12,t71M01S5pe2lbv26Y3fp8w,Jin Bubble Tea & Smothie,MD,Baltimore,21215,2.0,2.5,2401 Liberty Heights Ave,bubbletea juicebars,39.3172822125389,-76.6550965596862
13,uzU8PCFVAAwcfeM9bpwcBA,Ibiza Cafe,MD,Frederick,21701,28.0,5.0,8 West 4th St,cafes coffee,39.418971,-77.4109474
14,cgby9ugNeD_IoEgT_R9rnA,Gong Cha,MD,Bethesda,20814,12.0,3.5,10400 Old Georgetown Rd,bubbletea coffee juicebars,39.025520451482166,-77.12680474685173
15,a4iEMVLMxEOUm0fi13Lm-Q,Poke Fresh,MD,Elkridge,21075,92.0,4.0,6050 Meadowridge Center Dr,poke hawaiian,39.20865125359796,-76.78095297263565
16,I-ERx6zTZhCAKRALlQx0TA,Gong Cha,MD,Rockville,20850,67.0,4.0,255 N Washington St,bubbletea taiwanese juicebars,39.0870297100283,-77.1521077777778
17,oOlA0FEUwVzqm77Qq3ioDQ,Mi La Cay,MD,Silver Spring,20902,735.0,4.5,2407-2409 University Blvd,vietnamese,39.0416132810034,-77.0506281552819
18,qnOTjNKkfkTpGmIa3D_ycg,Promenade Market & Deli,MD,Bethesda,20814,18.0,4.0,5225 Pooks Hill Rd,delis beer_and_wine convenience,39.016447,-77.106258
19,S2ucmQkGxgB95ZIrUZk1oQ,Pho Tan Vinh,MD,Silver Spring,20910,276.0,4.0,8705 Colesville Rd,vietnamese,38.9978659,-77.0266796
20,T9HjN368cECTH2Bukxj5mg,Pho La Cay,MD,Columbia,21045,187.0,4.0,8865 Stanford Blvd,vietnamese,39.19115,-76.81825
21,XdIh5016ZBDLnuRilbM2Ag,The Pham,MD,Frederick,21701,18.0,4.5,440 Prospect Blvd,foodtrucks vietnamese,39.4046001,-77.4283359
22,GfTVE2MHxhT82ukZimjHBA,Kokee Tea,MD,Columbia,21044,4.0,3.5,10300 Little Patuxent Pkwy,bubbletea,39.21483,-76.86261
23,rNfswlmp6evedPLjrohIPQ,Banana Leaves Asian Cafe,MD,Bethesda,20814,61.0,3.5,7816 Old Georgetown Rd,desserts soup asianfusion,38.98766,-77.09943
24,nwFCu0aa1MH1dIjPKYDLkw,Pick Thai,MD,Crofton,21114,74.0,4.0,1286 MD-3,thai,39.00883,-76.69948
25,03GWkL10s565ud361vPnfw,Beseto Asian Food Court,MD,Catonsville,21228,67.0,4.0,822 N Rolling Rd,food_court,39.282779,-76.754923
27,vSs1vlkY7C9ZaoDEa1o1uw,Iron Age,MD,Catonsville,21228,718.0,3.5,6506 Baltimore National Pike,korean,39.2867234962992,-76.7613998427987
28,qU6Z2LHpuw4RDF1xLd5d1Q,Thai At Waugh Chapel,MD,Gambrills,21054,387.0,4.0,1406 S Main Chapel Way,thai,39.0317962073022,-76.685787218579
29,zZJnU0Ru7ML0ErCNuFxZ3Q,Rice Kitchen,MD,Reisterstown,21136,44.0,3.5,513 Main St,japanese chinese,39.4568947,-76.8261702
30,t3V-qyUWdaC6Gg_HjT3pVg,Pho Kevin,MD,Laurel,20724,224.0,4.0,3439 Fort Meade Rd,vietnamese,39.0994449,-76.8132054
32,isIrfpsvRdqyVlHmCSY2NQ,Flowers Bakery and Cafe,MD,Hyattsville,20783,8.0,4.0,1401 University Blvd E,bakeries cafes,38.9858623151781,-76.9843688607216
33,l_gQ9EQHqYGJaiF6iHQR0g,Vn Noodle House,MD,Gambrills,21054,238.0,4.0,2299 Johns Hopkins Rd,vietnamese noodles,39.02872,-76.68427
34,kzENjRtdOtvL9ovJi2EQbA,Wok In Wok Out,MD,Frederick,21701,105.0,4.0,211 Shorebird St,asianfusion,39.4473354,-77.3952407
35,dDa3kXCLEWPdWy1C5jnwDg,Tutti Frutti Kentlands,MD,Gaithersburg,20878,18.0,4.5,130 Market St,icecream bubbletea,39.1224371851173,-77.2348976317617
36,mmJrPKPxEtR3YzQ8hevFvw,Tsunami,MD,Frederick,21701,88.0,4.5,20 N Market St,ramen tapasmallplates,39.414567,-77.410574
37,m3Hzp1BbvodYkjuYlZALwQ,Pholicious,MD,Silver Spring,20902,12.0,3.5,11160 Veirs Mill Rd,food_court,39.03889,-77.05377
38,D-p5CnipbD9DNvqKSvshwg,Lewi Café,MD,Silver Spring,20910,39.0,4.5,911 Bonifant St,coffee sandwiches,38.994228911163795,-77.02476174601638
39,Oo5Q90v1XRYSzejDg85lQA,Lotus Cafe,MD,Silver Spring,20910,311.0,4.0,8077 Georgia Ave,vietnamese vegetarian seafood,38.989959,-77.026179
40,kwa0mM8v5tRO57o8dmfEhA,Sarah's Handmade Ice Cream & Treats,MD,Bethesda,20816,106.0,4.5,5241 River Rd,icecream bubbletea desserts,38.96583555734947,-77.104271
41,3FDsxV-X7coCEIgtltFmjg,Pho Dat Thanh,MD,Columbia,21045,352.0,3.0,9400 Snowden River Pkwy,vietnamese juicebars,39.17662,-76.83697
42,2TbJJU1w2YLnntTQd9fsUA,Thai at Laurel,MD,Laurel,20707,471.0,3.5,14724 Baltimore Ave,thai,39.0925919034292,-76.8562209606171
43,Ov-tuN0TjK-dwe3pXQPa-w,Siam Spice,VA,Sterling,20164,309.0,4.5,22330 S Sterling Blvd,thai,38.9973952163539,-77.4064503237605
44,IuGNYXLPoQ3Q4ujOLaqXpQ,Hot Pot Hero,MD,Ellicott City,21042,406.0,4.0,10045 Baltimore National Pike,hotpot seafood cajun,39.27797,-76.85938
45,XMfEilL56UrldWe4p9Bs5Q,UMAI Ramen & Rice Bowl,VA,Herndon,20170,292.0,4.5,482 Elden St,ramen japacurry,38.970474,-77.376007
47,aqLQKhkmhn3aEqU3KqKrHA,Pho Viet USA,MD,Bethesda,20814,27.0,4.5,4917 Cordell Ave,vietnamese,38.989037,-77.098821
48,H-iRMtyQR6a1aylvnXu7dw,Cafe X-Press bethesda NY deli & Catering,MD,Bethesda,20814,47.0,4.0,8000 Norfolk Ave,delis newamerican,38.98983,-77.09908
49,O2ZrDUuqXoluq9cmrFhoyg,Mount Vernon Marketplace,MD,Baltimore,21201,230.0,4.5,520 Park Ave,food_court,39.295902,-76.618819
0,_NzmRp5JGxa-cN6MtUWlrQ,Pho Basil,MD,Frederick,21701,76.0,3.5,701 Motter Ave,vietnamese,39.42326,-77.411859
1,vM91E6v3zN2E9WbOBE1arw,Lavande Patisserie,MD,Rockville,20850,394.0,4.0,275 N Washington St,bakeries coffee breakfast_brunch,39.0883560176556,-77.1533839755325
2,qdnexxQkyCNSLFFKUESCPA,Amai Crêpe,MD,Rockville,20850,185.0,4.5,199 E Montgomery Ave,creperies gluten_free cafes,39.0838884,-77.1499859
3,sCFzfLomC4v9OxkASqAODw,Koshary Corner,MD,Clarksville,21029,75.0,5.0,12250 Clarksville Pike,egyptian mediterranean vegan,39.21103,-76.93895
4,lFZHq6hG3TYyI7w4RjhL1w,Pho One-O Restaurant & Lounge,MD,Hanover,21076,383.0,3.5,2651 Annapolis Rd,vietnamese lounges,39.1303433027328,-76.7411472342379
5,Xtw2z6MW-zlm6noyAVzhxA,Kung Fu Tea,MD,Gaithersburg,20878,63.0,4.0,6 Grand Corner Ave,coffee juicebars bubbletea,39.11862,-77.20237
6,qS4yCiFCHsVze9Kra4T8ug,Luk Fu,MD,Hanover,21076,160.0,2.5,7002 Arundel Mills Cir,asianfusion dimsum japanese,39.1568492,-76.72780519999999
7,EjnWkKyEyVQP1GaRLaEm5g,Ikko Sushi,MD,Silver Spring,20910,541.0,4.0,1215 E West Hwy,sushi japanese,38.9912770185995,-77.0291190554584
8,J5YMUUh-lznPlug3RbL2Ww,Blue Pearl Buffet & Grill,MD,Silver Spring,20993,110.0,2.5,8661 Colesville Rd,buffets,38.99708817931879,-77.02629553819709
9,VN-Lzik7cXk4oGlUIcL_xg,Norby's Cafe,MD,Rockville,20853,32.0,4.0,5562 Norbeck Rd,sandwiches coffee acaibowls,39.09529,-77.11171
10,4T3lDW9qdJvYkmXfnEi7Qw,Viet Pearl,MD,Ellicott City,21043,162.0,3.5,8801 Baltimore National Pike,vietnamese sportsbars salad,39.277278,-76.817358
11,oXfJYTs24m9ghnJPnVH4Pw,Satsuma,MD,Bethesda,20814,328.0,3.5,8003 Norfolk Ave,sushi japanese korean,38.9901,-77.09885
12,jlc-L0LoU0JUgYC0admeGg,Bonchon Columbia,MD,Columbia,21044,166.0,3.5,10100 Twin Rivers Rd,chicken_wings korean asianfusion,39.21558,-76.86527
13,f9ENLq2K2o-hH1zENfbaTQ,Old Dominion Grill and Sushi,MD,Frederick,21704,108.0,4.0,5732 Buckeystown Pike,sushi bbq thai,39.39294193996934,-77.41030410079927
14,TbMpccZH33xOipgzJy4Cyw,Olympia Cafe,MD,Chevy Chase,20815,31.0,4.0,7021 Brookville Rd,cafes icecream wraps,38.9806124,-77.0711115
15,0QPlZbxJllEkP-XfJWsSOg,Sushi King,MD,Columbia,21045,494.0,4.0,6490 Dobbin Rd,sushi japanese,39.19282,-76.8204499
16,pAw9E3JL3O4mr27xdR2QgA,E-Saan Thai Sushi,VA,Herndon,20170,15.0,4.0,1106 Herndon Pkwy,thai sushi seafood,38.963836,-77.3998344
17,bFSY67LICJuhEASzlBikWg,Pho 89,MD,Laurel,20723,131.0,3.5,3507 Fort Meade Rd,vietnamese chinese soup,39.100383,-76.822301
18,1HQvtXckayT7XCAdDfpY4g,Go Stir Fry Express,MD,Wheaton-Glenmont,20902,22.0,3.0,11160 Veirs Mill Rd,bubbletea noodles icecream,39.0358386223558,-77.0550557971001
19,XQNmNg54wbnGmYaEkWDY1A,Kung Fu Tea,MD,Bethesda,20817,60.0,3.0,7101 Democracy Blvd,bubbletea coffee juicebars,39.024716,-77.146866
20,HMB6ki6u3dL1rumKjC-BsQ,Pho Cafe,MD,Colesville,20904,80.0,3.5,13426 New Hampshire Ave,vietnamese juicebars bubbletea,39.076793,-77.002298
21,TccJlWoPFwcyJNtVFdc3QQ,Viet Pho & Grill,MD,Silver Spring,20903,241.0,3.5,1640 Elton Dr,vietnamese soup bubbletea,39.0203214,-76.975905
22,z1I3S6c-cCEZP-F06Ydivw,Urban Hot Pot,MD,Columbia,21044,148.0,4.5,10100 Twin Rivers Rd,hotpot seafood cajun,39.21600237766751,-76.86518105445406
23,kp4R7UJcQCk8ld2kmsq-Ew,Honey Pig Korean BBQ,MD,Ellicott City,21042,911.0,3.5,10045 Baltimore National Pike,korean bbq,39.27819,-76.859199
24,qp7RYiO0I2igRZWLoSMF2A,The Red Boat Asian Fusion,MD,Baltimore,21201,165.0,4.0,3 N Eutaw St,vietnamese,39.2894694,-76.6207578
25,T2jQ_wP_tGZrObmc4kOqnA,Zane Japanese Eatery,MD,Germantown,20874,284.0,4.0,19833 Century Blvd,sushi ramen thai,39.1815105,-77.2659483
26,1TUH1L8lZwO7IlJgNlSgTw,Bread Corner,MD,Rockville,20850,265.0,4.0,591 Hungerford Dr,bakeries bubbletea customcakes,39.091638,-77.152966
27,WqqgAWxD1ItnEW6zO2JZ9Q,Thai Taste Express,MD,Wheaton,20902,253.0,4.0,11315 Fern St,thai,39.040662,-77.049182
28,qmVo-g2psU6GdftWFESgFg,Pho 168,MD,Greenbelt,20770,57.0,4.0,6062 Greenbelt Rd,vietnamese,38.997617210255,-76.9091972365207
29,acqNx2-YdFHaPJ1aG0UhNQ,An Loi,MD,Columbia,21045,381.0,3.5,7104 Minstrel Way,vietnamese,39.1773719787598,-76.8424530029297
30,frTthI8ZECgNLd4HvO1vkA,Hunan Gourmet Restaurant,MD,Frederick,21701,71.0,3.5,915 W 7th St,chinese,39.4262545,-77.417065
31,9sLnMp_8lqz6E0lkuannew,Bonchon Hyattsville,MD,Hyattsville,20782,230.0,3.5,6507 America Blvd,korean chicken_wings asianfusion,38.96871,-76.95186
33,USGgYJGni6ImkoTVqihPmQ,Okey Poke,MD,Gaithersburg,20877,75.0,4.5,501 N Frederick Ave,sushi japanese poke,39.151004,-77.209204
34,B3m50hRDWw11xha1PiqAcA,Chili Talk,MD,Rockville,20850,58.0,4.0,313 N Washington St,szechuan,39.08902,-77.15336
36,6FCoN_eglT6MP3N7ahL7NA,East Dumpling House,MD,Rockville,20850,466.0,3.5,12 N Washington St,dimsum asianfusion karaoke,39.0845911,-77.1532593
37,JBVolcom6kWoCKiAg7_wEA,Paul Chen Hong Kong Restaurant,MD,Baltimore,21218,99.0,2.5,2426 N Charles St,chinese,39.317108,-76.617276
38,NWvyExav5wZptc9NP0EnVQ,Flower Child,MD,Bethesda,20814,126.0,4.0,10205 Old Georgetown Rd,salad newamerican vegetarian,39.023525,-77.123292
39,PsazMl5Y6PuvkF3-tgyxYg,T-Swirl Crêpe,MD,Rockville,20850,57.0,4.0,313 N Washington St,creperies bubbletea breakfast_brunch,39.08918,-77.15334
40,S4UFdGJynw6bXuNh-7VhUA,Gong Cha - North Bethesda,MD,North Bethesda,20852,3.0,3.0,967 Rose Ave,bubbletea coffee juicebars,39.050973,-77.118351
41,M9Irs-IR-i-scFoeuO7cBQ,Thai House Restaurant,MD,Gaithersburg,20879,822.0,4.5,8369 Snouffer School Rd,thai,39.1669193700268,-77.1716594696045
42,G5zqIFHP3e6BT6pYa7ThSQ,Kokee Tea at Arundel Mills Mall,MD,Hanover,21076,1.0,4.0,7000 Arundel Mills Cir,desserts bubbletea juicebars,39.157807,-76.724818
43,zTzDIDY5GBkVpsHQGPsxsg,Asian Taste,MD,Baltimore,21211,121.0,3.0,916 W 36th St,chinese japanese thai,39.33124,-76.6323
44,8rTaKjffsVOoXpDFQrr4GA,Hula Inn,VA,Sterling,20166,57.0,3.5,46000 Old Ox Rd,chinese,38.9775619506836,-77.4087524414062
46,KB9Af-xHWo8IKj2pHen5vA,Hot Pot Hero,MD,Gaithersburg,20879,371.0,4.5,100 Paramount Park Dr,hotpot seafood cajun,39.159738,-77.221286
48,6i0YJ-c8RX25NUIelG9OiQ,Pinch Dumplings,MD,Baltimore,21201,96.0,3.0,520 Park Ave,chinese vegan,39.2958526456593,-76.6184662457026
49,YyCADQR6F-6FjmPRwlGslw,Pho VN One,MD,Beltsville,20705,309.0,4.0,11000 Baltimore Ave,vietnamese soup,39.034386,-76.909449
0,Vp1c0UxCzrlv4KSGLUnmzg,Mr K's Chinese Cafe,MD,Germantown,20874,146.0,3.5,12611 Wisteria Dr,chinese thai cafes,39.170790188084645,-77.26083519553322
1,RJtxnY2jDookvdIof4DFZQ,Gallery Cafe,MD,Rockville,20852,6.0,5.0,6120 Executive Blvd,delis,39.0478,-77.12751
2,KaxntrjhAEtxUeS7eP-0hw,Class 520 - Rockville,MD,Rockville,20850,275.0,4.0,5 Dawson Ave,icecream bubbletea coffee,39.089014966308,-77.1538904666064
3,Y8AlWVfTKaeH9LaDCDWdmA,Kara Hibachi & Sushi,MD,Gaithersburg Md,20878,29.0,4.0,12146 Darnestown Rd,japanese sushi,39.11733,-77.25239
5,Nibdi_8WjNDdPHInkQHA8g,Domoishi,MD,Rockville,20850,40.0,3.5,201 E Middle Ln,asianfusion poke ramen,39.0852149,-77.1507598
6,qJJIvbYPOBIuyaTXdh1aOA,Saburo Ramen,MD,College Park,20740,74.0,3.5,8503 Baltimore Ave,ramen korean,38.9949084992532,-76.9317833333333
8,I4yH9gkoHGgIYMXnlvWlEg,Euphoria Kitchen,MD,Gaithersburg,20878,114.0,3.5,304 Main St,vietnamese,39.1219899,-77.23836
9,6mP31kgVgCtVU4ebthgKAA,Pho Dulles 75,VA,Herndon,20170,178.0,4.0,1058 Elden St,vietnamese,38.967458,-77.397186
10,j4hYQ3F5iBhCd0HCed2spg,Pho An & Grill,MD,Aspen Hill,20906,115.0,3.5,13854 Georgia Ave,vietnamese,39.0819774,-77.0769099
11,cUEFxayVhg7AuU9eOX5AjQ,Banana Leaves Asian Cafe,MD,Rockville,20852,199.0,3.5,160 Congressional Ln,chinese thai malaysian,39.0628302,-77.1280561
13,8Doa_RDbhmK9a1xFnputwQ,Wasabi Bistro,MD,College Park,20740,128.0,3.5,4505 College Ave,sushi japanese,38.9818748,-76.9373811
14,8ECRmbhOOH5Th9YrllXaYg,Pho Hiep Hoa,MD,Silver Spring,20902,109.0,3.5,2211A University Blvd W,vietnamese,39.0419,-77.04909
15,HPvSk-f-cIAgyKjdB_efgw,Bonchon Germantown,MD,Germantown,20876,301.0,3.0,19775 Frederick Rd,korean asianfusion chicken_wings,39.178856,-77.23802
16,yfLoGcq-mgiwE9Ysi2wQMw,Java Junction,MD,Gaithersburg,20877,17.0,3.0,5 S Summit Ave,coffee,39.14168,-77.19326
17,0H7BzdxCZNs8OiE182Ttrg,Bonchon Ellicott City,MD,Ellicott City,21042,518.0,3.5,3419 Plum Tree Dr,chicken_wings korean asianfusion,39.276726,-76.83473
18,xLtLPJw3lpj5wWlH8H5kNw,Sakura Cafe,MD,Baltimore,21215,21.0,3.5,3400 Park Heights Ave,noodles soup,39.32607,-76.65788
19,XTrplMR4K3m57wfbnpIPIA,Pho Viet Saigon,MD,Gaithersburg,20879,186.0,4.0,18509 N Frederick Rd,vietnamese,39.161277087303,-77.2203966681461
20,-uI6U92eXmit_admBHNs5g,Pho 1,MD,Catonsville,21228,165.0,3.5,5764 Baltimore National Pike,vietnamese,39.2891408436212,-76.7340769459569
21,wybY-KdKXrzzPj15KCFRrw,Poki DC,MD,Bethesda,20814,69.0,4.0,10400 Old Georgetown Rd,poke hawaiian,39.025833,-77.126601
22,oOSKtM7OcdEF4YsDfRGfAg,Tea.com,MD,Gaithersburg,20877,1.0,2.0,Lakeforest Mall,bubbletea juicebars,39.1526336669922,-77.2064819335938
23,69p256WJJ300d4pGfkyp5A,Asian Bakery Cafe,MD,Rockville,20850,203.0,3.5,763 Hungerford Dr,bakeries chinese bubbletea,39.0934135,-77.1529648
24,F0f_rxcW9y2qbsaFNGPI1Q,Pho 88 Vietnamese Restaurant,MD,Beltsville,20705,258.0,3.5,10478 Baltimore Ave,vietnamese,39.028511124521,-76.917811080958
25,ucClQMWElwTc7lzqyjLDLg,Good Fortune Cafe,MD,Gaithersburg,20878,124.0,3.0,237 A Kentlands Blvd,sushi chinese thai,39.1251097355991,-77.2389998203271
26,82sBvofGPLgUE4WZhi1cJA,Pho House,MD,Germantown,20874,330.0,4.0,13073 Wisteria Dr,vietnamese,39.1781655902526,-77.2714145359061
28,FFe7X7l5_yPnUbGrvLMHdA,Pho Van Restaurant,MD,Catonsville,21228,209.0,4.0,6477 Baltimore National Pike,vietnamese,39.2850952,-76.7610245
29,Fz4tigNFgxze1YaXdRXkcw,Monster Tea,MD,Rockville,20852,10.0,3.0,,bakeries bubbletea,39.05286,-77.12117
30,X-wf47DTOAx5NC2CmEBPIA,Love Sushi,MD,Gaithersburg,20877,463.0,4.0,9031 Gaither Rd,japanese sushi,39.117919342138,-77.1851152834671
31,I0dN1vALiyhXcs4Sgi6pQg,A & J Restaurant,MD,Rockville,20852,938.0,4.0,1319 Rockville Pike,chinese taiwanese noodles,39.06872,-77.13084
32,MtAhX7_USNut7ZqLK9cwmA,Bamboo Stix,MD,Ellicott City,21042,9.0,3.5,10045 Baltimore National Pike,ramen taiwanese,39.27797,-76.85938
33,gxgv3vZRKIX8epnKJ3Wxew,Pholuscious Vietnamese Grill,MD,Rockville,20850,249.0,4.0,10048 Darnestown Rd,vietnamese asianfusion,39.0956738521228,-77.2072216265513
34,6hvHqPXMx73yYoSPdtYEQg,Pho City,MD,Gaithersburg,20878,109.0,3.5,12123 Darnestown Rd,vietnamese,39.118050737345,-77.250832545029
35,LBcOyJSEoCgrZwGN_PhTPQ,Iron Age,MD,Rockville,20852,1269.0,3.5,1054 Rockville Pike,korean bbq steak,39.072626,-77.1329834
36,aymXOEor5iwV4K8FDWIuYg,Aji Sushi,MD,Owings Mills,21117,3.0,3.5,10347 Reisterstown Rd,sushi teppanyaki,39.4185567,-76.77678674053335
39,GMKNpr-GoYCOXBkh569J2g,Oriental Cafe,MD,Rockville,20850,62.0,3.0,9745 Traville Gateway Dr,chinese seafood soup,39.0919576,-77.2034894
40,BTsb_6TwMcGKchT2wdINxw,China Bistro,MD,Rockville,20850,732.0,3.5,755 Hungerford Dr,chinese,39.0932634,-77.1531525
41,OSubA2Mr7c8u3jyzVktfiQ,Pho 81,MD,Germantown,20876,197.0,4.0,19735 Frederick Rd,vietnamese,39.1796372157745,-77.2362655028701
42,L6SDLSxCQwrgOg3Q5xezdg,Pho & Grill,MD,Gaithersburg,20877,244.0,3.5,18310 Contour Rd,vietnamese,39.1540919379856,-77.1995715021247
43,1uM6Tfb_UqgaHmUqUBYc1A,Bonchon Gaithersburg,MD,Gaithersburg,20878,38.0,3.5,130 Market St,korean chicken_wings asianfusion,39.12206,-77.234856
44,1fDWZDBM9gLi7IPcWPo93w,Pho Chi,MD,Gaithersburg,20879,316.0,3.5,20 Montgomery Village Ave,vietnamese,39.15561,-77.20886
45,qXc5j_c17m5s2VbXluoysQ,Pho Hung & Grill,MD,Silver Spring,20904,115.0,3.5,11225 New Hampshire Ave,vietnamese,39.0396186,-76.9904254
47,mWz677VCqNae947HUXd5qg,Honey Pig BBQ,MD,Rockville,20852,281.0,2.5,12015 G Rockville Pike,korean bbq,39.0540222110069,-77.1142019263199
48,B-EkfQI_YFcgKUPdj-ESgQ,Sam Cafe & Market,MD,Rockville,20852,74.0,4.0,844 Rockville Pike,mediterranean,39.07567,-77.13674
49,RKKQjfqn0PJWCWTPxIpdyQ,Panda Express,MD,Wheaton,20902,34.0,3.0,11160 Veirs Mill Rd,chinese hotdogs bubbletea,39.0356622829691,-77.0548183396035
0,nZJvOW3nd2-_XUuQaMfeaw,East Pearl Restaurant,MD,Rockville,20852,439.0,3.5,838 B Rockville Pike,chinese,39.0759697,-77.1371078
1,Ori1LkyzSxE53T0bd6_w7Q,Pho Eateries,MD,Rockville,20852,356.0,3.5,11618 Rockville Pike,vietnamese,39.0479125,-77.11412320216726
2,tVez1aoatY9Sti49bnUjMg,Hearty's,MD,Gaithersburg,20878,52.0,3.5,227 Muddy Branch Rd,taiwanese szechuan seafood,39.1287308,-77.2080078
3,H5qt2FgPHBFjfBD6ibzC6w,Pho Hoa Binh,MD,Rockville,20852,192.0,3.5,11782 Parklawn Dr,vietnamese,39.0489692565816,-77.1025620291914
4,UYffA9zyxFnu8E0T2hqoNw,Akira Ramen & Izakaya,MD,Rockville,20852,776.0,4.0,1800 Rockville Pike,izakaya ramen,39.0597773417242,-77.1215537580822
5,PVbHgYN_QBvMH3T6b7SMcQ,Cafe Hong Kong,MD,Germantown,20874,112.0,3.0,13038 Middlebrook Rd,chinese seafood soup,39.1822464,-77.2705733
6,xxubtoZChdoiBDGzojmggQ,Maki,MD,Rockville,20852,837.0,4.0,842C Rockville Pike,sushi ramen izakaya,39.0758336240205,-77.1368786949677
7,tGk2PJ5EyvOvOkgPa1X-TQ,Pho 75,MD,Rockville,20850,522.0,4.0,771 Hungerford Dr,vietnamese noodles,39.0936638,-77.1531368
8,dLlts1qAK6r93k9H_stOOg,Yuan Fu Vegetarian,MD,Rockville,20852,485.0,4.0,798 Rockville Pike,chinese seafood gluten_free,39.07841,-77.14034
9,5bfCm0OdEtSObbqUpgUmDA,Urban Hot Pot,MD,Rockville,20852,718.0,4.0,1800 Rockville Pike,hotpot chinese seafood,39.059747,-77.121528
10,WcBdbyvwrdLP99IJ2SWiLg,Sichuan Cuisine,MD,Gaithersburg,20878,2.0,2.5,227 Muddy Branch Rd,chinese seafood chicken_wings,39.12814367,-77.20595483
11,NbWWqPjvIybowvOAPjTwgQ,Hunan To Go,MD,Rockville,20850,62.0,2.5,13 Dawson Ave,chinese,39.0890149663135,-77.1538980062574
12,-glIF1HqEDpOpTu9RbJfbA,Japomen,MD,Rockville,20852,4.0,3.0,1066 Rockville Pike,ramen noodles,39.072285,-77.132562
13,kqTuSJdMOxm2CS8s5j-PBg,Panida Thai & Sushi Bar,MD,Rockville,20850,315.0,4.0,15106 Frederick Rd,sushi japanese thai,39.10369,-77.15673
14,-bUBjF4DzFZt1T9Yd2eNRg,Inari Sushi,MD,Rockville,20850,20.0,3.5,15108 N Frederick Rd,sushi japanese,39.1041534222444,-77.1566685977648
16,YPMK3cSl90p58PNCET-vdQ,Chinese Express,MD,Gaithersburg,20879,56.0,3.0,849 Russell Ave,chinese,39.1569583,-77.2121157
17,HgryIvPQJvP2XBkT_dPPqw,QDOBA Mexican Eats,MD,Rockville,20852,133.0,3.5,128 Rollins Ave,mexican hotdogs,39.0585005789274,-77.1221064627252
18,cFhEYGdrbxncvzBrcLSxvQ,Quickway Japanese Hibachi,MD,Rockville,20850,91.0,3.5,275 N Washington St,japanese sushi hotdogs,39.0882,-77.15325
0,jPZgXKH48lTsoVbJOOB3mQ,Makua's Shave Ice,WV,Martinsburg,25404,1.0,5.0,,shavedice,39.4625,-77.95522
1,A-utx4lygyE-w7rfbxdtEA,Byers Market,MD,Hagerstown,21740,4.0,3.5,152 N Burhans Blvd,grocery convenience delis,39.6473122,-77.7250671
2,LXuhJmP9Ox0eMQFa8W4hZg,Rita's Italian Ice,MD,Hagerstown,21742,5.0,3.5,1313 Pennsylvania Ave,icecream desserts shavedice,39.6643829345703,-77.7193756103516
0,QojjBN3aFPdFrRXvIi6_tg,Sweet Hut Cafe,WV,Martinsburg,25401,13.0,4.5,220 N Queen St,poke icecream bubbletea,39.459285,-77.963262
2,hy_9FUAlBjulGjffg1JG_g,Fuji Asian Food & Sushi Bar,MD,Hagerstown,21742,72.0,3.5,11205 John F Kennedy Dr,sushi asianfusion,39.62263,-77.67613
4,pI6zNGKw0UfQ-2-9P8-Tbg,Juno Bakery & Cafe,MD,Frederick,21702,2.0,4.5,1063 W Patrick St,coffee customcakes bubbletea,39.418783,-77.446488
6,tF_-7pBgUsFErM7e5OplHg,H Mart - Frederick,MD,Frederick,21702,73.0,4.0,1063 W. Patrick St.,grocery korean food_court,39.4187400165834,-77.4465925991535
7,038tjuNt-8EQbTziydG0Ew,Green Pineapple,WV,Shepherdstown,25443,73.0,3.5,140 East German St,bubbletea korean asianfusion,39.4301575667509,-77.8041723930218
8,MDFTMBigAYyDxQeUrXKvcg,Golden China Restaurant,WV,Martinsburg,25404,44.0,4.0,1117 N Queen St,chinese bubbletea seafood,39.4706345,-77.954653
11,EnnIAyyCuHcFbnGMRxMWRQ,Cafe L'ami,MD,Frederick,21702,4.0,5.0,1063 W Patrick St,cafes,39.4188688002443,-77.446323688078
12,207npuDSH_riTpL6YiXdzg,Sapporo,PA,Waynesboro,17268,117.0,5.0,5 E Main St,japanese korean sushi,39.755724,-77.577213
1,ysMSR-n4rT2ShdK6ggOCHA,Ono Wai Shave Ice,VA,Leesburg,20176,1.0,5.0,19123 Dalton Points Pl,shavedice,39.08626,-77.50548
2,VZeYxSb1WKPsrB_8eG05-Q,Rita's Italian Ice & Frozen Custard,PA,Bedford,15522,1.0,5.0,106 E Pitt St,shavedice desserts icecream,40.01878,-78.50345
3,qw2AtDmdQzdHNwu-nI5rVg,New Town Creamery,VA,Stephens City,22655,18.0,3.5,320 Fairfax Pike,hotdog icecream newamerican,39.0804682389566,-78.2055572777294
4,qCIwtvSGrf7kUaRUl3Gfzg,Rita's Italian Ice,MD,La Vale,21502,3.0,3.5,1055 National Hwy,desserts shavedice icecream,39.641113,-78.826599
8,IC_LspyYeE1SNQfGaX14Sw,Rita's Italian Ice,PA,Shippensburg,17257,4.0,4.0,10016 Molly Pitcher Hwy,icecream desserts shavedice,40.043455,-77.533057
1,bcqz_panklCw6AN9kFaT-g,The Empress Pearl Tea,VA,Purcellville,20132,11.0,4.5,737 E Main St,coffee bubbletea tea,39.13763,-77.70359
3,ThOLKggS1AzUKkRfH3pDZA,Daily Buzz,VA,Stephens City,22655,4.0,3.5,114 Elizabeth Dr,coffee bubbletea juicebars,39.0817733,-78.2029033
5,HxhCHYr7r9y0ZpaVJQspGA,UniTea Cafe,VA,Leesburg,20176,14.0,4.5,11 W Market St,sandwiches bubbletea tea,39.115523668124915,-77.5652542
9,foD9pFFymFjt6cqV2Uk_Lg,Bubbleology,VA,Leesburg,20175,58.0,3.5,1604 Village Market Blvd,bubbletea coffee,39.0900123533084,-77.5247998345488
11,ohDF-yIcZoJ9OylH5xAaaQ,Sakura,PA,Shippensburg,17257,29.0,4.0,17 Shippensburg Shopping Ctr,japanese asianfusion,40.05782,-77.500024
14,QIMRnlr0A4XrFCu4qr0mNw,Chop Stick Cafe,VA,Winchester,22601,128.0,4.0,207 N Kent St,thai asianfusion,39.18615,-78.16182
16,SyrWdNUajHsTgQwzX_Iu8Q,56 Buffet,PA,Johnstown,15904,16.0,4.0,1425 Scalp Ave,chinese buffets,40.2716137447665,-78.8579406738281
20,PP3DVoM77EqgYWJFYW0YkQ,Chau's Cafe,VA,Ashburn,20147,185.0,4.0,20020 Ashbrook Plaza,chinese,39.061593,-77.470021
23,rFRN8Xt0IAsmCagwqHHilA,Xuan Saigon,VA,Leesburg,20176,210.0,3.5,15 Fort Evans Rd NE,vietnamese,39.10722,-77.547613
24,lOWwyplRtc9TANfFZGKfOA,Pho-nomenal,VA,Ashburn,20147,435.0,4.5,20447 Exchange St,vietnamese sandwiches bubbletea,39.050361,-77.45405
26,w8kHhauhFEkvfS9AhDF9iQ,Hot Pot Legend,VA,Ashburn,20147,83.0,4.0,20462 Exchange St,hotpot szechuan,39.05019067,-77.45363033
27,LbYn2C_2g4IzVIs6glEkVg,Pho Royal II,VA,Leesburg,20176,78.0,3.5,542 Fort Evans Rd,vietnamese noodles,39.1058198922165,-77.5282809259276
2,2Jl7AWl8sXtFyviE09sITQ,Tropical Island Snoballs,MD,Manchester,21102,2.0,5.0,4700 Hanover Pike,shavedice,39.7024951857768,-76.9102165102959
3,P9GvHfVcILGvNiMWwZqPhw,A Lil Somethin - Gettysburg,PA,Gettysburg,17325,2.0,5.0,5 Steinweir Ave,shavedice gourmet candlestores,39.82416,-77.23136
4,VYXLLEaDU0MAyhWMOrsrIA,The Snowbar,MD,Hampstead,21074,3.0,3.5,1229 N Main St,shavedice,39.6082306,-76.8512497
11,gQswJUVyUQKTMkCPFYerMA,Rita's Italian Ice,PA,Gettysburg,17325,11.0,4.0,523 Baltimore St,icecream desserts shavedice,39.82311,-77.23141
3,yE4eC1upnT0mGcw8KaLxgw,J n J’s Asian Restaurant,PA,Gettysburg,17325,9.0,4.5,34 Baltimore St,bubbletea sushi asianfusion,39.8301592734039,-77.2309800152397
32,m3UCcQkbAwTiqsNl2C8hSA,Pholicious,VA,Ashburn,20148,72.0,3.5,43150 Broadlands Ctr Plz,vietnamese soup juicebars,39.027852,-77.509627
39,zZckKrfzpTN-7ZU5Fn-FBg,Hong Kong Restaurant,VA,Ashburn,20147,76.0,3.5,43761 Parkhurst Plz,cantonese bubbletea,39.029588,-77.485996
16,PidGMSt8qlWoXbAP7Vc5tg,Rita's Italian Ice,MD,Hampstead,21074,5.0,3.0,907 South Main St,desserts shavedice icecream,39.6004986,-76.8482022
10,cHDJbcBGH8hJqP7yL-18ig,Bonkey's Ice Cream & Snoballs,PA,New Freedom,17349,30.0,4.5,28 E Franklin St,icecream shavedice,39.7386032,-76.6990457
1,Bm7RVXBrJWBzYCQMsifeeg,Aloha Munchies,VA,Ashburn,20103,1.0,5.0,,shavedice,39.04237365722656,-77.48724365234375
3,hlo_4fiKFS44Gp7l2uieGw,Y-TEA,VA,Ashburn,20148,32.0,5.0,22621 Amendola Terrace,bubbletea coffee,38.9908621,-77.5046997
15,Rc-av1Spx11GhbVnPUAQQA,4 sisters asian snack bar,VA,Ashburn,20147,159.0,4.5,43670 Greenway Corporate Dr,vietnamese bubbletea,39.0094214,-77.4915368
8,Ap_C8IxC62syVnNNCqL0Jw,Yen's Cafe,VA,Ashburn,20147,579.0,4.0,43490 Yukon Dr,taiwanese seafood chickenshop,39.00938757450192,-77.4934091
17,89tHV7j0nrg2Q5sb8nK9wQ,Chloe's Homemade Snowballs,MD,Towson,21204,3.0,5.0,800 Goucher Blvd,shavedice,39.3932659235661,-76.584615111351
33,KXi861wZvLCDentGLjpvWg,Sun Valley Snow Balls,MD,Pasadena,21122,7.0,4.0,8056 Jumpers Hole Rd,shavedice,39.12835,-76.58948
38,XgP9ZsnyYjpYysJiATaahA,Den Da Coffee - Towson,MD,Towson,21204,158.0,4.5,1 W Pennsylvania Ave,bubbletea desserts coffee,39.40047760207343,-76.60324625923775
42,DF7tN0OuaZTCvbumDAH99g,Snow Cloud,MD,Towson,21204,51.0,4.5,714 York Rd,desserts bubbletea icecream,39.404594,-76.6054826
43,jQHoJQCuobN6VxWk8kOGmQ,Ice Queens,MD,Baltimore,21230,74.0,5.0,1648 E Fort Ave,shavedice desserts coffee,39.26829,-76.59108
0,FI2ccMQdmLdTLQYlRYhEGQ,Icy Island,MD,Baltimore,21202,9.0,2.0,301 Light St,icecream juicebars shavedice,39.2851076983179,-76.6124521564835
3,vl7C_e0zCLzgGfSwlGYFvg,Summer Delights,MD,Towson,21204,2.0,3.0,800 B Goucher Blvd,shavedice,39.3931681041657,-76.5845760330658
11,rdzHAHI86xsOF3XRmvWkUw,Rita's Italian Ice,MD,Towson,21212,12.0,4.5,7206 York Rd,icecream desserts shavedice,39.3841286,-76.6066437
15,sgwLiZTZ0WETY7e_NQhuhg,Rita's Custard,MD,Baltimore,21224,3.0,4.5,3825 Boston St,icecream desserts shavedice,39.2764887228863,-76.5645624879255
22,49W5JpYGnVZstfQgri6FIw,Smoothie Himalayan,MD,Glen Burnie,21061,2.0,3.0,7900 Ritchie Hwy,icecream juicebars,39.1385685,-76.60577599999999
25,kICdi-PLW5Iwhdt5t7T25A,Rita's Italian Ice,MD,Glen Burnie,21061,3.0,2.5,7900 Ritchie Hwy,icecream desserts shavedice,39.1387440698815,-76.6063885246858
27,jWARlWMJ-FXtREZUTH5esw,Sushi Ichiban,MD,Towson,21286,102.0,3.5,1238 Putty Hill Ave,sushi asianfusion,39.3935295101337,-76.5812273916988
30,-5so-_DsodGiMADqxQeE9A,Rita's Italian Ice,MD,Baltimore,21202,50.0,2.5,301 Light St,icecream desserts shavedice,39.28564177368838,-76.6123773
11,neikEZdu-x9bG6miTdHFDA,Simply Sip Tea,MD,Baltimore,21202,107.0,4.5,413 S High St,bubbletea,39.2854498165591,-76.6009599561706
26,5rYJkTY_V5y5IGepcDmW_w,Bambao,MD,Baltimore,21202,105.0,4.0,1010 Aliceanna St,asianfusion bubbletea chinese,39.28348,-76.599289
29,ntxcmetjwLMyAMGemTJ-cg,Kung Fu Tea,MD,Towson,21204,121.0,4.0,508 York Rd,bubbletea coffee juicebars,39.400775,-76.6020738771284
30,XUA_-7F8vW3W0JKAW-1low,Gong Cha,MD,Towson,21204,22.0,4.5,417 York Rd,bubbletea juicebars coffee,39.39960003151561,-76.60270422788263
40,aCBzW1GbqKwcoy4dWtCBdw,Chatime Federal Hill,MD,Baltimore,21230,74.0,4.5,1114 Light St,bubbletea coffee,39.27641,-76.61253
44,X0LxFnup529kZ9x2QoYIkA,Charming Elephant,MD,Baltimore,21224,85.0,4.5,2324 Boston St,laotian,39.28281,-76.583637
3,H1HfkVhkJkB3hRURqepaOg,Afters Cafe,MD,Baltimore,21230,148.0,4.0,1001 S Charles St,icecream desserts coffee,39.27806,-76.61419
10,SW7bXYvHIbG9rQWf9zHR7A,Teavolve,MD,Baltimore,21231,855.0,4.0,1401 Aliceanna St,coffee breakfast_brunch,39.2831709,-76.5978269
13,vKHXgovOulfY9eqXxVJksA,FOD Poke Bar,MD,Towson,21204,81.0,4.5,402 York Rd,salad poke bubbletea,39.39958,-76.60248
20,VhC1yXf0GKGexOMtFlRmRg,Thai Street,MD,Baltimore,21231,168.0,4.5,1640 Aliceanna St,thai noodles,39.284,-76.59337
23,zoqbFv4-TcxYTq_ebHqpRw,TKK Fried Chicken,MD,Baltimore,21218,18.0,3.5,3113 St Paul St,bubbletea chickenshop asianfusion,39.326342,-76.615562
30,X19jig0ubkRVdHdOup5onQ,Ramen Utsuke,MD,Baltimore,21202,321.0,4.5,414 Light St,ramen,39.28383,-76.61398
34,mlIvgMI0aUZ2tjd75fxsgQ,iFusion Express,MD,Baltimore,21202,45.0,4.0,621 E Pratt St,asianfusion poke bubbletea,39.285345,-76.60724
36,xioJXbgWvls-OIIb7qoOzw,Pho Tran,MD,Glen Burnie,21061,101.0,3.5,6714 Ritchie Hwy,vietnamese,39.1918217596614,-76.6138836252568
42,21VPL2aT-DY8zVJtGd5eOQ,Ajumma Cuisine,MD,Baltimore,21218,88.0,3.5,3121 St Paul St,korean asianfusion,39.3267135620117,-76.6155624389648
43,NPztC7E-HNw1pIEyy5Mo7Q,Indochine,MD,Baltimore,21201,200.0,3.5,1015 N Charles St,vietnamese asianfusion,39.301633,-76.615518
47,GrY_7WvQT6iwDghmJLCW8w,Spice & Dice,MD,Towson,21286,701.0,4.0,1220A E Joppa Rd,thai soup noodles,39.3968355,-76.5764848
4,LRDAN2fn2pkMyq2DUd41qg,Pho Viet USA,MD,Baltimore,21202,19.0,3.5,1 E Redwood St,vietnamese,39.2886644867865,-76.61469499041456
5,wejnu-EvlgTITEOyqmtaQw,Noodle Charm,MD,Towson,21286,101.0,4.0,1220 E Joppa Rd,thai noodles,39.3962481330461,-76.5766289997442
6,jATYj80_ImNkvCfaGESg6w,Towson Best Chinese & Sushi,MD,Towson,21204,176.0,3.0,527 York Rd,chinese sushi,39.40128,-76.60254
16,D1dT5kmL_7S8fgFiIQn43Q,Sakura Cafe II,MD,Baltimore,21205,8.0,4.0,2510 E Monument St,asianfusion newamerican japanese,39.299039,-76.5819076
18,V_sXAVPeed3n6jLwHhx3LQ,Brown Rice Korean Grill,MD,Towson,21204,57.0,4.0,419 York Rd,korean,39.3998824,-76.602797
23,4-Ocg8gbGPrc2Y_zqTa_TQ,New Generation Hot Pot,MD,Towson,21204,150.0,4.0,413 York Rd,hotpot chinese seafood,39.39956,-76.6028
30,g_E1mONRDwe2kSQ6jKUTlw,Orient Express,MD,Baltimore,21218,165.0,3.5,3111 St Paul St,conveyorsushi szechuan,39.3262711,-76.6155396
35,viOIpHVViYTOtJw8C7UXng,Pho Viet,MD,Baltimore,21202,160.0,3.5,104 Saint Paul St,vietnamese soup,39.290687,-76.614278
25,QAw5CrfpkwbGd7lSFdZBZg,Chao Phra Ya,VA,Herndon,20171,334.0,4.0,2465 Centreville Rd,thai,38.94986,-77.41197
40,1RYrEGoFbHPIEwhQTKkkLA,Pho 2000,VA,Herndon,20170,169.0,3.0,13045 Worldgate Dr,vietnamese,38.9581012,-77.4004976
11,n3yiGiuCIkUNmkAos2leEA,NAN THAI RESTAURANT ,VA,Herndon,20170,210.0,3.5,13021 Worldgate Dr,thai desserts bubbletea,38.9576014,-77.3998644
14,Vrky4w8jO7oCvJQ2JvG1YA,Pho New,VA,Herndon,20171,209.0,3.5,2443 Centreville Rd,vietnamese,38.9497957052561,-77.4087200257626
47,BdecDTra47zXpRuG-zdAew,Rita's Italian Ice,PA,Carlisle,17013,3.0,2.5,500 S Hanover St,icecream desserts shavedice,40.19462,-77.19047
0,qOlM3CVibp2TFvi7aJnTHA,Hawaiian Bryan's Aloha Shop,MD,Salisbury,21804,1.0,5.0,720 E College Ave,desserts shavedice,38.3476393516686,-75.5836847505254
1,TcABvgGwZexB1g6wf8h2YA,Sno Biz,MD,Princess Anne,21853,3.0,4.5,12100 Carol Ln,shavedice,38.213952,-75.701909
2,nZqnMl0zgQ331RBjY22TuQ,Noah's Sno-Ball Shack,MD,Ocean City,21842,2.0,5.0,3708 Coastal Hwy,shavedice,38.36541,-75.0716
3,S8ehIhf_l6Lo8XsZTmQaIQ,Fenwick Ice Co,DE,Selbyville,19975,12.0,4.5,36773 Lighthouse Rd,shavedice icecream foodtrucks,38.47345,-75.1001
4,dorDuYtXSpJiM9gTT7GiIg,Icellos,MD,Cambridge,21613,1.0,5.0,501 Maryland Ave,shavedice,38.5685428717801,-76.0660026044973
5,HslDQvkc4KBbyIvx6gv7og,Fenwick Ice & Trading,DE,Fenwick Island,19944,1.0,5.0,601 Coastal Hwy,shavedice,38.4561691,-75.0518576
6,Vmc5FKUsWmMKQr28CBW_Pg,The Snowball Stand,MD,Berlin,21811,11.0,4.5,11065 Cathedral Rd,shavedice,38.379014167026455,-75.16907795274282
7,tpIrfrCoT9_6kUvQpfWweA,Calvert's Ice Shack,MD,Lusby,20657,1.0,5.0,11861 H G Trueman Rd,shavedice,38.37211548640843,-76.44410666692676
8,GXwn4JEyWsmy6STcBI5DWQ,Sunset Breakers,MD,Worcester,21811,1.0,5.0,,shavedice,38.28895,-75.15185
9,IiMV6waYdzdOkUNHMlnbtQ,"Top Dog, Inc",DE,Rehoboth Beach,19971,1.0,4.0,8 Rehoboth Ave,desserts hotdogs,38.7163506,-75.0765457
10,5kLJwDkEdr2RVc1j1CbGew,Shaka Da Kine Grindz,NJ,Cape May,08204,4.0,4.0,411 Beach Ave,shavedice juicebars,38.9301939780332,-74.9216199584564
11,b6jY0UO8kGh_P12gkCn40Q,Steve's Sugar Shack,DE,Bethany Beach,19930,4.0,3.0,100 Garfield Pkwy,shavedice juicebars,38.538074,-75.055481
12,bwDxAxDSj0orpmFqXoWQiw,Cool Runnings,MD,Berlin,21811,2.0,5.0,9533 Stephen Decatur Hwy,icecream shavedice markets,38.3253346440804,-75.1197909391864
13,zwvQsPnaqSW6TfJrILvNfA,The Mermaid Shanty,MD,Crisfield,21817,2.0,5.0,514 West Main St,seafood shavedice,37.9816,-75.85635
14,2PgxRAGZK64ZZoFrCL7jZw,Polish Water Ice,MD,Ocean City,21842,36.0,4.5,306 S Atlantic Ave,shavedice desserts icecream,38.3292313,-75.0863571
15,aDPh10-kdz2d2_tuAL-fNQ,Bonkey's,DE,Millville,19967,92.0,4.5,35849 Atlantic Ave,comfortfood icecream shavedice,38.54601,-75.100778
16,-jhy-mkeo3IW0IWEluKeAg,Bonkey's Ice Cream & Snoballs,DE,Ocean View,19970,19.0,4.5,44 Atlantic Ave,icecream shavedice desserts,38.543114,-75.087772
17,mnHOOIgv5rA5dLxnj3wbyg,Sweet Spot,MD,Ocean City,21842,5.0,2.0,1401 Atlantic Ave,icecream shavedice donuts,38.344105,-75.078534
18,aR35Bwz_1DJwI83vbeprnw,Love's Lemonade,MD,Ocean City,21842,24.0,4.0,17 N Atlantic Ave,desserts,38.332104,-75.084699
19,8_3KJzMYjwsWQhNqFs3C0g,Pablo's Bowls North OC,MD,Ocean City,21842,57.0,4.5,12109 Coastal Hwy,acaibowls juicebars,38.42721,-75.05588
20,tvzCR5hgP74v2fhheC7LNg,Rita's Italian Ice,MD,Salisbury,21801,6.0,3.5,831 South Salisbury Blvd,icecream desserts shavedice,38.3537141,-75.6007643
21,B1tlUKeQ-Q0uWdRqMYLzXA,Rita's Italian Ice,MD,Easton,21601,4.0,3.0,106 Marlboro Rd,icecream desserts shavedice,38.779774,-76.077667
22,9M8ccNYyaDNyvLdc3UAT0Q,Rita's Italian Ice,NJ,Cape May,08204,15.0,3.0,707 Beach Ave,desserts shavedice icecream,38.9306997,-74.9178656
23,2e7h1V24OWGVG2zPUUcBng,Rita's Italian Ice,DE,Bethany,19930,9.0,5.0,765 Garfield Pkwy,icecream desserts shavedice,38.5403307527304,-75.0707334280014
24,Jgj1efjKM2LouT0fIAHwZA,Tea Boss - Ocean City,MD,Ocean City,21842,42.0,4.5,11805 Coastal Hwy,bubbletea desserts sushi,38.4247701,-75.0577815
25,FGPBPnMWsR4mhSVqI6b7bQ,Rita's Italian Ice,DE,Milford,19963,8.0,4.0,937 N Dupont Blvd,shavedice desserts icecream,38.929655568911,-75.4333651963127
26,fsyrRD8_0HBR8d3o1l7SWw,Rita's Italian Ice,MD,Ocean City,21842,15.0,3.5,4101 Coastal Hwy,icecream desserts shavedice,38.36866,-75.07164
27,lve7Zjb6MDadVh6NGtX3ow,Rita's Italian Ice,NJ,Rio Grande,08242,9.0,4.5,3905 Route 9 S,icecream desserts shavedice,39.012709,-74.878131
28,aIPeCU6dWSveuDEhM6LPww,Rita's Italian Ice,DE,Seaford,19973,1.0,4.0,1250 Norman Eskridge Hwy,icecream desserts shavedice,38.653089,-75.596509
29,e886zMwucMhvyTP-5EXh0w,Rita's Italian Ice,MD,Stevensville,21666,6.0,3.5,210 Kent Lndg,icecream desserts shavedice,38.977129,-76.319711
0,GlsuEtpOlWEad2Yr3VyZEQ,Manna Asian Cuisine,MD,Salisbury,21801,54.0,4.5,1147 S Salisbury Blvd,bubbletea poke japanese,38.34513,-75.60279
1,ZRGeU5L6eYSZp1Jo6SWEDA,Viet Taste,MD,Salisbury,21801,149.0,3.5,215 North Blvd,vietnamese vegetarian vegan,38.3560920496738,-75.6018434941745
2,wr9VIGknUfDCZIf68opwgA,Chuar Restaurant & Bar,MD,Salisbury,21801,36.0,4.0,1306 S Salisbury Blvd,chinese,38.3430128033847,-75.6050966921793
4,AZjwbe2_1Cdluww9gYT6lw,Pho Van,MD,Easton,21601,40.0,4.5,219 Marlboro Ave,vietnamese,38.784137993961,-76.0797096333386
5,zzJD0xEAIVB2DgHlnEvZUw,Pablos Bowls,MD,Ocean City,21842,104.0,4.5,1607 Philadelphia Ave,juicebars vegan acaibowls,38.3463559795451,-75.0797894784132
6,WqZaRCaOXyTx_oJ7thZ77w,FaithCooks,NJ,Cape May,08204,3.0,4.5,307 Beach Ave,cafes,38.9305,-74.922654
7,RGPcJYDRWJrWObNdj0g56w,Olive & Oats by Azafran,DE,Lewes,19958,50.0,5.0,113 Market St,cafes breakfast_brunch bagels,38.7759809561552,-75.1398323213239
8,_XR8HcgFqI4wKaKdCCwWcA,Miyagi Ramen Bar,DE,Rehoboth Beach,19971,211.0,4.5,19266 Coastal Hwy,cocktailbars ramen asianfusion,38.7242262316471,-75.1251041382393
9,5FvtKCo97dMKp6F61bm13Q,Oc Poke sushi teriyaki house,MD,Ocean City,21842,58.0,4.5,215 S Baltimore Ave,japanese poke sushi,38.33005,-75.08677
10,OUirlGmeAApBAFJe8FgwYw,Amarin Coffee USA,VA,Chincoteague,23336,140.0,5.0,6141 Maddox Blvd,coffee coffeeroasteries breakfast_brunch,37.9369099530182,-75.3700924292207
11,VUpWNua1YnVwoEnwfSe60g,Sake Japanese Seafood & Steak House,MD,Lexington Park,20653,51.0,3.0,21719-1 Great Mills Rd,sushi japanese,38.2644568210745,-76.4562429067459
12,jU_lOditH0JgUGWAxWCriw,Dong Sin,NJ,Wildwood,08260,91.0,3.5,101 W Rio Grande Ave,sushi japanese chinese,38.9841742,-74.8247775
10,CiPRCK5kMffOKLwZPCoT6Q,Teariffic Cafe,MD,California,20619,151.0,4.0,22576 MacArthur Blvd,asianfusion chinese juicebars,38.28817483817032,-76.48308206521192
9,uBfwW7LhzR-vnXjyzSKEoA,The Rollin' Girls,NJ,Wildwood,08260,27.0,2.5,4114 Boardwalk,desserts,38.98377,-74.8151199
17,JCGaLrM23B7HzHVzoPo4Uw,Rita's Italian Ice,MD,Solomons,20688,10.0,4.0,13450 Hg Trueman Rd,icecream desserts shavedice,38.3461363,-76.4608874
23,JEFnX1h819QMljMNwEP6Ug,Rita's Italian Ice,MD,Prince Frederick,20678,6.0,2.5,738 North Prince Frederick Blvd,desserts shavedice icecream,38.5526,-76.59709
16,D8ATly8I8hNWaBQVwFvMcQ,Rita's Italian Ice,MD,Dunkirk,20754,12.0,4.0,10331 Southern Maryland Blvd,icecream desserts shavedice,38.719374,-76.65995
9,vATGeg9AFX7eb8oVtx8PIg,Rita's Italian Ice,MD,Charlotte Hall,20622,6.0,4.5,30135 Three Notch Rd,shavedice icecream desserts,38.4957389831543,-76.7757415771484
4,Rg6GillMUIDPlHEQbbkQSA,Taichi Bubble Tea,MD,Annapolis,21401,106.0,4.5,2568 Solomons Island Rd,poke ramen bubbletea,38.9728165132165,-76.5436467155814
6,mglXqCoH0luN3dfM_759_w,Kokee Tea - Annapolis,MD,Annapolis,21401,31.0,4.0,2002 Annapolis Mall,bubbletea juicebars,38.98942037880515,-76.54640914110446
15,HdiAWyuI1K5vuxHp0xve-w,Tutti Frutti Frozen Yogurt,MD,Annapolis,21401,16.0,2.5,133 Main St,icecream bubbletea juicebars,38.9775381982327,-76.4886463433504
16,i-c80DRlTUOLpzFJdtXlUQ,Hangry joes Hot Chicken,MD,Annapolis,21401,3.0,4.0,2329 Forest Dr,chickenshop bubbletea sandwiches,38.97918338369349,-76.54592243160894
17,6IRyVkV-xsglDrmnsKOsjw,Sakura Cafe,MD,Annapolis,21401,130.0,3.0,105 Main St,sushi seafood steak,38.97731,-76.4880699
14,f1UKgWkSr_YKffTEwH6RbA,PHO 5UP - Annapolis,MD,Annapolis,21401,130.0,4.5,2625 Riva Rd,vietnamese soup,38.97532,-76.5577
18,KSQmQ7myPBY-z8xic0ng4g,Red Tigers Korean Fusion Grill,MD,Pasadena,21122,98.0,5.0,8487 Fort Smallwood Rd,bbq korean,39.1578849156783,-76.5161926740479
20,JLQnKHgTmHTWwPpOcx0b9Q,Saigon Palace,MD,Edgewater,21037,185.0,4.0,10 Mayo Rd,vietnamese asianfusion soup,38.94021,-76.56246
21,SYypaLmuHxJCtTRBUDAm9A,Life Pho,MD,Severna Park,21146,292.0,4.5,484 Ritchie Hwy,vietnamese,39.082164,-76.5512756
0,YzxgrjZ54rM14-LhPb2YLA,Emmorton Snowballs & Ice Cream,MD,Bel Air,21015,16.0,4.5,101 E Wheel Rd,icecream shavedice,39.4930801391602,-76.3213958740234
1,SjQWoV94iYiciP31TPCkzw,Reno's Ice Cream & Water Ice,DE,Wilmington,19808,4.0,5.0,4748 Limestone Rd,icecream shavedice,39.7404566238669,-75.6917734389746
2,GTlnJUKuX_0oqtFjuixfxg,Tagpuan Restaurant,DE,Newark,19711,47.0,4.5,700 Capitol Trl,filipino,39.6937089265897,-75.7197314846486
3,kFvJY7X9mOH4wNFyHIPjog,Sharon's Shaved Ice Snowballs,MD,Bel Air,21014,11.0,4.0,595 Baltimore Pike,shavedice icecream,39.5266965,-76.3540015
4,oXVUmgXV_W5lCKoWvWynOw,Rita's Italian Ice,MD,North East,21901,10.0,4.0,2328 Pulaski Hwy,icecream desserts shavedice,39.6093279244173,-75.9444768592904
5,-VbtijUhH4xVP7cZbEo6-Q,Ted's Montana Grill - Christiana,DE,Newark,19702,153.0,3.5,3194 Fashion Center Blvd,tradamerican steak burgers,39.6712617957885,-75.6479444079988
6,iRqjguMLGrvv-t_UaZPowg,Rita's Italian Ice,DE,Smyrna,19977,2.0,4.0,124 North Dupont Blvd,desserts shavedice icecream,39.3044128417969,-75.604866027832
7,rbJ-qtyDW4MV9pIyvv_sXA,Rita's Italian Ice,DE,Newark,19711,14.0,4.0,600 Newark Shopping Ctr,icecream desserts shavedice,39.6846219548454,-75.7442138744561
8,K_xncxQ94pJPBiEwA7pTOQ,Rita's Italian Ice,MD,Aberdeen,21001,6.0,4.0,772 W Bel Air Ave,icecream desserts shavedice,39.5196457,-76.1862429
9,0YJceuqFVR2HksrNyldpEw,Rita's Italian Ice,MD,Abingdon,21009,7.0,4.0,3007 Emmorton Rd,desserts shavedice icecream,39.47636,-76.30911
10,9KV4_NvMNnXh0jo0UnYbZA,Sino Wok,MD,Bel Air,21014,10.0,3.5,696 Bel Air Rd,chinese japanese soup,39.5239884,-76.3569352
11,92DlyQjQAug-YFz6ISaB7A,Rita's Italian Ice,PA,Oxford,19363,3.0,3.5,453 N 3rd St,icecream desserts shavedice,39.7941590999529,-75.9758330587219
12,lOXYw5mqIn2eAIN7aFWb2w,Rita's Italian Ice,DE,Bear,19701,5.0,3.0,1673 Pulaski Hwy,icecream desserts shavedice,39.62016,-75.6943
13,mQFGOnyhpFAxg0yKG8tfLw,Rita's Italian Ice,DE,Hockessin,19707,5.0,4.5,7313 Lancaster Pike,shavedice desserts icecream,39.78853,-75.69338
14,abL09Yzeacy4q0tc-q8_rQ,Rita's Italian Ice,MD,Joppa,21085,8.0,4.5,523 Pulaski Hwy,icecream desserts shavedice,39.428435,-76.357285
15,TlHtbL1Dk56A4gEInUnFOA,Rita's Italian Ice,DE,Wilmington,19808,8.0,3.0,3730 Kirkwood Hwy,icecream desserts shavedice,39.73182,-75.64191
16,yra62u6wnsKHVLbW8LpMvQ,Rita's Italian Ice,MD,Elkton,21921,3.0,4.5,403 East Pulaski Hwy,desserts shavedice icecream,39.59886,-75.81381
17,4lF1-6lMyDxe4SS5xLliNg,Rita's Italian Ice,DE,New Castle,19720,2.0,3.0,287 Christiana Rd,desserts shavedice icecream,39.661748,-75.639814
0,HqDPqtyzexGakzmyLUo7Rw,Tbaar Delaware,DE,Newark,19711,48.0,4.0,108 E Main St,bubbletea juicebars,39.68359503184174,-75.74898764443749
1,7mj5Etk6-_Ps59XHu6JTsA,TIGER SUGAR,DE,Newark,19711,6.0,5.0,211 S Main Street Unit 106,bubbletea desserts,39.67737,-75.76216
2,sIcqBr3Tr5qtmtNu7EXk_g,Kung Fu Tea,DE,Newark,19711,8.0,4.5,93 E Main St,coffee juicebars bubbletea,39.683126,-75.749602
3,hUCJ0STZ_KT9gGB2DoGdsg,Tastea 101,DE,Newark,19711,3.0,4.5,101 Carroll Ct,bubbletea juicebars chicken_wings,39.68086,-75.75695
4,nrlYIT438hkDub2ifE8DHg,Mr Wish,DE,Newark,19702,21.0,4.5,132 Christiana Mall,bubbletea juicebars,39.678572,-75.652164
5,Mvv5alhPOuh-5nAI1tT_KA,Gong Cha,MD,Bel Air,21014,33.0,4.5,620 Marketplace Dr,bubbletea,39.5239504464881,-76.35244831178179
6,l7vA2NVn1xyuw5lKfSIGbg,Surreal Creamery,DE,Newark,19711,6.0,4.5,93 E Main St,icecream bubbletea desserts,39.6832362643621,-75.74959761276887
7,YHohKP1NnXWw0Of7wnQZyQ,Travelers Eats & Sweets,PA,Kennett Square,19348,2.0,5.0,148 West State St,desserts bubbletea importedfood,39.8461,-75.71335
8,9ITPcVo_yGzevT0NMxfOVQ,Comma Cafe,DE,Newark,19711,1.0,3.0,74 E Main St,bubbletea coffee juicebars,39.68336315993815,-75.75043259288134
9,knBn5dtaLxML4jNQ3BMX7A,Pho Ever Cafe,DE,Newark Shopping Ctr,19711,120.0,4.0,230 E Main St,vietnamese soup bubbletea,39.685202531055396,-75.74398436616187
10,8qWuFj0QmeNCa37aut-9kg,Chatime Belair,MD,Bel Air,21014,1.0,5.0,512 Baltimore Pike,bubbletea coffee,39.528361652874715,-76.35330864993615
11,iNl2Hcp9Rh9UnoD0Q9lhnw,Bowba Cha Smoothie & Bubble Tea,DE,Newark,19711,3.0,3.5,157 E Main St,juicebars bubbletea,39.68358073229125,-75.74657525134417
12,VkHexf3mBy-8hu2vsSVd4g,Chiwa Bistro,DE,Newark,19702,121.0,4.0,132 Christiana Mall,sushi asianfusion ramen,39.679591,-75.651851
13,4EffIBpRHXJP0mNZeRAYvA,Pinji's Cafe,DE,Wilmington,19806,36.0,4.5,1428 N Clayton St,sandwiches breakfast_brunch ramen,39.75658767944773,-75.56151854316295
14,msp4nQ9YPzSA7d6fVbSrAA,Tree Garden,DE,Wilmington,19808,62.0,4.0,1317 McKennans Church Rd,japanese sushi chinese,39.73246,-75.66634
15,k6d6ddQ8NAscke0_dVrgaA,Rubie's Smoothie,DE,Newark,19702,13.0,3.0,715 Christiana Mall,bubbletea juicebars,39.678615,-75.65315
16,IZMJsuEIxunT-3EndLxtxg,Jasmine Smoothie World,DE,Newark,19702,2.0,2.0,715 Christiana Mall,bubbletea,39.678308,-75.651871
17,TS2vI_Z4oww_HvUlXqKTSg,Banh Mi Boy,DE,Newark,19711,163.0,4.5,209 E Main St,vietnamese sandwiches,39.68351,-75.74499
18,VbzoVWEPSfzaIGBq4KlVwQ,Soybean Asian Grille,DE,Wilmington,19808,172.0,4.5,4702 Limestone Rd,thai chinese asianfusion,39.7392170075027,-75.6925452853584
19,jLfXLO5Pg9m1PbGOB1ImyQ,Pho Nhu Vu,DE,Bear,19701,130.0,3.0,1146 Pulaski Hwy,vietnamese,39.6299,-75.66278
20,zw6MYIQ6xcBI2O6_EYBxJw,Poke Bowl,MD,Bel Air,21014,54.0,4.5,544 Baltimore Pike,hawaiian poke,39.5266939,-76.3542731
21,yoNQxoFJ80wTElqsQ-VnUQ,Kong Pao Palace,DE,Newark,19711,29.0,3.5,259 S Main St,chinese,39.6766999,-75.76233
22,kje7KzyDiP7ye1mMbj2qaQ,Colorful Yun Nan,DE,Newark,19711,56.0,3.5,59 E Main St,chinese noodles soup,39.6830651,-75.751016
23,Ct_g_xmNh1wvpfTD-QLI8Q,vPho,DE,Newark,19711,221.0,4.5,2671 Kirkwood Hwy,vietnamese salad noodles,39.708392,-75.68442
24,wZTvnoSwy4GxYw9gtdMY7Q,Little Teriyaki,DE,Newark,19711,52.0,3.0,136 S Main St,bubbletea sushi chinese,39.6798273,-75.7598946
25,HfgDFoo1-6JsEdgiIf9SxQ,Tastea Main Street,DE,Newark,19711,2.0,4.0,74 E Main St,bubbletea juicebars,39.683475580616566,-75.7504482
1,VrySzZJaf0dsSdvx9snt-A,Sharon's Shaved Ice Snowballs,MD,Forest Hill,21050,2.0,5.0,1500 Rock Spring Rd,desserts shavedice icecream,39.558166,-76.371002
5,MkknWOb0ifyYuTSabiK__A,Busy Bee Snowballs,MD,Perry Hall,21128,2.0,4.5,4356 Chapel Rd,desserts shavedice,39.403344,-76.449629
6,OZX4zn2Tu49F030vurb8BQ,Kona Ice of Bel Air,MD,Forest Hill,21050,4.0,5.0,132A Industry Ln,shavedice foodstands,39.577564239502,-76.3714141845703
9,WhNO6i0fmBc_ej_OjBe_rA,Rita's Italian Ice,MD,Forest Hill,21050,3.0,4.5,1510 Rock Spring Rd,icecream desserts shavedice,39.5587,-76.371398
13,ZM_PAuGPsE1evqNuv3SjkQ,Rita's Italian Ice,MD,Perry Hall,21236,5.0,3.5,9648 Belair Rd,icecream desserts shavedice,39.41505,-76.4617899
14,DQPDBp-zEnGIf_07XF_oKA,Rita's Italian Ice,MD,Fallston,21047,3.0,4.0,220 Mountain Road,desserts icecream shavedice,39.4927416,-76.3963591
20,AXPPOKtjolSvsX1BzDcBnw,Rita's Italian Ice,MD,Middle River,21220,2.0,3.0,162 Carroll Island,icecream desserts shavedice,39.3360295844896,-76.3993679673465
1,BVBnd7pP12ZHRfV1wjrgTg,ChaTime White Marsh,MD,Nottingham,21236,94.0,4.5,8137 Honeygo Blvd,bubbletea coffee juicebars,39.370819,-76.465246
12,PW0A3xfMmPwG39iEW86tVA,Thai Rainbow,MD,Middle River,21220,105.0,4.5,750 Concourse Cir,thai,39.3596112846797,-76.406868
21,PoAQsd2aHhM4k5rDTsU4sQ,Jasmine's Smoothie World,MD,Nottingham,21236,5.0,2.5,8200 Perry Hall Blvd,healthmarkets bubbletea juicebars,39.3745187,-76.4668033453689
26,_7Ru4RauGvW4ZV6jwyZdag,Brown Rice Korean Grill,MD,Whitemarsh,21236,62.0,3.5,8137 Honeygo Blvd,korean,39.3708743199894,-76.464939144844
16,RiYWkGKYVMRueaAlgJsbog,Tasty Maryland Food Truck,MD,Essex,21221,15.0,3.0,,foodtrucks tradamerican shavedice,39.32157,-76.44963
2,S7SCdNnPzGJXwverrHMoww,Kung Fu Tea,MD,Nottingham,21236,24.0,4.0,7904 Honeygo Blvd,juicebars bubbletea coffee,39.37321,-76.47249
19,RROFOhnPZGGLjTjHUfRPtA,Pho 7Rich,MD,Nottingham,21236,127.0,3.0,4136 E Joppa Rd,vietnamese,39.398944,-76.48194
0,2s0DNjQuSNaInsfs23EdWA,Pelican's SnoBalls,PA,Downingtown,19335,7.0,4.5,807 W Lancaster Ave,shavedice,39.9993133544922,-75.7248992919922
9,ppCnw1Zj4RhcFBAb3DJ3iQ,Rita's Italian Ice,PA,Gap,17527,7.0,4.5,5351 Lincoln Hwy,icecream desserts shavedice,39.992161,-76.01957
12,NPKCKHXZYPRiNj__kThD6A,Rita's of Downingtown,PA,Downingtown,19335,7.0,3.0,84 W Lancaster Ave,icecream desserts shavedice,40.003576,-75.707963
12,tqCDj8b0lcRfhLMP9iZ3FA,Pho Now,PA,Downingtown,19335,107.0,4.0,3911 W Lincoln Hwy,vietnamese,39.997461,-75.742569
22,yYrVcp_awxUbmsrbjaI-Mw,Wasabi Japanese Restaurant,PA,Willow Street,17584,112.0,4.0,2600 Willow St Pike,japanese sushi asianfusion,39.983,-76.281661
0,u_z59Aor_K5LFXutmjBmTA,Mommom's Ice Cream,DE,Dover,19901,35.0,5.0,900 E Division St,juicebars icecream shavedice,39.1653015464544,-75.5104889720678
3,zwdAQo9oCAxS_iHU-w-ilQ,Rita's Italian Ice,DE,Dover,19901,13.0,2.5,191 North Dupont Hwy,icecream desserts shavedice,39.1680679321289,-75.5166702270508
8,TFGKB0TEb0i02gM4Rn3z0w,Rita's Italian Ice,NJ,Pennsville,08070,2.0,4.5,277 North Broadway,icecream desserts shavedice,39.6699822,-75.5053854
7,b9XPEt6oqa4ER4FI0-wXlw,Chicken Now,DE,Dover,19901,2.0,3.5,1365 N Dupont Hwy,wraps tradamerican chicken_wings,39.194023,-75.539681
3,oUTlDYydfGAnK3yMCzGwbw,Rita's Italian Ice,DE,Wilmington,19803,4.0,4.0,2909 Concord Pike,icecream desserts shavedice,39.79894,-75.54738
9,fmTnr-j0ilnwqbYqEtIysQ,Rita's Italian Ice,DE,Claymont,19703,6.0,2.0,3230 Philadelphia Pike,shavedice desserts icecream,39.7996,-75.46114
12,QGkSZwyhCu-f4NZ3XDmVVw,Rita's Italian Ice,DE,Wilmington,19810,3.0,3.0,2222 Silverside Rd,desserts shavedice icecream,39.8036808198816,-75.5087473548767
16,tkyGbszNAP2w0VwNTi48qQ,Rita's Italian Ice,DE,Bellefonte,19809,9.0,4.0,722 Philadelphia Pike,icecream desserts shavedice,39.7705993652344,-75.4996719360352
2,fLeD_h6uD4yEN2ciI08RiA,Bubble Shack,DE,Wilmington,19803,98.0,4.5,3205 Concord Pike,vietnamese bubbletea asianfusion,39.8006,-75.54761
16,yJ2585fQD8lcuckZ4QIdmw,Pho Bami,DE,Wilmington,19803,97.0,4.5,2113 Concord Pike,vietnamese,39.790015,-75.545765
4,2Q91xmfi8pdeyoUu4Gij9w,Kona Ice of Central Baltimore County,MD,Parkville,21234,16.0,4.0,3326 E Joppa Rd,shavedice foodtrucks,39.3952559,-76.51134520984108
5,Ep2avRFtenfO2AjayCklWw,Elizabeth & Ziggy's Snowballs and Shaved Ice,MD,Parkville,21234,30.0,4.5,2499 Putty Hill Ave,shavedice icecream,39.389636188263,-76.5428517048308
6,zx9-VYeDiiEYYI1kAPTujQ,Dean's Shaved Ice,MD,Parkville,21234,4.0,5.0,8402 Harford Rd,shavedice,39.3807199,-76.5372
11,Y9hI1DcdgPR18-ajUpDuUQ,River House,PA,Wrightsville,17368,25.0,4.0,2621 Craley Rd,chinese shavedice thai,39.9481964,-76.5093079
12,SggDsHFhHlTyi3Fn6vvErQ,Rita's Italian Ice,MD,Carney,21234,5.0,4.5,2201 E Joppa Rd,icecream desserts shavedice,39.3977203,-76.5397568
13,d2iNXqa2N-L_-9ogp9a0GQ,Daily Sushi,MD,Parkville,21234,104.0,4.5,1842 E Joppa Rd,sushi japanese chinese,39.400233369377,-76.5524580027268
14,oSrA8-rQbogSImCCI59Q5w,China Wok,MD,Parkville,21234,19.0,3.5,1842 E Joppa Rd,chinese,39.4002953,-76.5513916
3,edS_q6Cul6fZFEJPAqMrZA,Rita's Italian Ice & Frozen Custard,PA,West Chester,19380,11.0,1.5,323 E Gay St,icecream desserts shavedice,39.96283107703869,-75.60040105185101
17,1GnJDrpp-jyDRCptavD9RQ,Rita's Italian Ice,PA,Aston,19014,7.0,4.0,5004 Pennell Rd,icecream desserts shavedice,39.8650733,-75.4277707
18,QUc58D9JdccU_H1pUPWDdw,Rita's Italian Ice,PA,Chadds Ford,19317,8.0,1.5,220 Wilmington W,icecream desserts shavedice,39.8489411500154,-75.5384206384848
23,kfXc2ltpRCkqA4yV87jj7A,Kapow Kitchen,PA,Garnet Valley,19060,32.0,4.5,1362 Naamans Creek Rd,thai foodtrucks asianfusion,39.840771,-75.496239
0,vYk5NViNVHVkMx5E9_PmGg,Siroo Juk Story and Tea Cafe,VA,Annandale,22003,447.0,4.0,4231 Markham St,korean coffee shavedice,38.832614,-77.197902
1,-7mtTaJVlmx9TqWM-CAw-A,Breeze Bakery Cafe,VA,Annandale,22003,1027.0,4.0,4125 Hummer Rd,bakeries cafes,38.83359,-77.209918
2,q5TASnRUHk2xr2zziPgsGA,SnoCream Company,VA,Annandale,22003,756.0,4.5,4221 John Marr Dr,desserts shavedice bubbletea,38.830673,-77.1884929
3,Py8K6EnYmNdJA92k-s23Hg,Cents Taro Family,VA,Fairfax,22031,119.0,4.5,9534 Lee Hwy,desserts,38.8663099281309,-77.2748781171966
4,R23-_9iMAjeS7nkTtWBVUw,Snowmoon,VA,Falls Church,22042,7.0,4.0,7231 Arlington Blvd,shavedice bubbletea,38.8670671979703,-77.1948515179894
5,XH6FWblL9wiVY9bEctX8Vw,Manoa Bakery Cafe,VA,Annandale,22003,355.0,4.5,7326A Little River Tpke,coffee bakeries sandwiches,38.83093,-77.19761
6,FZYTUBE1syQMv1BS-cG8-g,Soricha Tea & Theater,VA,Annandale,22003,344.0,4.5,7112 Columbia Pike,coffee,38.8330300196999,-77.1914365769644
7,IwV8OxG4JfsGxu0Um3eSTg,Magnolia Dessert Bar & Coffee,VA,Vienna,22180,1059.0,4.0,431 Maple Ave W,desserts coffee breakfast_brunch,38.89552,-77.27359
8,FhiiiZyo2wYCovMKZkynsw,Shilla Bakery & Cafe - Annandale,VA,Annandale,22003,778.0,3.5,7039 Little River Tpke,bakeries desserts coffee,38.8288120460666,-77.1894385159552
9,Q0UIznn5mdGJ3DIRx9lBLQ,The Block,VA,Annandale,22003,881.0,4.5,4221 John Marr Dr,asianfusion cocktailbars foodstands,38.83118,-77.1885099
10,hfmrtXrowkQXbVmAfMuOLA,Chill Zone,VA,Arlington,22207,288.0,4.5,2442 N Harrison St,coffee juicebars cafes,38.896683,-77.138731
11,NhmkWddaRVyKC-Ixn5JfZA,Snowmoon1,VA,Falls Church,22044,1.0,5.0,3015 Patrick Henry,shavedice,38.8672981,-77.1471634
12,WGo-FjWJsI2WFBD19GCZrA,Snowmoon”1”,VA,Falls Church,22042,1.0,5.0,3039 Graham Rd,shavedice,38.86727,-77.19452
13,OxYFiR0rI0l9ACCzmc_MnA,Vivi Bubble Tea Eden,VA,Falls Church,22044,319.0,4.0,6769 Wilson Blvd,taiwanese bubbletea coffee,38.874187,-77.1551001816988
14,r-BRHexo3sI5WVe_0_Sudw,Rita's Italian Ice - Fairfax,VA,Fairfax,22030,69.0,4.5,10726 Fairfax Blvd,icecream shavedice,38.8556834,-77.3149248
15,w_KIG8bsFwHmbcJ_aNb-4A,Yechon,VA,Annandale,22003,1727.0,3.5,4121 Hummer Rd,korean japanese bbq,38.83376,-77.20995
16,EsJQ1I7pguDKe16KuRb4QA,Snow Show Eden Center,VA,Falls Church,22044,15.0,2.5,6769 Wilson Blvd,shavedice,38.874167,-77.155111
17,HY2yNRwmKmULRSLqyMHMtg,Napoleon Bakery,VA,Annandale,22003,49.0,4.0,4217 Tom Davis Dr,bakeries desserts coffee,38.8316194313465,-77.1911424598609
18,Vnq8EHy0-qVZA8Jfspb6hg,Mama Rosa's Ice,VA,Bailey's Crossroads,22041,2.0,5.0,,foodtrucks shavedice,38.84911,-77.13058
19,4Oy2BhiLXkp6mE2FuZyCkQ,Mango Mango Dessert,VA,Falls Church,22044,314.0,3.5,6795 Wilson Blvd,desserts juicebars creperies,38.872874,-77.154454
20,wQtqmL7g3UoM50h7sTfaSA,Four Sisters Restaurant,VA,Falls Church,22042,1211.0,4.0,8190 Strawberry Ln,vietnamese,38.872516,-77.228246
21,L8RSBLzf8a2ibeQTne_KdA,Thanh Son Tofu,VA,Falls Church,22044,425.0,4.0,6793 Wilson Blvd,vietnamese,38.8727008,-77.1542566
22,ObvbFLmbvyzG5s3GCkxYJw,Sweet Berry,VA,Fairfax,22031,275.0,4.0,9432 Main St,icecream gelato creperies,38.842199025526,-77.270253049706
23,sSREv7OwhiSZafAWihKHmw,MangoLina - Springfield Town Center,VA,Springfield,22150,46.0,3.0,6814 Springfield Mall,gourmet juicebars desserts,38.7750306,-77.1735056
24,EXXSC0tOgt6BoD2qGrEZ-Q,Frufetti,VA,Fairfax,22032,3.0,5.0,,foodtrucks shavedice icecream,38.80589,-77.29665
25,KS3qXKvUxJIRdpPG2xMhfA,Capitol Snow,VA,Alexandria,22310,1.0,5.0,6201 Franconia Rd,shavedice desserts,38.78088,-77.15104
26,AkU5_H2ayGyuuw5WbcUDig,Bingbing,VA,Fairfax,22030,1.0,3.0,10500 Main St,desserts farmersmarket shavedice,38.8469810038805,-77.3088055104017
0,NBbDXp3rHgCJ0QUCfFJRmg,Tan-Cha,VA,Annandale,22003,94.0,4.5,6920A Bradlick Shopping Ctr,bubbletea,38.813181296474674,-77.18396934738982
1,eS1iXKcOnpHc1GozXuve3g,Gong Cha,VA,Annandale,22003,131.0,4.5,4230 Annandale Rd,coffee bubbletea juicebars,38.831325,-77.197176
2,XO4FhUW-MgS-T9BRfVKFVA,Bubble Mochi,VA,Vienna,22180,29.0,4.5,155 Maple Ave W,donuts macarons bubbletea,38.90042,-77.26714
3,C-S26Mm489TP7iPw6xKQWg,Ocha Tea,VA,Annandale,22003,233.0,4.5,6653 Little River Tpke,bubbletea coffee juicebars,38.82433,-77.17237
4,M06xfFANYjDeRjSG5C9KqQ,Kung Fu Tea,VA,Annandale,22003,525.0,4.0,7895 Heritage Dr,bubbletea coffee juicebars,38.826133,-77.213667
6,FR7sZVFKPmWlLcRZQcY_BQ,BoBaPoP Tea Bar - Merrifield,VA,Falls Church,22042,92.0,4.5,2831 Gallows Rd,bubbletea coffee juicebars,38.8736868,-77.226773
7,InCTCNSyIDyra7FSKOOWYQ,Ben Gong’s Tea - Annandale,VA,Annandale,22003,60.0,4.5,4235 John Marr Dr,bubbletea,38.8310643579905,-77.18841809999999
8,Y5jWdJ6uxupEcwPDcm_Qdw,Yomie's Rice X Yogurt,VA,Annandale,22003,76.0,4.5,4367 John Marr Dr,desserts juicebars coffee,38.8296745,-77.1898358
9,yRCkDkpW_BLgjnIvRiUksQ,BAMBU,VA,Annandale,22003,114.0,4.0,4220 Annandale Rd,juicebars bubbletea vietnamese,38.83187,-77.19708
10,LgLW2eCPTEcoko1MXV--Xg,Tea-Do,VA,Annandale,22003,156.0,4.0,7031 Little River Tpke,bubbletea coffee juicebars,38.82826,-77.18926
11,5gohcvrz0L8317HRYWsnrg,O Bread Bakery,VA,Annandale,22003,125.0,4.5,7867 Heritage Dr,coffee bakeries,38.82506,-77.2134202
12,c8fPqUqYjSZcLX51iLS8Vw,Kung Fu Tea,VA,Springfield,22150,228.0,4.0,7000 Brookfield Plz,bubbletea coffee juicebars,38.7731257430817,-77.1846148049108
13,_fAW4ifDRMP6E76cbYUrRQ,Mr.Wish,VA,Falls Church,22044,55.0,4.5,6767 Wilson Blvd,coffee bubbletea,38.874187,-77.154962
15,iNV9U8P_ld7AYKrxJsfI-Q,Tea DM,VA,Fairfax,22031,20.0,4.5,9416 Fairfax Blvd,bubbletea juicebars coffee,38.86529124486808,-77.2716454488986
16,yScbKnxI0gZ1H4Jr_OxbEA,TeaDM Lounge,VA,Falls Church,22044,642.0,4.0,6779 Wilson Blvd,bubbletea juicebars coffee,38.873744,-77.1551783
17,obfyE8Eo1vb9P5H3c5cNCA,Kokee Tea,VA,Fairfax,22031,127.0,4.0,9668 Main St,bubbletea juicebars coffee,38.8421977656657,-77.2769449828038
18,6ihdhEWgklrj5X4u27XKlg,Donutchew Annandale,VA,Annandale,22003,128.0,4.0,4239 John Marr Dr,desserts bubbletea donuts,38.8309808,-77.1894194
20,OnsmscLkuS3LGGqeBNmzyQ,ViVi Bubble Tea,VA,Fairfax,22031,109.0,4.0,9974 Main St,bubbletea,38.84440683,-77.29087517
22,01OTyIZjXQ752W8JDoVfvw,TeaDM Mini,VA,Vienna,22180,182.0,4.0,142 Maple Ave W,bubbletea coffee juicebars,38.89994,-77.26635
24,7CaQXzlYpD2RJpt-WSb7ng,Cafe O’Clock,VA,Fairfax,22031,21.0,4.5,9860 Main St,coffee bubbletea sandwiches,38.84391,-77.287624
25,beOMKOnaR1Krqvtjiu43fg,Fortune Cha,VA,Alexandria,22312,42.0,4.0,6231 Little River Turnpike,bubbletea desserts juicebars,38.81668383968472,-77.1424588
27,8cF3ogHF6F_UqTUovgUQsg,Kung Fu Tea,VA,Burke,22015,70.0,4.0,9530B Old Keene Mill Rd,bubbletea coffee juicebars,38.7783375368797,-77.2733875496855
29,MpyxsURIHTQE2D8et6Xfow,Infini-Tea,VA,Falls Church,22042,155.0,4.0,6647 Arlington Blvd,coffee bubbletea vietnamese,38.86902,-77.17337
30,SL62mGpJuUQH29keR42hfg,520 Ice Cream and Tea,VA,Fairfax,22031,209.0,4.0,2985 District Ave,bubbletea icecream,38.869646,-77.230863
31,_1L71xpm5IGm2nrv8LEGkQ,Sharetea ,VA,Falls Church,22044,13.0,4.0,6282 Arlington Blvd,bubbletea coffee juicebars,38.87233,-77.15256
34,Uwc_Zj7pk-bg9UeFKLnXLA,One Tea House,VA,Falls Church,22044,59.0,4.0,6757 Wilson Blvd,bubbletea taiwanese cafes,38.874213693521185,-77.15401070235892
35,Z5Pw4ZE8f56GUmD0MvFkAw,Gong Cha,VA,Falls Church,22044,4.0,5.0,6787 Wilson Blvd,bubbletea coffee juicebars,38.873582705498904,-77.1549624
37,ZCsKFKOHkENHWco1w7XjUw,Moge Tee Rockville,VA,Falls Church,22044,145.0,3.5,6122 Arlington Blvd,bubbletea,38.86998852909431,-77.14547798904233
38,q4forca2s9QNRA3bXRWG5Q,Miso,VA,Annandale,22003,528.0,4.0,7410 Little River Tpke,japanese asianfusion,38.8312502,-77.2003463
40,EV3IZe0X6uMQo10thXRX0g,Kokee tea,VA,Springfield,22150,62.0,3.5,6713 Springfield Mall,bubbletea juicebars coffee,38.7742810937683,-77.1737304326327
41,d3km1kkoqvRRlL8YB6qDSw,Ba Le Friends Bakery,VA,Falls Church,22042,328.0,3.5,2822 Graham Rd,bakeries coffee juicebars,38.8758007012667,-77.192037532016
42,C7Hy45m6xebL42p-hb2NbA,A&J,VA,Annandale,22003,910.0,4.0,4316 Markham St,taiwanese chinese,38.830297,-77.200974
45,JK6WGzNLf9V3sqcQua06Dg,Java Loco,VA,Alexandria,22304,330.0,4.0,289 S Van Dorn St,coffee gelato bubbletea,38.8106186,-77.1324435
47,nuvu967M94ORtElQPw31OQ,Loving Hut,VA,Falls Church,22042,707.0,4.5,2842 Rogers Dr,vegan vietnamese,38.87522,-77.20099
49,IZkYEX_Z27V9LRzINi_nmw,Sisters Thai Mosaic District,VA,Fairfax,22031,971.0,4.0,2985 District Ave,thai,38.8699971762943,-77.2307790443301
0,tiqB0OTT-BcQ-Fa3PBpnOQ,Rice Pot Asian Cuisine,VA,Annandale,22003,329.0,4.0,4709 Backlick Rd,chinese thai asianfusion,38.82161,-77.19079
1,5_Pv05D_LButD9oty8M46w,Cafe L'ami,VA,Burke,22015,10.0,3.5,9550 Burke Rd,cafes bakeries,38.795648,-77.272145
3,wL1TRlsWgXZRnWK58a-bvA,Grove,VA,Vienna,22180,138.0,4.5,2673 C Avenir Pl,poke hawaiian ramen,38.881738613549636,-77.22872801503851
4,NDMjI8mKx2Wv0KbPeHtGGQ,Cameron's Coffee & Chocolates,VA,Fairfax,22031,150.0,4.5,9639 Fairfax Blvd,coffee bakeries chocolate,38.8630883706553,-77.2771135783942
5,SOgfuC0p3H-FiI5E8AZu3A,Gogi Friends,VA,Alexandria,22312,90.0,4.0,6231 Little River Turnpike,korean cocktailbars bbq,38.81676755692453,-77.14246571795321
6,KN3Ti0cCHQ5SyC3qM43uzQ,Smash'D Creamery,VA,Fairfax,22030,271.0,4.5,10427 North St,icecream bubbletea,38.846824,-77.30553
7,S9MDPlFXXcyvhXgWKmikug,Phuoc Loc Bakery,VA,Falls Church,22044,92.0,4.0,6795 Wilson Blvd,bakeries delis juicebars,38.873086,-77.154718
8,YAEyiQjymlDcgqgIsTTP7w,Senberry Bowls,VA,Fairfax,22030,82.0,4.5,10407 Main St,acaibowls coffee juicebars,38.84591,-77.30595
10,tWPzvRYPkInB2vokMCbK8Q,East Wind,VA,Fairfax,22030,429.0,4.5,10414 Main St,vietnamese vegetarian bubbletea,38.8464,-77.30589
11,WLrQluAkSf0UW-HlbZ2OqQ,Banh Mi DC Sandwich,VA,Falls Church,22044,718.0,4.0,3103 Graham Rd,vietnamese delis sandwiches,38.8657569534117,-77.1938049243006
12,ee-Oe0b9kPiMjWxehQQ_Fw,FIREPAN Korean BBQ,VA,Falls Church,22044,349.0,4.0,6793 Wilson Blvd,korean bbq asianfusion,38.8727022,-77.1542487
13,VJc-2sJsLExdnJoW6ZGI2w,iCream Yogurt And Crepe,VA,Falls Church,22044,92.0,3.5,6288A Arlington Blvd,creperies icecream bubbletea,38.8726,-77.15288
14,uXgRi2zqY_NmrwMRoZ80GQ,Balo Kitchen,VA,Annandale,22003,348.0,4.0,4221 John Marr Dr,comfortfood asianfusion,38.83118,-77.1885099
16,te4_ZubMLFBvszq7Gn3ikA,KIRORAN,VA,Fairfax,22030,167.0,3.5,10728 Fairfax Blvd,chinese asianfusion afghani,38.856541,-77.315505
17,kLzD0f8bH7QkfiP89b7tyA,Tanpopo Ramen House,VA,Annandale,22003,386.0,3.5,4316 Markham St,sushi ramen,38.83029,-77.20099
18,Be1i7NBOauyU1ZfuTm3V9g,Java Loco - Falls Church,VA,Falls Church,22043,28.0,4.0,7516 Leesburg Pike,coffee bubbletea breakfast_brunch,38.9044547,-77.2039047
19,0QL2a1yQlwzDjwvzXqNKKQ,Ben Gongs Tea,VA,Fairfax,22030,3.0,5.0,10760 Fairfax Blvd,bubbletea,38.8553288,-77.3158176
20,dSKvHIkc1SEn9-mxzkYaDw,Honey Pig Gooldaegee Korean Grill,VA,Annandale,22003,1680.0,3.5,7220 Columbia Pike,korean,38.831818,-77.194086
21,M1jM4kiwfiMmWVZENkkELg,Poké it Up,VA,Arlington,22203,82.0,4.5,4401 Fairfax Dr,hawaiian poke,38.88249,-77.11433
22,cxqdIQC4xX3yZNCv-7LHkA,H Mart - Burke,VA,Burke,22015,62.0,4.0,9550 Burke Rd.,grocery korean food_court,38.79562,-77.272152
23,kCbwMyD3JscFf5TF-kustg,Love: Juice Drink Bites,VA,Fairfax,22030,23.0,4.0,10394 Willard Way,coffee bubbletea juicebars,38.8487204,-77.3043609
24,zn-QBsaWMzuDTtVB6kvZ_A,Hot Spot,VA,Fairfax,22031,1185.0,4.0,3232 Old Pickett Rd,asianfusion chinese hotpot,38.863417,-77.274047
25,q-mWEMrXtJiizlhTOL2QMg,Lee's Sandwiches,VA,Falls Church,22042,318.0,3.0,3037 Annandale Rd,vietnamese sandwiches coffee,38.867496,-77.174134
26,m2Q1qbD3pu_vGLhBAC8hiw,Pho Viet Flare,VA,Alexandria,22304,337.0,4.0,514 S Van Dorn St,vietnamese bubbletea,38.80592,-77.13298
27,NDF2Hz18IkdtM9N_TF7EKQ,Pho Duong,VA,Fairfax,22031,213.0,4.0,9412 Main St,vietnamese,38.8415506325451,-77.270410042289
28,ohBhwFVlJOP54Frr7b1UVA,Pho Hot,VA,Annandale,22003,291.0,3.5,7442 Little River Tpke,vietnamese noodles soup,38.83249,-77.20262
29,SAhVZNr1BPRL7etO88oXkw,Pho Cong Ly Noodle & Grill,VA,Annandale,22003,229.0,3.5,6920-I Braddock Rd,vietnamese noodles,38.812828,-77.18395
30,OMpFTxuUZIPl2-kPt8uq-g,Pho Cyclo Vietnamese,VA,Falls Church,22042,392.0,4.0,8102 Arlington Blvd,vietnamese,38.8667890635139,-77.2118137951402
31,DSq6JVH0ttByY7lp1d08Hg,Pokeworks,VA,Annandale,22003,348.0,4.0,4221 John Marr Dr,poke salad sushi,38.8314811,-77.1884586
32,Ze5bYVUvivdy7hWxBeTcQQ,Pho Sate,VA,Falls Church,22042,803.0,4.0,2814 Graham Rd,vietnamese,38.87619,-77.19204
33,po0em9SD6Fd9K-F-O_QFSA,Pho Anh Duong,VA,Annandale,22003,107.0,3.5,7899 Heritage Dr,vietnamese sandwiches,38.8262028664744,-77.2136752087372
34,hz5gq1p4n4SenMWfEOFSMA,Pho Factory,VA,Alexandria,22312,463.0,4.5,6237 Little River Tpke,vietnamese,38.8164050820035,-77.1429807535812
35,hwO-SsDg-NhWbKuLfRf1mw,Pho Kim,VA,Alexandria,22310,82.0,3.0,6050-C Rose Hill Dr,vietnamese bubbletea soup,38.785829,-77.122319
36,6lH8NjtHcCSB_9Q_Uf3DKw,Argo Tea,VA,Fairfax,22030,25.0,3.0,4400 University Dr,coffee bubbletea,38.831982,-77.307182
37,Va5ZXtWADLIN1Sw9S-cxLg,Hong Kong Pearl Seafood Restaurant,VA,Falls Church,22044,903.0,3.5,6286 Arlington Blvd,seafood dimsum cantonese,38.87246,-77.15274
38,PEnabJqIht_lQ2o7Br5-uw,Huong Viet Restaurant,VA,Falls Church,22044,1050.0,4.0,6785 Wilson Blvd,vietnamese,38.873661,-77.154969
39,etAXOgfch3G51wt8746pkg,Happy Lamb Hot Pot,VA,Falls Church,22044,403.0,4.0,6799 Wilson Blvd,mongolian hotpot desserts,38.873017,-77.153871
40,6rRA9tT8MNTpGPhMfFTefw,Pho Hai Duong,VA,Annandale,22003,274.0,4.0,4231M Markham St,vietnamese noodles soup,38.8327,-77.19774
41,9fFY2NXPt4ZpXWP_aClcvw,Hong Kong Express,VA,Burke,22015,70.0,3.5,6030-I Burke Commons Rd,chinese,38.7874815613031,-77.2991435229778
42,hpX-SI6Cmw2weQQ7ec-tJQ,Rice Paper,VA,Falls Church,22044,762.0,3.5,6775 Wilson Blvd,vietnamese,38.8727034,-77.1542499
43,jwO94CmA5xeN866qlRsaxg,Rolling Cooking,VA,Springfield,22152,191.0,3.5,6351 Rolling Rd,chinese,38.77855,-77.23174
44,KTpPFjlIjcAL7g72NkWgXw,Pho4ever,VA,Fairfax,22031,216.0,4.5,9966 Main St,vietnamese,38.84414,-77.2908
45,IVaWHzFH8FQHYzYt249qIw,Nhu Lan Sandwich Shop,VA,Falls Church,22044,147.0,4.0,6763 Wilson Blvd,vietnamese sandwiches,38.8727052,-77.1542455
46,s6srGu1SyvUoCHr-5QPnnA,Jasmine Garden,VA,Falls Church,22042,263.0,3.0,8106 Arlington Blvd,chinese japanese asianfusion,38.866773,-77.22564
47,IlxbSXs3aBO1OQs_S_mwag,Saigon Bakery & Deli,VA,Falls Church,22044,40.0,3.5,6773 Wilson Blvd,bakeries desserts sandwiches,38.8738741122962,-77.1549769383758
48,TRrkXjO9r10Sh4Ag6icTXQ,Nha Trang Restaurant,VA,Falls Church,22044,189.0,4.0,6757 Wilson Blvd,vietnamese,38.8742529781527,-77.1541258690183
49,XC5PL8gLoF8A_KKUqnShmA,H Pho,VA,Burke,22015,168.0,3.5,9546 Old Keene Mill Rd,vietnamese soup noodles,38.77863,-77.27389
0,zwk8EqiHyXwclrWujq89hw,Thai Time,VA,Falls Church,22044,23.0,4.5,6613 Wilson Blvd,thai bubbletea poke,38.87375,-77.15139
1,TJ-mzO_uYSCbxCSW2m5P7A,Saigon City,VA,Springfield,22150,200.0,3.0,6333 Brandon Ave,vietnamese,38.78179,-77.18208
2,LKakQj2Gxk8Z63SrkHiOzQ,Cha Kim Phung,VA,Falls Church,22044,88.0,3.5,6771 Wilson Blvd,delis bakeries desserts,38.873605,-77.15508
3,FLe9ti0Z8oc0JW_v33lIJQ,Pho & Grill,VA,Bailey's Crossroads,22041,14.0,3.0,6015 Leesburg Pike,vietnamese,38.8547937093578,-77.1386733002561
4,9aRS4gKH8WStSuenG4dCDQ,Golden Buffet & Grill,VA,Baileys Crossroad,22041,189.0,3.0,3490 S Jefferson St,buffets sushi tradamerican,38.8496671,-77.1180059
5,W_hs8tUbJCldBsn4IvK5tQ,Kim's Pho Kitchen + Bar,VA,Fairfax,22031,221.0,3.5,9675 Fairfax Blvd,vietnamese bars seafood,38.8640598,-77.278264
6,GtiyeTFesrzPDXcYif3b8w,La Moo Creamery,VA,Arlington,22207,129.0,4.0,2501-B N Harrison St,icecream desserts creperies,38.897597,-77.138453
7,noj041Anm7XH-EMEunfJjA,Pho VA,VA,Falls Church,22044,165.0,4.0,6765 Wilson Blvd,vietnamese,38.8740970768441,-77.1548412365235
8,YUheeff0UNbAgaJtZB7Nyw,Peking Pavilion Chinese Restaurant,VA,Arlington,22207,97.0,4.0,2912 N Sycamore St,chinese,38.8994904,-77.1571426
9,2vy0bxECQ2qMFZa35L4ubQ,Huong Binh Bakery & Deli,VA,Falls Church,22044,99.0,3.5,6781 Wilson Blvd,bakeries vietnamese delis,38.8727025,-77.1542521
10,Du0C6QLpAyx-WXf2J7zXmw,Pho 88 Restaurant,VA,Falls Church,22046,201.0,3.5,232 W Broad St,vietnamese,38.88344,-77.17262
11,7FS5Vh8tfVsqDxWSXDAM8Q,Hai Duong,VA,Falls Church,22044,345.0,4.0,6795 Wilson Blvd,vietnamese noodles soup,38.872991,-77.154418
12,UpsiEnD_23n8Cv-VGD0iYA,Pho Thang Long,VA,Fairfax,22031,249.0,3.5,3071 Nutley St,vietnamese,38.869807,-77.261137
13,98YWUde9jGLTEc8sC04UgQ,Banh Mi So 1,VA,Falls Church,22042,140.0,3.5,6799 Wilson Blvd,vietnamese sandwiches,38.873081,-77.153914
14,maUpliFF0kfsnnxYfjfl8A,"PHO, BANH MI&GRILL",VA,Fairfax,22030,404.0,3.5,4290 Chain Bridge Rd,vietnamese,38.838399,-77.312105
5,4dn_yZ9UFkKxefAXn2MDaw,Uncle J's Snowcone,VA,Newington,22122,2.0,5.0,8253A Backlick Rd,foodtrucks shavedice,38.7308935,-77.1887185
12,VK__zhVhAqW0tFMnhD4_Bg,Kona Ice of Annandale and Burke,VA,Lorton,22079,1.0,5.0,7000 Newington rd,shavedice foodtrucks,38.739507,-77.184398
16,YcCEIDXG-VTVrEXaONlJ8Q,Sushi On,VA,Fairfax,22033,628.0,3.0,Fair Oaks Mall,sushi japanese buffets,38.8620002523269,-77.3580599299194
1,T-F_jY5x55fcphFgljC2Yg,One Zo,VA,Fairfax,22030,103.0,4.0,10780 Fairfax Blvd,bubbletea,38.856382,-77.316508
5,P3y4VbBaDYG8I-LMxIdooQ,Sharetea,VA,Fairfax,22030,369.0,4.0,11211 Lee Hwy,bubbletea juicebars coffee,38.850898,-77.333455
16,eoY3g6ouR0nr5vV0zKT0xA,Fairfax Bakery,VA,Fairfax,22030,80.0,4.5,11211 Lee Hwy J,bakeries bagels coffee,38.85058,-77.33347
20,WI8y8dxeRL9POY29aT7s7Q,Donutchew - Fair Oaks Mall,VA,Fairfax,22033,27.0,4.5,11703 Fair Oaks Mall,desserts bubbletea donuts,38.861744,-77.3548484
35,YoAq1a5KHlL9vUIB-74D8w,Dulce Crepes,VA,Fairfax,22030,275.0,4.0,11217F Lee Hwy,breakfast_brunch vegan acaibowls,38.850751478471,-77.3347656056285
41,V1lX7ES8kuq9Uv7rH5A7Bg,Tea Mansion,VA,Fairfax,22033,4.0,5.0,11804U Fair Oaks Mall,coffee bubbletea tea,38.862904,-77.3583615
47,FGmScz_nVLAHkitwdEqaQA,Kokee Tea,VA,Fairfax,22033,56.0,3.5,11750 Fair Oaks Mall,bubbletea,38.862589,-77.359189
3,4Uak4WHEdyI3XNRAm5Yi_Q,Nanjing Bistro,VA,Fairfax,22030,175.0,3.5,11213 Lee Hwy,chinese,38.8512756,-77.3344158
11,fy1XcxOfZTrD6t4QOMRqog,Kokee Tea,VA,Fairfax,22033,12.0,3.5,11950 Fairoaks mall,bubbletea coffee juicebars,38.865642080523,-77.3613454032992
18,GIQ-z63sPcoCBtdqlt91WQ,Viet House,VA,Fairfax,22030,212.0,3.0,11216 Lee Hwy,vietnamese,38.85272802506893,-77.33190628311264
0,_-n6mpnwiiA5lvBEFaC8KA,Mama Rosa's Ice,VA,Woodbridge,22191,10.0,5.0,13618 Jefferson Davis Hwy,streetvendors shavedice mexican,38.6561190036679,-77.2522661620479
1,-09hjXZj3_WkQOw9sly8MQ,New Orleans Style Snow Balls,VA,Dumfries,22026,14.0,4.5,,foodtrucks shavedice shavedsnow,38.566979981900204,-77.32343194007811
2,WPqF-1FZDxpwpRqcyJ3WiQ,Kababayan Filipino Gourmet Food,VA,Woodbridge,22192,137.0,4.0,13352 Minnieville Rd,grocery filipino,38.6590782,-77.3018156
3,Ec8UhxTsd2nbGPVgFAKknQ,Kona Ice,VA,Fredericksburg,22401,2.0,5.0,,shavedice foodtrucks,38.3008232116699,-77.4634017944336
5,vR32GkmfR2OjAsqceocrZw,Mama Rosa’s Ice,VA,Manassas,20111,4.0,5.0,8270 Centreville Rd,shavedice foodtrucks,38.7755306706907,-77.452113968521
6,LwLBButz54Ou-ojsW-hbwg,Iron Ice,VA,Centreville,20121,337.0,4.0,13814-D Braddock Rd,desserts juicebars shavedice,38.83711,-77.42684
7,XK1No2VTSeBjmz3E5KItKQ,Snowie Bus,VA,Manassas,20108,1.0,5.0,,shavedice,38.76296,-77.47987
8,3kM0uODO7h909tGCi_VVGw,Siroo and Juk Story,VA,Centreville,20120,167.0,3.5,13830 Lee Hwy,shavedice coffee korean,38.839603,-77.426063
10,XdEMca3qWxANxf8LUwqmOg,Chateau De Chantilly Cafe,VA,Chantilly,20151,267.0,3.5,13974 Metrotech Dr,bakeries coffee desserts,38.8961202,-77.42698797729817
12,_3W05JOae65DxOqisU7cCw,Sarah's Snowballs,VA,Manassas,20109,3.0,3.5,,shavedice foodtrucks,38.78633,-77.52374
16,Jitqs_KORJsN_tq4ZuCvjQ,Kona Ice of Charles County,MD,National Harbor,20745,3.0,3.5,,desserts icecream,38.7886944,-77.0190228
18,3_NlZY-3ZHJP_zJT6wrCnw,Landon’s Ices & Creams,MD,La Plata,20646,47.0,4.5,505 Charles St,icecream shavedice gelato,38.5289874945462,-76.9751326380691
19,HVDw0WV-tLIhF8mGYNq1vg,Tiki Taco,DC,"Washington, DC",20036,334.0,4.5,2010 P St NW,tacos hawaiian shavedice,38.90939,-77.04541
22,hCgxWRN48ubC-QSnlx3IeA,Matcha Cafe Maiko,VA,Centreville,20121,358.0,4.5,5947 Centreville Crest Ln,desserts cafes icecream,38.83768,-77.43424
23,Rl5vPw3_s6UdLgIG3AcGVg,Blanca's Snow Cones,VA,Arlington,22204,7.0,3.5,4821 Columbia Pike,foodtrucks shavedice,38.8565142,-77.109246
24,wRNGY1ahLb9KWo8F56FqQg,Jireh Bakery Cafe,VA,Centreville,20120,575.0,4.0,13848 Lee Hwy,coffee bakeries breakfast_brunch,38.839218,-77.427215
25,SrO3wDMUwdy3VwZnQ2-1yA,Swirlie's Soft Serve,VA,Manassas,20110,84.0,4.5,9901 Pennsylvania Ave,icecream shavedice,38.739026,-77.523972
28,lmDdFeiGDDuRiGc2eIlBKQ,Who Seek,VA,Chantilly,20151,369.0,4.0,13910 Lee Jackson Memorial Hwy,desserts bubbletea coffee,38.8932721485688,-77.4275039233661
30,ji_mlC_LLeTrdgoyHmIpPw,Malaysian Kopitiam,VA,Centreville,20120,221.0,4.5,5085 Westfields Blvd,indpak chinese malaysian,38.8676977342718,-77.4469969630447
35,jgXx0OYNuWmjymh1IGCawg,Lily Bubble Tea and Smoothie,VA,Arlington,22202,161.0,4.0,251 18th St S,juicebars bubbletea,38.8582383,-77.0510563
36,CIwbPFedU73LF8baA9ZhOA,Merge Cafe,VA,Stafford,22554,42.0,4.5,44 Mine Rd,vietnamese korean sandwiches,38.469895,-77.4168133972808
38,IRvkyb02-veXejLCRHSxrQ,Nathan's Dairy Bar,VA,Manassas,20110,284.0,4.5,8948 Mathis Ave,icecream shavedice,38.7616324572773,-77.4626716251313
40,HQ404fe3ndkAprE00uxWLA,Toki Underground,DC,"Washington, DC",20002,2345.0,4.0,1234 H St NE,ramen,38.9002596732333,-76.9890601862829
41,FVXIdhkDlhFHpby0d2fpQg,Semicolon Cafe,VA,Chantilly,20151,95.0,4.5,13915 Metrotech Dr,sandwiches desserts coffee,38.894972,-77.42514899999999
42,SlY5DI3nWdYnTjw7azNFIg,Ritas of Chantilly,VA,Chantilly,20151,7.0,4.0,4299 Chantilly Shopping Cnt,icecream shavedice desserts,38.886986,-77.4418701
43,xcmJSS6LAGWLWAsVK6LALA,Maketto,DC,"Washington, DC",20002,1083.0,4.0,1351 H St NE,cafes cambodian taiwanese,38.8998718261719,-76.9866714477539
44,wTz5b1FR8Af06LKjf9eTDQ,Daikaya the Izakaya,DC,"Washington, DC",20001,862.0,4.0,705 6th St NW,izakaya,38.8986,-77.0195899
46,BwgndDRDoHcCGwAUhUQ0bA,Nasime Japanese Restaurant,VA,Alexandria,22314,210.0,4.5,1209 King St,japanese,38.8059558,-77.0527915
47,mhAC6aVjmMI1G5UNPk-tfA,Bub and Pop's,DC,"Washington, DC",20036,929.0,4.5,1815 M St NW,sandwiches tradamerican delis,38.906029,-77.042368
0,I1cwajsgXPzfFCsekznsqA,Bar Bao,VA,Arlington,22201,707.0,4.0,3100 N Clarendon Blvd,asianfusion,38.88643,-77.0953
1,yHdtly-icWogBH3vD2ytlg,Ted's Montana Grill - Alexandria,VA,Alexandria,22314,432.0,3.5,2451 Eisenhower Ave,steak burgers tradamerican,38.8016739687058,-77.0718381958241
4,oCqTQZhcgIEDddXkbuG3hg,China Chilcano,DC,"Washington, DC",20004,1324.0,4.0,418 7th St NW,peruvian asianfusion,38.8952905,-77.0220449
6,RlVQcyODytG0XUvv4fZlXg,"Bayou Bakery, Coffee Bar & Eatery",VA,Arlington,22201,893.0,3.5,1515 N Courthouse Rd,bakeries coffee breakfast_brunch,38.891077,-77.083687
7,WqFmeasewrNwQ6uFPM5odg,Shilla Bakery & Cafe - Tysons Corner,VA,McLean,22102,216.0,3.5,1961 Chain Bridge Rd,desserts coffee bakeries,38.9174049114414,-77.2205286473036
9,A-89i7_ipR-QOlg4Z1echQ,Kaliwa,DC,"Washington, DC",20024,662.0,3.0,751 Wharf St SW,filipino thai korean,38.87879245709948,-77.02439501873694
