,id,name,state,city,zip code,review count,rating,address,categories,latitude,longitude
0,_rrnWRKElleTqReJB_2OZg,Angry Tofu Korean Cuisine,CT,Wethersfield,06109,305.0,4.5,1030 Silas Deane Hwy,korean,41.693144,-72.65625
1,ny0v0vDvSu-fpEFkQkB-vw,Vecchitto's Italian Ice,CT,Middletown,06457,60.0,4.5,323 Dekoven Dr,icecream gelato shavedice,41.564167,-72.648944
2,DRXRlZay2m6Mt0GgHq02xg,Sno ‘N Dough,CT,Hartford,06106,11.0,5.0,1400 Park St,desserts restaurants,41.75876874822178,-72.7017798794022
3,wWGUp8TV1XoMgUGVkyTSfw,Vecchitto's Italian Ice,CT,Old Lyme,06371,9.0,5.0,80 Hartford Ave,shavedice italian gelato,41.2851365702948,-72.2776375097861
4,SNMigzSlhorNkmvlSYZ37w,Rita's Italian Ice,CT,New London,06320,17.0,4.0,361 Colman St,desserts icecream shavedice,41.3585560977856,-72.1157839894295
5,BDuWU1iDbky0rPHMwKcZxQ,Rita’s Italian Ice,CT,West Hartford,06110,29.0,4.0,1134 New Britain Ave,desserts shavedice icecream,41.7328531590055,-72.7326634110726
6,Drlm1HFtg8V1g3voM5fm2A,Rita's Italian Ice,CT,Southington,06489,19.0,4.0,279 Queen St,icecream desserts shavedice,41.62444,-72.87287
7,Bzog72H9Kk2cDqt-HM2ShQ,Pho Boston,CT,West Hartford,06110,480.0,4.0,144 Shield St,vietnamese chinese hotpot,41.72806,-72.721479
8,Hd3pBAHxnEkbjtC0bEXG9Q,Max's Oyster Bar,CT,West Hartford,06107,533.0,4.0,964 Farmington Ave,tradamerican seafood bars,41.761855,-72.7428457
9,8vzoo0lxC9Xr480GEHoP7w,Rita's Italian Ice,CT,Farmington,06032,21.0,4.0,358 Scott Swamp Rd,icecream desserts shavedice,41.7022171,-72.8882498
10,ckYxmo9CGrS5VcQVctiUVQ,The Assembly Room,CT,New Britain,06051,12.0,5.0,222 Main St,food_court,41.66704,-72.78283
11,4zKpDRiyqDgDEp7jv88bPw,Rita's Italian Ice,CT,Rocky Hill,06067,24.0,3.5,1783 Silas Deane Hwy,icecream desserts shavedice,41.67712,-72.65168
12,cqSbqOFNSxTsuzGBn6yvXQ,Han Restaurant,CT,Hartford,06106,176.0,4.0,310 Prospect Ave,hotpot szechuan seafood,41.75547,-72.71413
13,xZ7ywxTzcOZW5_r-E2mICA,RaonJena Coffee & Dessert,CT,Glastonbury,06033,117.0,4.5,39 New London Turnpike,coffee bakeries desserts,41.7174,-72.60817
0,ngQm_LCYjCntYP0ZrDJ2TQ,Elite Nutrition,CT,Centerbrook,06409,1.0,5.0,33 Main St,juicebars bubbletea,41.352076349815334,-72.4121755
1,40fB0dk8Ea2VTr-ojqSH9Q,Loose Leaf Boba - Wallingford,CT,Wallingford,06492,20.0,4.5,1094 N Colony St,bubbletea coffee,41.46309,-72.82045
2,mGf8jSOkzV7uTUXQiyRDtQ,Tea Break,CT,West Hartford,06107,183.0,4.5,994 Farmington Ave,bubbletea,41.7612342665073,-72.7455790485646
3,7m80ojrRe9WZ1cM-Zy-_Ug,Hachi,CT,Middletown,06457,153.0,4.5,320 Main St,japanese bubbletea sushi,41.5608268136329,-72.6498704625744
4,NXXl2N-sFqr9655RPQlpqw,Steamed,CT,Madison,06443,136.0,4.5,670 Boston Post Rd,dimsum,41.27905,-72.59673
5,pbSAw_WXJrajoRJTLy02lw,Mei Tea,CT,Plainville,06062,69.0,4.5,79 E St,bubbletea juicebars cafes,41.6688436623106,-72.8616031124656
6,qMFCb6XRYAFfnK03dfJW6g,Okinawa Boba,CT,Hartford,06106,20.0,4.0,1400 Park St,bubbletea,41.758673,-72.701851
7,cpKrjMw37lvWh0VjMBlBaw,Steamed,CT,Middletown,06457,59.0,3.5,68 Washington St,dimsum bubbletea noodles,41.56268,-72.65029
8,rmLHSY4_qo68OQ2Ds548zQ,Pho & Grill,CT,Cromwell,06416,46.0,4.5,200 W St,vietnamese noodles sandwiches,41.602863,-72.67964
9,pl0i87Hc76WPk5VJhr8K5g,Kiwi Spoon,CT,Rocky Hill,06067,34.0,4.5,397 Cromwell Ave,icecream juicebars acaibowls,41.6589579,-72.6791029
10,oV78Z1nbXDlQjB7D9b8wBQ,Seven Moons,CT,Berlin,06037,45.0,4.5,1128 Farmington Ave,thai,41.629328,-72.7582429
12,M3DDVbuyK4ECUDtD3KebTA,Sweet Harmony Cafe & Bakery,CT,Middletown,06457,225.0,4.5,330 Main St,bakeries coffee breakfast_brunch,41.560959,-72.6498851
13,GkpNzvar5j3BDQSF5blpGQ,Daddy’s Noodle Bar,CT,East Lyme,06333,64.0,3.5,295 Flanders Rd,ramen noodles asianfusion,41.36254,-72.209
14,8Pl0eCNSbBv7N8nzwqmANA,The Pho Bar,CT,Berlin,06037,54.0,4.5,224 Berlin Turnpike,vietnamese,41.643759,-72.732605
15,FZJ0sDNoczkDccq6DjSd8w,Yummy Poke,CT,Hamden,06518,14.0,4.5,2472 Whitney Ave,sushi bubbletea poke,41.38706,-72.90082
16,EYa93AAIvOmB_PHwxvhPCw,Pho 170,CT,Middletown,06457,80.0,4.0,170 Main St,vietnamese thai,41.5590406,-72.6485902
17,l1eTggVqV0hdo8sOk9MDCg,The Kiwi Spoon,CT,Wallingford,06492,19.0,3.5,956 N Colony Rd,desserts icecream,41.4871893078089,-72.8095883131027
18,q-iJvgLibCw0GlHLpXBzVA,Kaliubon Ramen,CT,Wethersfield,06109,335.0,4.5,1323 Silas Deane Hwy,ramen poke bubbletea,41.68454,-72.65564
19,noXqUgTf1j5jzXal6WtDHw,The Green Teahouse,CT,Farmington,06032,21.0,4.0,500 W Farms Mall,bubbletea tea juicebars,41.7184215,-72.7634745
20,437Ja7T1kNtAZVSo5WBMWQ,Roishi,CT,Hamden,06518,6.0,4.5,2308 Whitney Ave,ramen sushi bubbletea,41.38168,-72.90299
21,J1tgeekTK8vfe4jAxq8BtA,Land of Thai,CT,Clinton,06413,28.0,4.5,350 E Main St,thai,41.27340620164438,-72.48723334784992
22,mv1ywmeZb0IGTMdfbGPY2g,Vietnoms Cafe,CT,Guilford,06437,43.0,4.5,33 Water St,vietnamese desserts sandwiches,41.28094,-72.68328
23,FgfSXGhh3j3m6uura0ET8A,Typhoon,CT,Middletown,06457,164.0,4.0,360 Main St,thai,41.5612787,-72.6500914
24,U_dtvHAzHmQK-BbGD8ePWA,IThai Restaurant,CT,Guilford,06437,79.0,4.0,1200 Boston Post Rd,thai,41.2877111,-72.6898214
25,hB9PFwKqtj-5KYKlt9oEkw,YoYo Ice Cream,CT,New Britain,06051,27.0,4.5,159 Main St,icecream juicebars,41.666045,-72.781492
26,KsuUrAgLC_OshGrwjByWTA,Wok Express,CT,Waterford,06385,8.0,3.0,850 Hartford Tpke,chinese,41.374118,-72.144805
27,4z5dKnwK-L3itIy09ffLpw,Main Street Caffe,CT,Cheshire,06410,67.0,4.0,209 W Main St,coffee,41.504178245429785,-72.9046766383872
28,-5TxhYEdTp4ec27QeYUTEg,Siam Orchids Restaurant,CT,Branford,06405,67.0,4.0,899 W Main St,thai,41.2758562,-72.8354065
29,bP2ShOFbrZnTD1gcxsvrug,Jasmine Thai Restaurant & Sushi Bar,CT,New London,06320,157.0,3.0,470 Bank St,thai sushi soup,41.34995,-72.10043
30,y4pG3J-5quyPWBocp-DkDQ,Maruichi Japanese Food & Deli,CT,West Hartford,06107,115.0,4.5,37 Raymond Rd,japanese intlgrocery delis,41.7611849086677,-72.7396051292238
31,usG7DrKwHmI8Vo4C9Ca33A,Sweet Mango,CT,Southington,06489,276.0,4.0,692 West St,japanese thai,41.60736,-72.89923
32,-x5ImPRqf4NlU_JnzT4eBQ,South Side Thai Restaurant,CT,Wallingford,06492,202.0,4.5,628 S Colony Rd,thai salad soup,41.441673802301985,-72.83110777584385
33,szGLCs3mogrRrqJNQLdszQ,Kob Jai Pho & Thai Restaurant,CT,Rocky Hill,06067,152.0,4.5,1845 Silas Deane Hwy,thai,41.67591,-72.65029
34,ht3Lsz5YNCgkcss8rdy8PQ,Moonlight Sushi Bar and Grill,CT,Middletown,06457,110.0,3.5,130 Main St,japanese asianfusion sushi,41.5585888,-72.6482903
35,GCat_irEzlr7gVNjz6jNRg,Cheshire Coffee,CT,Cheshire,06410,119.0,4.0,210 Old Towne Rd,coffee desserts juicebars,41.496066785677,-72.902216233263
36,Q7U62G-haDuaopqKPfHEJw,Funju Noodle Bar,CT,Wallingford,06492,106.0,4.0,20 Ives Rd,noodles vietnamese ramen,41.48136,-72.80865
37,G_9ju47o51T95PyU-xTFLQ,Spice Club,CT,Niantic,06357,238.0,3.5,239 Main St,thai sushi japanese,41.3240672,-72.1930194
38,7_Edg2GqZ0syIFyg9jGlAw,Masago Sushi 35,CT,Southington,06489,12.0,5.0,29 N Main St,japanese sushi,41.602315475796225,-72.87795609999999
39,HD0Y4-DR3QQx4GgbJBj3sg,Som Siam Thai Cuisine,CT,Branford,06405,52.0,3.5,1209 Main St,thai,41.2839482724667,-72.8098209947348
40,ifggBmNhsQFrnybeHJuwpQ,The Asian Invasion,CT,Meriden,06450,25.0,3.5,1371 E Main St,korean thai filipino,41.5252984042811,-72.7569191157818
41,duarQ2KtRKC8y5asKmDIzQ,Uncle Jacks Thai Restaurant,CT,Southington,06479,62.0,4.5,13 W Main St,thai,41.58752,-72.89076
42,HZG2SYaoOI6hU5UB7joExw,Roodle Rice & Noodle Bar,CT,Wallingford,06492,184.0,4.0,1263 S Broad St,noodles asianfusion,41.5062417089939,-72.8098739683628
43,nIKJ7SJwq_yOKFqHDKD88Q,Hot Pot,CT,Wallingford,06492,44.0,3.5,970 N Colony Rd,chinese hotpot bubbletea,41.487512,-72.809234
44,ZLc4CTRDQCAEDsa6lmqn-Q,Mama Khang,CT,Farmington,06032,13.0,3.5,979 Farmington Ave,chinese,41.732691,-72.834337
45,tww8V_43uoS9LnY5AxFFLg,Pho Zaaap,CT,East Haven,06513,123.0,4.5,913 Foxon Rd,thai noodles vietnamese,41.32134,-72.86347
47,C4SrRzbiUps4UZtzWhOigg,Tisumi Japanese Restaurant,CT,Glastonbury,06033,149.0,4.0,2850 Main St,japanese sushi,41.721055,-72.613706
48,DUr-fWgYFfAv9CvPzrXa8g,Pho Viet,CT,Newington,06111,140.0,4.5,36B Fenn Rd,vietnamese,41.6973868,-72.7565755
49,6ejQwDHccqPAxa49aoOdQw,Wild Orchid,CT,Southington,06489,110.0,4.0,56 Center St,sushi thai japanese,41.601628,-72.87954
0,D1MglKCiHD0Na7QGZp970w,Kaliubon Ramen,CT,West Hartford,06107,58.0,4.5,54 Memorial Rd,bubbletea poke ramen,41.760028,-72.739531
1,8dr1t56VIC8KKuIfMVxITQ,Thai Farms Restaurant,CT,Hartford,06106,67.0,4.0,104 Jefferson St,thai seafood,41.755576,-72.680405
2,9zuL8ZJeHEQ0LDVWqYG2dQ,Hartford Poke Company,CT,Hartford,06106,17.0,4.5,1400 Park St,poke hawaiian,41.758673,-72.701851
3,Hbuh6Xy-2F-SW-A6HgkcJQ,Pho & Spice,CT,Cheshire,06410,78.0,4.0,7 S Main St,vietnamese thai asianfusion,41.498811,-72.9017006
4,gvyglSvpOqM3tO6BC8eP4A,Kien Company,CT,Hartford,06106,22.0,4.0,1801 Park St,grocery vietnamese,41.7566754,-72.7085408
5,tkqUvbv_rjEB7FplHN-rvw,Pho 135,CT,West Hartford,06107,113.0,4.5,135 S Main St,vietnamese soup,41.7526565765257,-72.744064964354
7,GmQH0g_yO5ErE6vGcpK-Jw,Ichiban Express & Poke Bowl,CT,New Britain,06053,76.0,4.0,1460 East St,poke bubbletea japanese,41.6923718,-72.7598043
8,bsTIpsTkXgULCHRcll1UVw,Shu Restaurant,CT,West Hartford,06110,335.0,4.0,156 Shield St,szechuan,41.7281249,-72.722027
9,FYgG2LHqtoo5c8Xdu9m3SA,Mecha Noodle Bar,CT,West Hartford,06107,104.0,4.5,975 Farmington Ave,wine_bars ramen cocktailbars,41.761186,-72.743557
10,K-Oj81DMwdUhB_ublG3y3Q,The Blue Elephant Trail,CT,West Hartford,06107,291.0,4.0,7 S Main St,thai,41.761383,-72.742549
11,pDF9Hr1wNw8lQFTGO6tXYw,VN Pho,CT,Hartford,06106,32.0,4.5,59 Overlook Ter,vietnamese bubbletea bbq,41.740375,-72.711625
12,qwQ1UnWPHrbRmJtslo4WCQ,Hot Basil Thai Cafe,CT,West Hartford,06127,107.0,3.5,565 New Park Ave,thai,41.7362600593125,-72.7220818180354
13,LK7NwIgK_jM2_SnOZEx8Jw,Fujiya Ramen,CT,Middletown,06457,142.0,3.5,425 Main St,ramen,41.56198918327587,-72.6511265
14,EH4ILncln7zOnzbIdW2JDA,Pho 68,CT,West Hartford,06110,79.0,3.5,589 New Park Ave,vietnamese,41.7348,-72.72335
15,WcmyYkCCL03dnCnrHRBMCw,Rice Pot Thai Cuisine,CT,New Haven,06520,239.0,4.0,1027 State St,thai,41.316370452606,-72.9083021276726
15,dZlKCgiAAA1PkQ_MRbJ2mA,Phantasia Restaurant,CT,Groton,06340,164.0,4.0,959 Poquonnock Rd,chinese vietnamese,41.3454371388246,-72.0500749656153
9,rZO-_EoGnvHmzyrrxX43bg,Loose Leaf Boba Co,CT,New Haven,06510,51.0,4.0,46 High St,bubbletea coffee,41.307788407403386,-72.9306239411045
10,KIyhPezA-V4RZyqCgd2z_g,The Whale Tea,CT,New Haven,06510,75.0,4.0,48 Whitney Ave,bubbletea,41.31196,-72.92233
12,F5c9hWyI0_Bwdbh_i9p_0Q,Bite & Tea,CT,Bristol,06010,43.0,4.5,123 Farmington Ave,asianfusion bubbletea taiwanese,41.685548,-72.938834
14,ZSQMzL0RZrsSHd8UrSTODw,Vivi Bubble Tea,CT,New Haven,06510,140.0,3.5,940 Chapel St,bubbletea icecream poke,41.306626,-72.927499
17,8Vose62h-SAOC62RvKi1JQ,T-Swirl Crêpe,CT,New Haven,06510,128.0,4.5,200 College St,desserts creperies bubbletea,41.3057723,-72.9300197
22,AJ9NSJWe3h3kZ0LwkmAfyA,Cheshire Coffee,CT,Waterbury,06705,74.0,4.5,3670 E Main St,coffee,41.5434973,-72.9663765
28,uUuw2Dk-1BBgBqVfdFzMtA,Pho House,CT,East  Hartford,06118,36.0,4.5,834 Silver Ln,vietnamese,41.76528833,-72.60624667
37,D4SuojNOsYvRS9gm795fXQ,Teriyaki Box,CT,Manchester,06040,39.0,4.0,836 Main St,japanese sushi asianfusion,41.77093190340186,-72.52116763643734
38,1g_3Ei9_270WmKiR2wJyqw,Crab Town,CT,Hamden,06514,13.0,4.5,2380 Dixwell Ave,seafood,41.37733364571483,-72.91669393173652
46,b_fq0s9NjXmEnTJ7jZuNjA,Thai Palace,CT,Wolcott,06716,96.0,4.5,1387 Meriden Rd,thai,41.554253,-72.973232
48,q5SYAq-3NskK1_redSyZvA,Sunberry Cafe & Catering,CT,Hartford,06103,66.0,3.5,65 Pratt St,cafes bubbletea juicebars,41.7676165,-72.6744397
0,EnkTCl8fYlyO1SrpZZdTXg,Ten Seconds Yunnan Rice Noodle,CT,New Haven,06510,25.0,4.5,756 Chapel St,noodles asianfusion chinese,41.30492,-72.92334
1,v25HnKekT75qj8K4qJRxSA,Thai Smile,CT,Hamden,06514,147.0,4.0,1505 Dixwell Ave,thai,41.3537752,-72.9297004
12,Edw0Y6aM8bSbZCOtfkL8_g,Banh Meee,CT,Hartford,06106,108.0,4.5,126 Ann Uccello St,vietnamese bubbletea noodles,41.767132,-72.6779423
16,fZQe1LHLBkiQFQ07SqZ-OA,Banh Meee Downtown,CT,Hartford,06103,7.0,4.5,126 Ann Uccello St,vietnamese bubbletea noodles,41.76704,-72.67792
18,YzFOUdiqUuyhgwLnmQIicQ,Mecha Noodle Bar,CT,New Haven,06511,676.0,4.0,201 Crown St,noodles bars ramen,41.3055220705691,-72.9285871106054
21,DjV-CoqUoul8IatvhTv05g,Koon Thai Restaurant,CT,New Haven,06510,144.0,4.0,163 Temple St,thai,41.3063063,-72.9269946
22,u_BgB50Rr0QcpI4Ga2buFQ,Thai Noodle House ,CT,New Haven,06515,74.0,4.5,132 Amity Rd,thai noodles,41.337185,-72.98261
25,hguXGkzqcYVU3IOHx6OwTQ,Sri Thai Restaurant,CT,West Haven,06516,15.0,4.5,315 York St,thai asianfusion,41.274412,-72.964652
26,3chIS-Ltm3vWkQlcCFtYxg,Pho Ketkeo,CT,New Haven,06510,155.0,4.0,21 Temple St,laotian thai,41.304563,-72.928285
27,zkPwtry_sJTLbgs1NlvSMw,Basil Restaurant,CT,New Haven,06511,232.0,4.0,142 Howe St,asianfusion bubbletea thai,41.31274,-72.9332699
28,dHq29uzUsGHhbGgDbMHw6g,Ivy Wok,CT,New Haven,06511,92.0,3.0,316 Elm St,chinese,41.3111557396573,-72.931581202567
32,Rgy-XABTYfrZ2Ee3Du1QyA,York Street Noodle House,CT,New Haven,06511,340.0,3.5,166 York St,noodles,41.30811,-72.93225
33,Q2EhDmbQtPU-Q6oyofDGsQ,Lemongrass Asian Grill,CT,Burlington,06013,76.0,4.5,232 Spielman Hwy,vietnamese thai chinese,41.7703977325777,-72.960387468338
35,3DKxgNOiUhQBgPmvJllDWw,Pho Thai,CT,New Haven,06510,178.0,3.5,76 Orange St,vietnamese thai soup,41.3045786087294,-72.9250928189174
36,givWW10UhGf-oVCoM2gDug,Woodland Coffee & Tea,CT,New Haven,06510,17.0,2.0,1044 Chapel St,coffee,41.307588,-72.929802
39,8v6xxWCpNOv7bEsNRQSNqw,Hunan House,CT,New Haven,06510,97.0,3.5,32 Orange St,szechuan shanghainese,41.3037885534938,-72.9254932624667
0,GyQv6JzoSa-MakTvq771Sg,Shaka Shave Ice,NY,Southold,11971,1.0,5.0,41150 County Rd 48,foodstands shavedice,41.064182,-72.442916
4,1BWXBeGHT1lemUW9LUOKQQ,Ralph's Famous Italian Ices,NY,Greenport,11944,27.0,3.0,34 Front St,shavedice icecream,41.102112,-72.359926
5,CmmH4Ow8Xt903pInoHdyjQ,The North Fork Shack,NY,Southold,11971,97.0,4.0,41150 County Rd 48,burgers sandwiches bars,41.06422,-72.44298
9,ROavxnL6wOQoDpqdTiRxww,Yogurt Lane,CT,Waterbury,06706,1.0,5.0,495 Union St,bubbletea juicebars icecream,41.549202,-73.025122
41,ev9UX_eaiQpO-ZQPFWauSw,Noodle House,CT,Orange,06477,107.0,3.0,514 Boston Post Rd,ramen noodles,41.2543635677716,-73.0161817744374
45,dNvAHmyd8X7qYywh-YIGNw,Thai Spice,CT,Orange,06477,199.0,4.5,153 Boston Post Rd,thai soup seafood,41.27337,-72.99391
8,iUKlEhncMiMOY-Vb4OZI5A,Rita's Italian Ice,CT,South Windsor,06074,11.0,3.0,1735 Ellington Rd,icecream desserts shavedice,41.8258738611083,-72.5561619673891
3,heVquPRiCj_aDigsVnDvnA,Rita's Italian Ice,CT,Vernon,06066,16.0,4.5,378 Kelly Rd,desserts shavedice icecream,41.824836400285,-72.4997796469516
1,Hh1jSITkXIwUEnG5BnPN3g,The Whale Tea,CT,Storrs,06268,3.0,5.0,40 Wilbur Cross Way,bubbletea tea,41.804044572594016,-72.24101465564978
2,uz-B385i7Gq5U3zY2-QGWQ,360 Juteuse Fruit Bar,CT,Manchester,06040,3.0,4.5,360 Main St,juicebars bubbletea,41.78096846761373,-72.52231802791356
5,1BHNcEezAQ_1Ae6G_Rcqyg,PhoGo of Avon,CT,Avon,06001,2.0,5.0,41 E Main St,vietnamese bubbletea salad,41.80806,-72.82681
13,W5mQN-GLjiBc2c4AgIOyYg,Tea More Cafe,CT,Storrs,06268,17.0,3.5,40 Wilbur Cross Way,bubbletea cafes,41.8043770025451,-72.2417686853236
18,oPwNFFf_pBiPTszdETr6ig,40 West Cafe,CT,Vernon,06066,54.0,4.5,40 West St,sushi japanese korean,41.867591,-72.465325
20,n1gOG66sBI5Y3Cc9_ZAYgg,PhoLy,CT,Vernon,06066,143.0,4.5,352 Hartford Tpke,vietnamese,41.82743,-72.486725
21,wcCq5hzy0Xys9HhfhrqYTA,Pho 99,CT,Manchester,06040,64.0,3.5,242 Broad St,vietnamese noodles bubbletea,41.7809869686856,-72.5353207066655
26,L-Ck5kBuF12AcdQInWblbg,Somewhere in Bangkok,CT,Avon,06001,6.0,4.0,136 Simsbury Rd,thai,41.81926,-72.82941
30,6_hSH61Mb_t1gMMDXLNIag,Jao Praya Thai Cuisine,CT,Bolton,06043,106.0,4.0,299 Boston Tnpk,thai,41.78528,-72.45762
34,a7ZbBCf-M39drGknuKiIAw,EatJoy,CT,Storrs,06268,22.0,3.0,1 Royce Cir,poke bubbletea asianfusion,41.80437717889254,-72.2427122417854
35,gPe0nMLpcPCaYOsUgAyKog,BouNom Café & Bakery,CT,Avon,06001,79.0,4.5,136 Simsbury Rd,coffee bakeries breakfast_brunch,41.81860131876746,-72.82777670902375
36,IOOxRch0O4onoje8vJaHmA,Pho 75,CT,Windsor Locks,06096,346.0,3.5,209 Ella Grasso Tpke,vietnamese,41.9289248161075,-72.6698180259079
37,Y6BXOHOhz-fh6bWphSKk9w,Pho House,CT,Avon,06001,49.0,4.0,51 E Main St,vietnamese soup,41.807270118,-72.8272015367
40,bNckM3CJ3zqyKwIbgTxHbw,Siam Corner Thai Kitchen & Pho,CT,Windsor,06095,63.0,4.5,199 Broad St,thai salad soup,41.8520598940856,-72.6440135389566
47,0k5VGPk0IMqV6N2xvBnM7A,Pho Van,CT,Windsor,06095,85.0,4.5,1001 Day Hill Rd,vietnamese,41.87673,-72.7038516
48,I-95v99xaTBGdqyLfBjcFQ,The Elephant Trail,CT,Avon,06001,155.0,4.0,85 E Main St,thai,41.806734,-72.823917
49,AUqdg4qwdppKnxu7Ll4CIw,Windsor Asian Bistro,CT,Windsor,06095,197.0,4.5,700 Poquonock Ave,chinese asianfusion sushi,41.872979,-72.660183
0,mmJ-g_2NwLYtZmF7OXIwOw,Izumi Japanese Steak House & Sushi Bar,CT,Windsor Locks,06096,179.0,4.0,25 Ella Grasso Tpke,japanese sushi lounges,41.9181807,-72.6724645
0,AtDlsT-bEIBL2KXtPpin7w,Rita's Italian Ice,CT,Bridgeport,06610,16.0,3.5,1055 Huntington Turnpike,icecream desserts shavedice,41.22233,-73.16886
1,GThdh1MY-JGWIRYwwR5jWA,Kawa Ni,CT,Westport,06880,248.0,4.5,19A Bridge Square,asianfusion bars japanese,41.122119,-73.369729
2,fhMQRppzjUMi8S6TzfCO-A,Maui Chop House,NY,Rocky Point,11778,83.0,4.0,49 Rte 25A,hawaiian steak cocktailbars,40.94567,-72.960803
3,u_2hxQtNusF07MsxFRcsYw,Match Restaurant,CT,Norwalk,06854,276.0,4.0,98 Washington St,newamerican,41.09875,-73.41777
4,4qIm7y6kLZhchM_s1XkrWA,Saigon Casa,NY,Port Jefferson Station,11776,204.0,4.0,4747 Nesconset Hwy,vietnamese,40.916388,-73.053632
0,P2QljZc3zT9DNurAuasv-w,Ice and Fire Ice Cream,CT,Milford,06460,26.0,4.0,1201 Boston Post Rd,juicebars bubbletea icecream,41.2342257727087,-73.0380384312701
1,0fgDkz5kVWsLkuuPZCmIrA,The Whale Tea,CT,Milford,06460,7.0,4.0,165 Cherry St,bubbletea,41.22764278525877,-73.04906444074962
2,vt9RlRfQIBQhA-gmL4cxAQ,Natural Kitchen,CT,Milford,06460,7.0,5.0,107 River St,icecream bubbletea poke,41.22514,-73.057
3,dugn2antFWKBhhAMimO8_A,Frosty Twist,CT,Milford,06460,42.0,3.0,22 S Broad St,icecream coffee,41.2219985887692,-73.0570619705898
4,TJ44oCcuJkUrdI-0qq6FRA,Taste of Thai,CT,Milford,06460,114.0,4.0,22-24 Broad St,thai,41.221713,-73.056455
5,Ntg-Lchs85344miXxJqtbQ,Natural Kitchen,CT,Milford,06460,1.0,5.0,107 River St,hawaiian bubbletea,41.22514,-73.057
7,KxRlmECBE9LDzSsuEauFHA,TD Vietnam Palace,CT,Stratford,06615,72.0,4.0,2505 Main St,vietnamese,41.1949524336332,-73.132599343586
8,fVGKQcPrdFj3GywDV7SytQ,Dao Fusion Cuisine & Lounge,CT,Stratford,06614,139.0,3.5,7365 Main St,asianfusion sushi ramen,41.253932,-73.100743
10,TG_TeLbYh6wEEMAzptTi7w,Main Hing Buffet,CT,Stratford,06614,30.0,3.5,7365 Main St,chinese,41.2540537869166,-73.1013279215653
12,rgYdakkNom3BsiwA3aw_MA,Panda Pavilion,CT,Stratford,06615,1.0,1.0,60 Access Rd,chinese,41.17139033,-73.128187
3,dzwa-zvkW6L2ZUGyNGrmuA,Sweetory,NY,Jackson Heights,11372,90.0,4.5,71-28 Roosevelt,desserts,40.74635,-73.89383
5,X23tWTL2F3dVTo7RW373ag,Cafe Auburndale,NY,Flushing,11358,212.0,4.0,192-10 Northern Blvd,coffee desserts sandwiches,40.7576076,-73.7890946
6,hre6ViIFlo74cFha5bptdg,Pelican’s SnoBalls - Valley Stream,NY,Valley Stream,11580,12.0,5.0,254 Rockaway Pkwy,shavedice,40.673167,-73.694312
7,wCiHa1cJ2p_8kWt-j7QCDA,Coffee Monster,NY,Flushing,11358,133.0,3.5,41-12 162nd St,desserts coffee shavedice,40.76101,-73.80417
9,-JXnU5QdCHBc6oPHXKwz_w,Yedang,NY,Bayside,11361,63.0,3.5,210-03 Northern Blvd,cafes desserts,40.7595661239056,-73.7727699056268
10,TGB9AaWOtNEV7p6HykPzPQ,Tous Les Jours,NY,Hartsdale,10530,38.0,4.0,371 N Central Ave,bakeries coffee desserts,41.0298075015468,-73.790240995699
11,_yVOkHhsj8bOKfra5aQLIQ,Coffee Story,NY,Flushing,11354,16.0,5.0,152-22 Northern Blvd,coffee bubbletea desserts,40.764700604740355,-73.8121653
12,roSAq0cm47C3eqDqrSq9ow,Cafe 1 Of A Kind,NY,Great Neck,11362,802.0,4.5,255-13 Northern Blvd,coffee breakfast_brunch,40.77253,-73.73454
13,SSFLeA5QdUqaj_RODhOrAQ,Bubble Hut,NY,Bellmore,11710,140.0,4.0,2026 N Jerusalem Rd,bubbletea sushi ramen,40.7010745,-73.5515274
14,qR2WY9-eAxZpHFCK6ck3vw,Snow Show,NY,Flushing,11355,64.0,3.5,133-33 41st Ave,shavedice desserts shavedsnow,40.7576245267984,-73.8308786188926
15,EYkvESc4roP_iORKt-WWZQ,BAMBU,NY,Stony Brook,11790,245.0,4.5,2350 Nesconset Hwy,bubbletea juicebars vietnamese,40.8759,-73.12049
16,h-ULtMDeM-4psdx6UlL5Ng,Flower and Dessert 次第花开,NY,Flushing,11354,56.0,4.0,133-40 37th Ave,desserts chinese,40.76048,-73.83345
17,yJD5fQRU8WySgvE9U_wd7Q,Cafe Terrace,NY,Bayside,11361,97.0,4.0,208-17 Northern Blvd,cafes,40.75905,-73.77505
18,2DfawU7cXM2Dmes2SRHWGA,Hapag Filipino Cuisine,NY,Yonkers,10710,107.0,4.0,1789 Central Park Ave,filipino,40.961357,-73.842014
19,PSvmKoXb8vpLgh-LbcEvXQ,GREY Cafe,NY,Flushing,11358,152.0,4.5,195-19 Northern Blvd,cafes coffee sandwiches,40.758187,-73.7860161
20,UHLQ0S5ndP1JIkEjziZzQg,Hana Soya,NY,Flushing,11355,8.0,4.5,41-19 Kissena Blvd,desserts,40.75821,-73.82876
21,Keo41lSMGSfoe9GMjkJ5Zw,Coffee Factory,NY,Flushing,11354,266.0,4.0,40-18 150th St,desserts coffee,40.763194039464,-73.8142673671246
23,qq27O2FIvXfhyzT2jSVgUA,Nana's Ice Cream & Coffee House,NY,Westbury,11590,193.0,4.5,225 Post Ave,icecream cafes desserts,40.7566003489503,-73.5880216956139
24,xUMKhSMaFjDgugv4x_RpnQ,The Lemon Ice King,NY,Valley Stream,11580,21.0,4.5,128 Rockaway Ave,shavedice,40.66272,-73.69922
25,amsqC-C-_WTU1L87XLL-UQ,UNICORN GLOW,NY,Flushing,11354,47.0,4.5,141-47 Northern Blvd,coffee breakfast_brunch,40.7647386302136,-73.8240568509854
26,pGmajCOmf0EY1nSYy8Rz0A,Kabayan Grill,NY,Ronkonkoma,11738,9.0,3.0,1075 Portion Rd,foodtrucks filipino,40.8356113951858,-73.0644015906042
28,RdW058VsL1ouk9z5qVspiw,Ralph's Famous Italian Ices & Ice Cream,NY,Yonkers,10710,40.0,3.5,2353 Central Park Ave,shavedice icecream,40.9789784363249,-73.8306178918062
29,XBqUX8iJl_NRJQz0xHyRyg,Coffee Monster - Whitestone,NY,Whitestone,11357,53.0,4.5,22-30 154th St,cafes,40.7779352,-73.8093158
30,g3wrmpOkQ2mz4WZryOSF2A,Ralph's Italian Ices,NY,Oceanside,11572,2.0,4.0,3111B Lawson Rd,icecream shavedice,40.635599,-73.654478
34,byNxzNIqXMVBBF1XKlZVwA,Guiradelco,NY,Westbury,11590,100.0,4.0,324 Post Ave,filipino intlgrocery,40.7605178,-73.58769879418534
35,kiKUF11kNgEnM__P11nrig,Tea Cup Cafe,NY,Elmhurst,11377,141.0,4.0,76-23 Woodside Ave,thai bubbletea noodles,40.7440056330087,-73.8885498046875
36,jKr0EQUrEyGu6HuX_xHl5g,520 Dessert,NY,Flushing,11354,359.0,3.5,133-53 37th Ave,desserts bubbletea icecream,40.7610699,-73.83315
37,7hXNtWlxqMIuUqFP_EBLBg,Asian One Best Grocery,NY,Ronkonkoma,11779,75.0,4.5,1021 Portion Rd,filipino intlgrocery,40.835979,-73.0677439
38,ym-ZgwQ2ovryPAdm0xUJEg,Lin Garden,NY,Flushing,11355,67.0,4.5,42-35 Main St,salad juicebars sandwiches,40.7544332742691,-73.8278661668301
39,BMLA6lf380knnH5c1SQw6A,Yeomiji,NY,Scarsdale,10583,187.0,4.0,13 Spencer Pl,korean bbq asianfusion,40.989967,-73.8075672
42,YRmFWbhGeJJFRslXvSj6Dg,Fresh U,NY,Queens,11361,33.0,5.0,45-54 Bell Blvd,juicebars markets coffee,40.75869762687516,-73.76880349999999
45,WwiQM06S-rTtXY4mXB4FuQ,Cocohodo,NY,Flushing,11358,156.0,3.5,158-07 Northern Blvd,desserts coffee shavedice,40.7634951174259,-73.8071145862341
46,c3aWKZ3DoA932pqyZ4u-QQ,Coffee Monster,NY,Flushing,11355,18.0,2.5,149-40 41st Ave,coffee,40.762210016716,-73.8142801076174
48,jH_TMGRy5x8wB3lCueFuYQ,Northern Canaan Bakery,NY,Hicksville,11801,28.0,4.0,478 Plainview Rd,bakeries coffee breakfast_brunch,40.7697611,-73.5022834
49,njb4Ylo7fsqZdO3Vxxndqg,Rita's Italian Ice,NY,Deer Park,11729,24.0,4.0,2158 Deer Park Ave,icecream desserts shavedice,40.774333,-73.335106
0,ZLo3HRSSvN--Mw4eCBLxCg,Mango Mango Dessert,NY,Flushing,11354,622.0,4.0,136-28 39th Ave,desserts icecream bubbletea,40.7603809317017,-73.8294516357502
2,_S0-MDuStPumfveTqhpGcA,Jimmy's Soft Serve,NY,Tarrytown,10591,4.0,5.0,81 Sheldon Ave,shavedice foodtrucks icecream,41.06033,-73.85811
3,jRhMGHISqe44FM9HR-m9kQ,Sweet Cats Cafe,NY,Fresh Meadows,11366,220.0,4.0,168-17 Union Tpke,desserts bubbletea customcakes,40.723314,-73.799678
4,XC0Pfo1StFcck1Kbc1Hk3g,Kabayan Grill,NY,East Meadow,11554,64.0,3.0,1634 Front St,filipino,40.7151778703118,-73.5710938494117
5,K8KF4qgF97Qry_W4VEfJ7Q,Nieves Tia Mimi,NY,Elmhurst,11373,25.0,4.0,89-14 Roosevelt Ave,shavedice icecream candy,40.748132,-73.87731
7,j_ZrSx68CG5I1SLhyMQASg,Vietnam's Central,NY,Scarsdale,10583,303.0,4.5,694 Central Park Ave,vietnamese salad bars,40.9983675,-73.8152359
9,OR9oqAJW-U5ZnqhwH12Nuw,Khao Nom,NY,Elmhurst,11373,135.0,4.5,42-06 77th St,desserts thai,40.7432731562959,-73.8879961885031
10,iWX3E4w0Bn_ar0UnwLIuKQ,Meet Fresh,NY,Flushing,11354,9.0,3.0,133-36 37th Ave,bubbletea desserts,40.760446,-73.8337502
11,8Po2pNB3rGo0N0jJ2-5CjA,Broadway Food Mart,NY,Elmhurst,11373,6.0,4.0,8320 Broadway,grocery delis,40.740601,-73.87954
12,web6m4jvI_IRHDhBNOdgUQ,Lulu & Dino,NY,Bayside,11361,31.0,4.0,219-02 Northern Blvd,coffee bakeries,40.76103,-73.76253
13,cEcfPr95iq4uNkaUVkLtYA,Salsa Bembe,NY,Yonkers,10704,186.0,4.0,811 McLean Ave,bars latin puertorican,40.906942,-73.872127
14,j1x37tGUHqpS0S85pi-LqQ,Cafe Bench,NY,Flushing,11358,741.0,3.5,194-07 Northern Blvd,cafes,40.7580449,-73.7873649
15,ECWYXOzJkkcc7FfFlz-HMA,vine tree,NY,Flushing,11354,27.0,3.5,150-13 Northern Blvd,coffee korean,40.7654419,-73.8145523
16,MNMFWEH1byvWhF7t7HeMjw,Ralph's Famous Italian Ices,NY,Williston Park,11596,31.0,4.0,127 Hillside Ave,icecream juicebars,40.756333,-73.6443768
17,W1L0UB1MvlhvkKTF43emSA,Jaew Hon New York,NY,Jackson Heights,11372,221.0,4.5,71-30 Roosevelt Ave,thai hotpot,40.7464487,-73.8938216
18,kfbRpqulGPEtfV1MtmgWqw,Bakery De Paris,NY,Flushing,11358,49.0,4.0,42-35 162nd St,bakeries coffee,40.759166,-73.803863
19,Lx40iKWB2f4PT2q3LCpbgQ,Croton Corners,NY,Croton-on-Hudson,10520,1.0,5.0,124 Grand St,shavedice arcades icecream,41.2088679,-73.8839303
22,1Vziemfweeo4OgLQlkzCFA,La Arepa,NY,Brentwood,11717,17.0,3.5,1075 Suffolk Ave,colombian venezuelan,40.7852637244494,-73.230046169484
25,hcMoQDajkgihtGgNwL7k6w,K. Pacho,NY,New Hyde Park,11040,882.0,3.5,1270 Union Tpke,mexican venues cocktailbars,40.75271233,-73.69951483
26,lRSa3dFw_3ItdcE2032hnA,Arepalicious,NY,Ozone Park,11417,157.0,3.5,137-20 Crossbay Blvd,colombian gourmet,40.671139,-73.8433307
27,V52kefaXO5vykbzd52M_mw,H Mart - Hartsdale,NY,Hartsdale,10530,278.0,4.0,371 N Central Ave.,grocery korean food_court,41.0296601219145,-73.7903970499497
28,YWSRsZhGJd3pEZ_hrdX4nw,Ralph's Famous Italian Ices,NY,Northport,11768,4.0,3.5,407 Fort Salonga Rd,desserts shavedice icecream,40.8925248604699,-73.3397531409844
29,7pnQSZQ0aH-izOhXzgCtjA,Hudson Anchor Restaurant,NY,Sleepy Hollow,10591,173.0,4.0,222 Beekman Ave,seafood tradamerican cocktailbars,41.0823434191158,-73.8676577433944
30,W-drUupbzZmbq8QwNG7mDQ,New World Mall Food Court,NY,Flushing,11354,889.0,4.0,136-20 Roosevelt Ave,food_court,40.7593304514751,-73.8291516155005
31,CPv_PzTVuk2q-8Ndi6pXaQ,OK Ryan Restaurant,NY,Flushing,11355,182.0,4.0,4104 College Point Blvd,chinese taiwanese,40.7559317,-73.833735
32,KQhsU3i6CIrwzoOxPlThng,Kulu Desserts,NY,Flushing,11354,309.0,3.5,37-06 Prince St,desserts asianfusion,40.7604922983047,-73.8330032676458
33,21t-nECNFK3w4tuba-GmPw,Cafe Toast,NY,Flushing,11358,24.0,4.0,4106 163rd St,coffee bakeries bubbletea,40.76125,-73.8030871
34,k4gjW43heYHHFbrJwDNdmA,Anda Cafe,NY,Elmhurst,11373,238.0,3.5,83-31 Broadway,bubbletea shavedice taiwanese,40.74072,-73.87902
35,SLddJGls3pIjlt_HAywJtQ,Goosefeather,NY,Tarrytown,10591,181.0,4.0,49 E Sunnyside Ln,cantonese,41.051082,-73.8567606
36,CsoL2_OdT9SLC5MsfWM1PA,Cafe Morning of New York,NY,Flushing,11358,55.0,3.5,158-14 Northern Blvd,cafes,40.7629299,-73.8067402
38,vt_dcJeApljC1dLUPOmL3A,Bakery La Casa de Los Antojitos,NY,Jackson Heights,11372,17.0,4.5,81-08 37th Ave,bakeries icecream cafes,40.749435,-73.8848299
39,87NNC8Xv_0oYMNW8ne9qzw,El Palacio de Los Cholados,NY,Jackson Heights,11372,82.0,4.0,83-18 Northern Blvd,juicebars colombian,40.7555463,-73.8841396
40,BNyT4ticLRnaE6SF6HTAiQ,C Fruit Life,NY,Flushing,11354,122.0,2.5,13529 Roosevelt Ave,desserts juicebars bubbletea,40.7593169,-73.8309479
41,luKlh0-Id9y7KXNvbgFmQg,Chick'n Rotonda,NY,Middle Village,11379,22.0,4.5,64-58 Dry Harbor Rd,filipino desserts cafes,40.7181135,-73.8726757
42,Kiisn6FeH0iJS879wzHAFQ,Kashi Japanese - Syosset,NY,Syosset,11791,194.0,4.0,343 Jericho Tpke,japanese sushi soup,40.8106099,-73.50346
43,GT1OdWlLO9kRQf0SEOrrVA,Lahi,NY,Elmhurst,11373,129.0,4.0,51-24 Van Loon St,filipino,40.7373622,-73.879388
44,-4pMakL1204UWQMZho5-Lw,Prontito,NY,Elmhurst,11373,111.0,4.0,40 25 Forley St,juicebars burgers colombian,40.747706,-73.880471996963
45,CA3DTq3dZ8amwd5mJ6MA3g,La Casa Bronxville,NY,Bronxville,10708,39.0,4.0,7 Pondfield Rd,mexican cocktailbars,40.94202,-73.83523
46,fFbbQLGkb8DAtZXWeiC8YA,One For The Road,NY,Flushing,11354,60.0,4.5,40-25 150th St,coffee sandwiches bakeries,40.7633522,-73.8140952
47,r4FfpVF0v48QznLawd4w8w,Queens International Night Market,NY,Corona,11368,351.0,4.0,47-01 111th St,foodstands festivals theater,40.747311,-73.8531885
48,e_ft5pbSsTLsS99bcIq1SQ,Aji 53,NY,Bay Shore,11706,307.0,4.0,53 E Main St,sushi japanese,40.7225577100772,-73.2467085962952
49,dJdIEYv56jTBkU6hAnSypw,Awang Kitchen,NY,Elmhurst,11373,181.0,4.0,84-05 Queens Blvd,indonesian,40.737338,-73.8792701
0,dMe1eni3-zoz1gFZTZpjGA,Caffe Bene,NY,Jackson Heights,11372,142.0,3.0,80-27 37th Ave,coffee breakfast_brunch cakeshop,40.7497126,-73.885855
1,hPUrM1JgVqg4LuZdjCZbIw,Ten Ren Tea & Ginseng,NY,Flushing,11354,287.0,4.0,13518 Roosevelt Ave,coffee,40.758967,-73.831251
2,J8gvOeZaePYXsJuGwRBwwg,Paris Baguette,NY,Bayside,11361,215.0,3.5,210-20 Northern Blvd,bakeries coffee cakeshop,40.7593888,-73.7719048
3,lj8BVEI4agXjb1iFof42lg,Punto Rojo Bakery and Restaurant,NY,Huntington Station,11746,3.0,3.5,1666 New York Ave,colombian,40.84126001284842,-73.41188002377748
4,pCG5nTI-kXJBpHLPM6IyZg,Gateaux Bakery & Cafe,NY,Flushing,11354,4.0,4.5,150-24 Northern Blvd,bakeries cafes,40.7650773,-73.8142652
5,pfbIskfmnrEKiWBYfpOsQw,Paris Baguette,NY,Rego Park,11374,89.0,4.0,96-33 Queens Blvd,bakeries coffee cakeshop,40.7301166012797,-73.8615339249372
6,V7axrZMXkFp786S5x2Orsw,Yun's Cafe and Asian Mart,NY,Jackson Heights,11372,52.0,4.5,7305 37th Rd,cafes burmese,40.7472668689568,-73.8922200724483
7,Hm0odAmyV1K-Rcb1jdfBYw,Mojoilla Fresh,NY,Flushing,11354,109.0,3.5,136-20 Roosevelt Ave,creperies desserts,40.75933,-73.8291799
8,c06A8F4Z3hP5tJ2VetxCjA,Hahm Ji Bach,NY,Flushing,11354,1234.0,4.0,40-11 149th Pl,korean,40.763106,-73.814917
9,iIcUpEOjMLuzAIfyY_vgYA,PappaRich Flushing,NY,Flushing,11354,691.0,3.5,One Fulton Sq,malaysian,40.759569,-73.832392
10,YtU1rb_oDHTbYzl-NFglPQ,Burmese Bites,NY,Elmhurst,11373,73.0,4.5,90-15 Queens Blvd,burmese,40.73456587384498,-73.86885806649397
11,5KQuP5ddTH1-ECdbn1ONlA,Paris Baguette,NY,Flushing,11354,467.0,3.5,136-17 39th Ave,bakeries coffee cakeshop,40.7605318,-73.8297948
12,hA5QUlrSjpxMZ90Kof0bgA,Khao Kang,NY,Elmhurst,11373,259.0,4.0,7620 Woodside Ave,thai,40.743269,-73.888039
13,iTke4ZsI0WyAHD6fmAtRLA,Coco Malaysian Cuisine,NY,Elmhurst,11373,276.0,3.5,8269 Broadway,thai malaysian,40.741662,-73.8804985
14,-Rat_jVuOv_HTYjHqooGzw,Malay Restaurant,NY,Flushing,11354,342.0,4.0,13517 40th Rd,malaysian noodles soup,40.7588141532412,-73.8303136825562
15,9MSvj1NSKlWZKNA3aQaJOQ,Anda Cafe,NY,Flushing,11355,24.0,3.5,6002 Main St,bubbletea sushi shavedice,40.7430580638732,-73.825889
16,GURmB4kTMLpG8AGjx52ILw,New Pinang South East Asian Cuisine,NY,Forest Hills,11375,270.0,3.0,11110 Queens Blvd,seafood noodles soup,40.7182146404843,-73.8372966119012
17,8YMsuAk1ZUlObebOsZzFgQ,Paris Baguette,NY,Flushing,11372,61.0,3.5,88-16 Northern Blvd,coffee bakeries cakeshop,40.75593,-73.87908
18,M8eB6p4udxJhLkeIoDjBzA,Pulau Pinang,NY,Elmhurst,11373,186.0,3.5,82-84 Broadway,malaysian taiwanese,40.7412362605966,-73.8813701076699
19,ZL4Te6eHTsB1JXbBsQ4jJg,La Masa Bakery,NY,Bronx,10462,33.0,4.0,726 Lydig Ave,bakeries coffee colombian,40.854393,-73.8665434
20,clF03gTQxdty6rzvMxSfNg,Yee Mei Fong Cafe,NY,Flushing,11354,1.0,5.0,135-11 40th Rd,cafes,40.758699,-73.831213
21,RH6kTt81G4OdWP603LnoDQ,Pho Best III,NY,Elmhurst,11373,193.0,2.5,83-02 Broadway,vietnamese,40.74083,-73.88012
22,rGjcrXMlp_i-DJVOObtV5A,Tous Les Jours,NY,Flushing,11354,248.0,3.0,39-02 Union St,desserts coffee bakeries,40.7609383016825,-73.8268576562405
23,9-qeAhHDxNblcFrSTBzkGA,Go Natural Self Serve Frozen Yogurt,NY,Woodhaven,11421,1.0,1.0,88-20 Jamaica Ave,juicebars acaibowls icecream,40.6924915,-73.8556671
24,1-QgkACd4atRtc4AOGWz_Q,Tacos Y Jugos Genesis,NY,Elmhurst,11373,146.0,4.0,7804 Woodside Ave,mexican sandwiches juicebars,40.7435971734647,-73.8868284970522
25,i8aUeHmdINsEWceJGBy-QQ,Kung Fu Tea,NY,Elmhurst,11373,142.0,3.5,86-12 Justice Ave,coffee bubbletea juicebars,40.7375709,-73.8767088
26,0sFAy3tueTdZYIywI_87AA,Paris Baguette,NY,Flushing,11354,194.0,3.5,156-24 Northern Blvd,coffee bakeries cakeshop,40.7635157983811,-73.8088456168771
27,utItnelwAbkxF6GGHVopSg,Pho Hoang,NY,Flushing,11355,250.0,3.0,41-01 Kissena Blvd,vietnamese cantonese,40.7584358006716,-73.8293903321028
28,exE-QJxK5e2ZorsLkGuULw,Paris Baguette,NY,Flushing,11354,45.0,3.0,29-44 Union St,coffee bakeries cakeshop,40.7709525,-73.8267506
29,CTUqeP0Z7kgi5Tvsx-mU7A,Satay,NY,Flushing,11355,176.0,3.5,4601 Kissena Blvd,chinese malaysian,40.750602722168,-73.818717956543
30,4IbAUyetZltHdEi82LI88w,Kung Fu Tea,NY,Flushing,11354,275.0,3.5,136-20 38th Ave,coffee bubbletea juicebars,40.7606726,-73.829559
31,Y5NjZuIkWnV-ntd7BeUjzg,Happy Lamb Hot Pot,NY,Flushing,11354,670.0,4.0,136-59 37th Ave,chinese mongolian hotpot,40.762281,-73.829041
32,rufs9T2rWkejPNdWhd1gNA,Pho Bang Restaurant,NY,Flushing,11355,535.0,3.5,4107 Kissena Blvd,vietnamese,40.758418,-73.829069
4,NtMnOboTgEfSGBF7J7dmng,CeCe Bubble Tea Cafe,CT,Shelton,06484,4.0,5.0,434 Howe Ave,bubbletea desserts sandwiches,41.316990684784315,-73.09339332469182
2,wEhVblSf_ks50GC5N_QZGw,Cafe Leah,NJ,Palisades Park,07650,363.0,4.0,225 Broad Ave,desserts cafes coffee,40.84661,-73.99931
3,1OUl9rSRujDqL3Hl32ZWxw,Cafe Mocha,NJ,Palisades Park,07650,237.0,4.0,125 Broad Ave,breakfast_brunch cafes,40.84523,-74.00025
5,MKYhiSeXjahxh9O4Gqnimw,Grace Street,NY,New York,10001,2913.0,4.0,17 W 32nd St,coffee desserts shavedice,40.7478576793883,-73.9865590631962
8,Wg1ridLw4-rVV_RoSaq6AA,Cocohodo,NJ,Closter,07624,28.0,5.0,255 Closter Dock Rd,bakeries coffee bubbletea,40.9723529,-73.9606622
9,5JD5bSOGUF-sfGipg5BuvA,Sunshine Ice,NJ,Weehawken,07086,89.0,4.5,4514 Park Ave,juicebars coffee shavedice,40.7775611057456,-74.0181209519506
12,5-WmIcDA3CRHXykLIGmmLw,Cafe Oak,NJ,Palisades Park,07650,85.0,4.0,329 Broad Ave,cafes,40.849307,-73.997234
13,wH2hXRoFORQXF319oCGmWw,Sweets Laboratory by Hanamizuki,NY,New York,10001,12.0,5.0,143 W 29th St,desserts japanese,40.747539,-73.991601
16,LTB801VOOXfVt4GK7Vmf2A,Nana's Ice Cream & Grill,NY,Hyde Park,12538,12.0,4.5,864 Violet Ave,icecream sandwiches,41.77137,-73.90898
18,OFfZUS-nu6NDnsWe1B2bUQ,Tonchin,NY,New York,10018,1555.0,4.5,13 W 36th St,ramen izakaya,40.7502727,-73.9844951
19,IkyRp47Jpbk_AQ35qlr-eg,Bird & Branch,NY,New York,10036,359.0,4.5,359 West 45th St,coffee desserts,40.7603099,-73.99087
27,0gCUhxXl1rb1myDTZuqBhA,Kudo Society Cafe,NJ,Palisades Park,07650,377.0,4.5,138 W Central Blvd,coffee bubbletea cafes,40.85112,-74.00307
29,7pdx3YznypquKGle-7OOxQ,Cafe Rx,NJ,Cresskill,07670,46.0,3.0,2 Piermont Rd,cafes,40.93771,-73.96225
32,PIWVE71TMfG6EcK0OeBCjQ,Gateaux Bakery & Cafe,NJ,Closter,07624,35.0,3.5,570 Piermont Rd,bakeries cafes,40.968964,-73.953928
34,-HpCsFpk8PwFpbmEELmg6g,Semicolon Cafe,NY,New York,10032,73.0,4.5,9 Edward M Morgan Pl,coffee sandwiches,40.834633,-73.94522
35,D8UbXnZ1Q9zR8-sPPpsJ-A,Jell & Chill,NY,New York,10009,136.0,4.5,110 E 7th St,desserts,40.7264350340106,-73.9846681058407
37,qPbl8EBPmY0nF6-BXQxt0Q,The Blossom,NJ,Palisades Park,07650,64.0,3.5,320 Broad Ave,delis breakfast_brunch coffee,40.8487,-73.99685
44,hyveq4QHwx31tKKVZfkPOw,Ippodo Tea,NY,New York,10016,225.0,4.5,125 E 39th St,tea japanese,40.7498614,-73.9777215
47,j53yVwU29q7aQBz3TtPiRQ,Mango Mango,NJ,Hoboken,07030,70.0,4.0,620 Washington St,desserts waffles icecream,40.744176,-74.029151
48,8Zns7XdCBU7DdUsPuVInbA,Tous Les Jours,NJ,Closter,07624,62.0,4.0,40 Homans Ave,coffee bakeries desserts,40.972598,-73.959382
4,Rk0uSitjoPuizMQu-ythlA,Palm Trees Dessert,NY,West Nyack,10994,1.0,5.0,4292 Palisades Center Dr,icecream shavedice desserts,41.09801063869928,-73.9568397
8,pjtSa2tcTvSEk6II9FxuBA,Mara Mara,NJ,Palisades Park,07650,19.0,4.0,110 Broad Ave,sandwiches breakfast_brunch juicebars,40.8488373683771,-74.00010580000004
10,MQ6xAkWJ2JE6fuzXu-hXUA,Caffe Bene - Fort Lee,NJ,Fort Lee,07024,177.0,3.0,1636 Palisade Ave,cafes,40.84985679870758,-73.96812548237237
14,N6gEHzQk_fueGwxm-fw1LA,Raspados Yesenia,NY,Long Island City,11103,6.0,5.0,48 Northern Blvd,streetvendors shavedice,40.7537356102613,-73.914439781481
15,5QgBCrAbXbM1ORiqZDrBPQ,Cha-An,NY,New York,10003,1839.0,4.0,230 E 9th St,japanese tea desserts,40.72947,-73.98813
16,55Cxx3T296dsLMrsxwTckQ,Meet Fresh,NJ,Jersey City,07310,24.0,3.5,525 Washington Blvd,desserts coffee taiwanese,40.72686,-74.03506
17,fxN2HYA1uyrdkXR9XX-Uwg,I CE NY,NY,New York,10012,589.0,4.0,101 Macdougal St,desserts shavedice icecream,40.7296251968846,-74.0009496311209
18,zaYK-LuVRUoUVt6EV-xmPg,Tokyo Record Bar,NY,New York,10012,172.0,4.0,127 Macdougal St,izakaya,40.73063650237976,-74.0000907846602
21,5nBBHCtvcJzkwTKmd6AHPA,Mavi's Pizza and Pasta,NJ,Fort Lee,07024,243.0,4.0,237 Main St,bubbletea pastashops pizza,40.852023,-73.97158
23,JUPxlDVMxuRSsqMcH6RCVg,Mitsuwa Marketplace,NJ,Edgewater,07020,1770.0,4.5,595 River Rd,japanese sushi intlgrocery,40.8158107608922,-73.9801246070119
25,oRF8tpn0SoXb6QP7qf0iPg,Tea Magic,NY,New York,10025,224.0,3.5,2878 Broadway,coffee juicebars tea,40.8052599,-73.96558
27,AR_0QV4O12sHojkky_IMkg,Canal Street Market,NY,New York,10013,202.0,4.0,265 Canal St,food_court,40.71897,-74.00102
30,mlm40NxsVJUPnh3LTayaaw,Kimika,NY,New York,10012,255.0,4.0,40 Kenmare St,japanese italian cocktailbars,40.720572,-73.995206
31,TjoAtyJU4ikN3CUlBlmDUA,Lazy Sundaes,NY,New York,10003,40.0,4.5,11 Waverly Pl,bubbletea shavedice,40.73014,-73.99416
34,aoaH3DJub24MkqMsBzew-Q,Semicolon Cafe,NY,New York,10016,50.0,4.5,516 A 3rd Ave,coffee sandwiches,40.746243585426775,-73.97810199999999
35,p9Mqv-KhO9oltVoz5w-9Tw,Meet Fresh,NY,New York,10003,509.0,3.5,37 Cooper Sq,desserts bubbletea taiwanese,40.72807,-73.99064
36,XKDHsS8PevoEdFLNtt05FA,Shuya Cafe De Ramen,NY,Astoria,11103,317.0,4.5,42-13 Broadway,ramen,40.758007205736,-73.9167939666258
38,mGGK3_Zt49HxQaEU-lhIFg,D'avant Bakery,NJ,Palisades Park,07650,192.0,4.0,449 Broad Ave,coffee bakeries cakeshop,40.8515212947963,-73.9955315337295
40,IIM-dzbOvg4x7h-AjHsq9Q,Bulbap Grill,NY,Brooklyn,11222,165.0,4.5,646 Manhattan Ave,korean asianfusion,40.7243,-73.9509099
42,0uk7ctUq9ppLLaAt1ZZK5A,KAI Sweets Cafe,NJ,Edgewater,07020,92.0,3.5,595 River Rd,cafes japanese creperies,40.816245803491384,-73.98001054243791
43,l8F-LhA_LJgzY4pXeJRiIQ,Soosanghan Pocha,NJ,Palisades Park,07650,111.0,4.0,243 Broad Ave,korean pubs,40.846433,-73.998589
46,fX_E2J6LqK6u77zNa8xyJQ,JUA,NY,New York,10010,176.0,5.0,36 E 22nd St,korean,40.739694,-73.987832
48,aH_xLAO-jaeSsbHUav-R0A,Jubilee Chocolate Cafe,NJ,Palisades Park,07650,201.0,4.0,322 Broad Ave,desserts cafes coffee,40.8489702,-73.9969001
49,wbvDtrLkwPNFr4eOgTCiBg,Ice Riders,NY,Long Island City,11101,1.0,4.0,5-29 46th Ave,shavedice,40.7475815,-73.9542618
3,NXc41clC71XOmSw5c_bvqg,Q Tea Tapas,NJ,Fort Lee,07024,217.0,4.0,242 Main St,bubbletea sushi poke,40.8515995838956,-73.9720886366116
4,gTkXGwTH9irJ9EFTMB5PQQ,Mango Mango Dessert,NY,New York,10003,465.0,4.0,23 St Marks Pl,desserts juicebars creperies,40.72911,-73.98858
7,9_hmh7Auc-KNMnPqSOuqag,Cafe Mignon,NJ,Leonia,07605,33.0,4.5,332 Broad Ave,cafes desserts coffee,40.86239,-73.98785
12,1Sy1rzU0IvKFd-dukKuoKQ,Delicioso Coco Helado,NY,New York,10025,19.0,4.0,SE Corner Of 96th And Broadway,foodstands icecream,40.7946860945143,-73.971886928185
14,fVsH6QIJPzXpVbgmeiolsA,Jungsik,NY,New York,10013,690.0,4.5,2 Harrison St,korean,40.7188032533572,-74.0090829725856
15,GxavfPsxlWnRB_98BwkPUQ,Tospia,NJ,Palisades Park,07650,50.0,4.5,215 Broad Ave,cafes sandwiches,40.846011,-73.999499
16,SmLFW1Ncg26KfVRVX3GVFQ,Little Mad,NY,New York,10016,97.0,4.5,110 Madison Ave,newamerican korean,40.74502,-73.98513
17,Zld3i2mC6GhVKBmqLB26zQ,Ralph's,NY,Astoria,11102,6.0,4.5,30-02 30th St,shavedice icecream juicebars,40.767157,-73.922524
18,xZ96vaoL-cQjfotmUKtjJQ,Barn Joo 35,NY,New York,10001,2180.0,4.0,34 W 35th St,korean gastropubs tapasmallplates,40.74964,-73.98582
19,QirEbcHa6wXkkVnDpO5cqQ,Chloe's Soft Serve Fruit Co,NY,New York,10003,529.0,4.0,25 E 17th St,icecream juicebars desserts,40.73733,-73.99058
25,3aypSFXLfkAL4dhHVFobKg,Lazy Sundaes,NY,New York,10002,34.0,4.5,23 Clinton St,bubbletea desserts shavedice,40.720597,-73.984539
26,bxCjNLVDQggNTbpviV0RMw,Lazy Sundaes,NY,New York,10013,70.0,4.0,265 Canal St,bubbletea shavedice desserts,40.7189689,-74.0006772
27,YfC_sbQsHL_Nhn2pInxCwA,Cocohodo,NJ,Palisades Park,07650,41.0,3.5,262 Broad Ave,coffee icecream bakeries,40.847479,-73.997842
28,ikazsJps1k-Br2FbunwCtg,Spot Dessert Bar,NY,New York,10003,3200.0,4.0,13 St Marks Pl,desserts coffee icecream,40.72939,-73.98892
30,pCfGgX0WxGASGM4-Yhr2Pw,Hao Noodle Chelsea,NY,New York,10014,491.0,4.5,343 W 14th St,chinese bbq noodles,40.7406999,-74.00436
33,WQUfcgKZZe3siRXkkkwMHg,Purple Dough,NY,Woodside,11377,181.0,4.0,38-05 69th St,bakeries desserts filipino,40.7468627,-73.896251
34,XyGpSrE6aUO45xctVCHfvg,Spot Dessert Bar,NY,New York,10003,282.0,4.5,5 Saint Marks Pl,desserts,40.72944,-73.98934
36,P6SMP91qNL_hzpj2aqEEWw,Koko Loko Coffee,NJ,Palisades Park,07650,115.0,3.0,322 Commercial Ave,cafes sandwiches,40.851814,-74.001792
37,szyoiJXuX8shNnsm8-Bffg,Cafe Atelier,NY,New York,10013,37.0,4.5,112 Hudson St,cafes,40.719573,-74.008365
39,eMPpgfTIZt-qEZWO1VzvFw,City Kitchen,NY,New York,10036,485.0,4.0,700 8th Ave,food_court,40.75857539207855,-73.98851840000066
40,KVAq9pPpngkuKk2YJRgDVw,Acai Ya Later,NJ,Hoboken,07030,140.0,4.0,203 Washington St,acaibowls juicebars vegan,40.738863428563555,-74.03026140561042
41,et9pAFtSvNOct9Qcmtcf7g,Mido Japanese,NY,New York,10024,248.0,4.0,612 Amsterdam Ave,japanese sushi,40.7900491,-73.9734598
42,kN3rkbjvqkY62CDRYUVz4g,Yopparai,NY,New York,10002,245.0,4.5,49 Clinton St,izakaya,40.71975013980203,-73.98488557728082
44,BsDu_kup3lJ2QHb-Botpeg,Covacha,NY,New York,10023,75.0,4.5,368 Columbus Ave,mexican,40.78110489839311,-73.97644500326436
45,qkLneEcNorM7zbD8nXb2gQ,Meet Fresh,NY,Queens,11101,11.0,4.0,44-46 23rd St,desserts bubbletea taiwanese,40.74789298560641,-73.94514075505349
46,Yx6xDJBEmC8oTAmIEzDRag,Tous Les Jours,NY,New York,10001,804.0,3.5,31 West 32nd St,desserts bakeries coffee,40.7479385,-73.9870117
47,8Oo2AtQEPDfxIOnA8wfXoQ,886,NY,New York,10003,533.0,4.0,26 Saint Marks Pl,taiwanese asianfusion,40.72877,-73.98873
48,rIffjoP3a6ra0J-CDX_BNQ,Machi Machi,NY,New York,10001,269.0,3.5,33 W 32nd St,bubbletea,40.748008,-73.986959
0,5JLhDQviFJpk51SWxRWH7Q,Bamboo Grill,NJ,Bergenfield,07621,88.0,3.5,54 S Washington Ave,filipino asianfusion,40.9261282,-73.9967216
2,nI1UYDCYUTt23TpGxqnLKg,Buddakan,NY,New York,10011,4259.0,4.0,75 9th Ave,chinese bars asianfusion,40.7422762672197,-74.0048000961542
3,diCW3Pj1PTVRSyol_d7cZw,Chef's Table at Brooklyn Fare,NY,New York,10018,577.0,4.5,431 W 37th St,japanese seafood,40.7561930774282,-73.9966090932068
6,8_6g0JiTJb_B22drsDq3DQ,Shaka Kitchen,NJ,Hoboken,07030,95.0,4.0,110 Washington St,breakfast_brunch vegetarian cafes,40.73794,-74.03112
8,093cfHd4VSqyr5sSjdZmdQ,Mr BBQ,NJ,Englewood Cliffs,07632,233.0,4.0,150 Sylvan Ave,korean bbq,40.87057,-73.95717
10,a-Bq_yXFVk2PptoWpmry3w,Pye Boat Noodle,NY,Astoria,11106,907.0,4.5,35-13 Broadway,thai noodles,40.76043,-73.92152
12,npiIhpcWePbVT3JYEcy3zg,Wayan,NY,New York,10012,414.0,4.0,20 Spring St,indonesian french breakfast_brunch,40.7213813139202,-73.9950757664721
13,w3y-HuLvbpMDBkA1FQj9PA,Rita's Italian Ice,NJ,Hoboken,07030,89.0,4.0,121 Washington St,icecream desserts shavedice,40.73808,-74.03033
14,mIhqKMgru4002wfrVW-Gfw,ChikaLicious Dessert Bar,NY,New York,10003,1357.0,4.0,203 E 10th St,desserts japanese donuts,40.72964636531206,-73.98620154365136
15,qrncvjkiKN5Z-JC06ygy6A,Hutong,NY,New York,10022,397.0,3.5,731 Lexington Ave,dimsum cocktailbars breakfast_brunch,40.761551,-73.967443
16,nxTEuWKzkK1tCF4LrhFSUQ,Pig and Khao,NY,New York,10002,1751.0,4.0,68 Clinton St,filipino thai panasian,40.71926,-73.98475
17,KGFudcZaG3Q7hv8dVcowvw,Paris Baguette,NJ,Palisades Park,07650,111.0,3.5,408 Broad Ave,bakeries coffee cakeshop,40.85006,-73.99596
22,1kzqEbA6fs6RWzT88mO6VA,Paris Baguette,NJ,Fort Lee,07024,85.0,3.5,185 Main St,coffee bakeries cakeshop,40.8511977,-73.9693398
23,MudZO8HTIUUEH8zjb9Hn5A,Bilao Filipino Cuisine,NY,New York,10021,122.0,4.0,1437 1st Ave,filipino,40.769598,-73.955068
24,6FZf17rNThWKoF4EU18wnw,Yakiniku Futago,NY,New York,10011,411.0,4.0,37 W 17th St,japanese bbq steak,40.738851870947,-73.9941236398979
25,gUJ6pHYd_fp2Ypq377P_vA,Williamsburg Smorgasburg - Saturday,NY,Brooklyn,11211,1141.0,4.5,90 Kent Ave,foodstands,40.721021,-73.962177
26,lc8oROJ67VcPqJd33zDvOg,Tea Magic,NY,New York,10023,41.0,3.5,239 W 72nd St,bubbletea,40.7793834898764,-73.9829937368632
27,aIXcqLgAxkQvh_vS9pUltQ,Rita's Italian Ice,NJ,Englewood,07631,16.0,3.5,4 W Palisade Ave,icecream desserts shavedice,40.89385,-73.97562
28,8WfX23CoBT3eOOyHoJqHTA,Kabayan Bistro Lounge and Banquet,NY,Woodside,11377,16.0,4.0,69-09 Roosevelt Ave,filipino lounges,40.74656,-73.89581
30,XN-yzSrrbBnaLpefu93zlA,Paris Baguette,NY,Sunnyside,11104,77.0,3.5,45-22 46th St,bakeries coffee cakeshop,40.742522,-73.9189917
31,uqzVqsDfrsH2mWVGn_yOSQ,PaTea,NY,New York,10003,251.0,4.5,227 E 14th St,bubbletea tea,40.73306,-73.98589
33,t9Eqb50YeIcmS0b0t8mH4A,People's Pops,NY,New York,10014,174.0,4.0,W 16th St & 10th Ave,icecream foodstands,40.743258020652,-74.0072439711639
35,RYoc4EBUNOtgbg7c32OG9A,Atoboy,NY,New York,10016,487.0,4.5,43 E 28th St,korean tapasmallplates asianfusion,40.74364,-73.98456
36,1o8jSYyJNZYo3v25jYrkgA,Paris Baguette,NJ,Ridgefield,07657,31.0,3.5,321 Broad Ave,bakeries coffee cakeshop,40.8245490765603,-74.0112469524457
38,97zuXSmmdJw5mE1HVB5JaQ,Paris Baguette,NY,New York,10018,349.0,4.0,567 7th Ave,coffee bakeries cakeshop,40.75493,-73.98754
39,P_UREWCQxEYVbBa-KW_Wew,EN Japanese Brasserie,NY,New York,10014,1304.0,4.0,435 Hudson St,japanese diners bars,40.7306,-74.00698
40,a-7_DsSqqrF95qiLamFqmg,People's Pops,NY,New York,10011,1.0,4.0,425 W 15th St,shavedice icecream,40.7464969,-74.0094471
41,fvAPtk-nOfDFjXdLZGd7TA,Jollibee,NY,New York,10018,417.0,3.5,609 8th Ave,hotdogs filipino chickenshop,40.75576552343539,-73.99116373434124
42,FizBsTIAJwNrImIG1mPDcg,Barn Joo,NY,New York,10003,1741.0,4.0,35 Union Sq W,korean cocktailbars tapasmallplates,40.73684,-73.99069
43,AiiKkuu7xcrOfLE5-R5Ygg,ViVi Bubble Tea,NJ,Hoboken,07030,228.0,3.5,117 Washington St,ramen bubbletea taiwanese,40.73797,-74.0305
44,MMotl_bi3-5JRra91A2jLA,Satay Malaysian Cuisine,NJ,Hoboken,07030,571.0,4.0,99 Washington St,malaysian chinese asianfusion,40.73731,-74.03066
45,SLrIiJMqIOdN5KNYpinINQ,Paris Baguette ,NY,New York,10001,724.0,4.0,6 W 32nd St,bakeries coffee cakeshop,40.74738,-73.98627
47,vyKBwzRdNX4yiJDIFv37iw,Oxomoco,NY,Brooklyn,11222,444.0,4.0,128 Greenpoint Ave,mexican,40.7299099,-73.95548
48,EzuRT_4vOrvWdHqZzEFf0w,Oh Taisho,NY,New York,10003,1008.0,3.5,9 Saint Marks Pl,japanese,40.729463,-73.989096
49,Smj-UqUvNFneHKkuZ0BN7A,Kona Coffee and Company,NY,New York,10003,193.0,4.5,57 2nd Ave,coffee coffeeroasteries hawaiian,40.72587,-73.98988
0,c78DChkLL_qVFWpU-IRY_Q,Playa Bowls,NY,New York,10012,109.0,4.0,108 Macdougal St,acaibowls juicebars,40.72945,-74.00064
3,C9brsXcyM6-5kHZPbvnofg,Renee's Kitchenette & Grill,NY,Woodside,11377,256.0,4.0,6914 Roosevelt Ave,filipino,40.746177,-73.895652
6,_tHF8-3rbyMesgdkQzB2yQ,Serendipity 3,NY,New York,10022,4382.0,3.0,225 E 60th St,newamerican burgers hotdog,40.761851,-73.9649001
7,RjeW_l8OF99rn5df5-Rj4g,Totto Ramen - Midtown East,NY,New York,10022,1221.0,4.0,248 E 52nd St,ramen,40.756155,-73.968141
8,SLfVjeW6AauL6zaYjsCOTQ,Barn Joo Nomad,NY,New York,10001,74.0,4.5,816 6th Ave,korean,40.74604,-73.99022
11,M-odQWSEfsR2mVEw7nKG-g,Nyonya,NY,New York,10013,2220.0,4.0,199 Grand St,malaysian chinese,40.719116974367,-73.9968322948353
12,gj6zDB5krFzL90qdmpYVTQ,Ziggle Tofu & Grill,NY,Long Island City,11101,29.0,5.0,37-4 Queens Blvd,korean noodles beerbar,40.74376729999999,-73.927711
14,hKtSEqh8fLgLneDdZZwF8w,Kusina Pinoy Bistro,NY,Woodside,11377,177.0,4.0,69-16 Roosevelt Ave,filipino,40.746172,-73.895585
15,WyiTT3VHjzowMnOnUpZ7TQ,Empellón,NY,New York,10022,376.0,4.0,510 Madison Ave,mexican cocktailbars desserts,40.75972,-73.97472
16,FZpm4_fbd6P984foOUejWg,Jongro BBQ,NY,New York,10001,2238.0,4.0,22 W 32nd St,korean bbq bars,40.747514,-73.986884
17,EMKsuz1fQIGqmWPp3ZEDmA,Vito's Slices and Ices,NY,New York,10018,172.0,4.5,464 9th Ave,pizza shavedice italian,40.7545,-73.99528
19,vu3pG38Wdyr7aFuuJVgqyw,ViVi Bubble Tea,NY,New York,10036,305.0,3.5,607 9th Ave,bubbletea taiwanese,40.7593397667085,-73.9921604184253
20,QenQiEGzs13ekpcsS3TtiQ,Paris Baguette,NJ,Fort Lee,07024,114.0,3.5,1635 Lemoine Ave,bakeries coffee cakeshop,40.8505398116565,-73.9706432586887
21,-Exv1AEsaKU6Cdb2TO_ZUg,The Lobster Club,NY,New York,10022,112.0,4.0,98 E 53rd St,sushi japanese asianfusion,40.758301,-73.971868
23,ves5zPXMxQk1-HK3E1fNhA,Norikoh,NY,New York,10010,53.0,4.0,43 W 24th St,japanese cocktailbars,40.74336530428082,-73.99134204180429
24,EtgNqPyHjN2sCi_LTXvAIQ,Bagel Crepas Cafe,NJ,West New York,07093,30.0,2.5,5520 Hudson Ave,breakfast_brunch creperies burgers,40.7842859330971,-74.0147852547378
25,EbX_9tqAJs4gW51gZpOB7g,Rasa,NY,New York,10011,791.0,4.0,25 W 8th St,malaysian thai halal,40.7327654,-73.9975674
26,Ug2_5DOrlfaU1Pce5Lvikw,Garden Shabu & Grill,NJ,Little Ferry,07643,195.0,4.0,1 Valley Rd,hotpot seafood steak,40.854026,-74.033212
27,xFp3xSQ43J-i7nmJfNBsZA,Norikoh,NY,New York,10010,583.0,4.0,43 W 24th St,sushi japanese,40.7433,-73.99137
28,rn6SmSqAYx2kLFIAxytMMQ,Kajitsu,NY,New York,10016,280.0,4.0,125 E 39th St,japanese vegetarian vegan,40.7498614,-73.9777215
31,y_ylOQzCP-9D_4DcUIJ3jA,Shabu-Tatsu East Village,NY,New York,10003,652.0,4.0,216 E 10th St,japanese bbq hotpot,40.729147,-73.985906
32,YjDOSFuRWNp2d1znivWyIA,Sunrise Mart,NY,New York,10012,283.0,4.0,494 Broome St,gourmet japanese,40.7232311,-74.0025149
33,MDMw0HFK3rgeGRl-FZC9Fg,Banh Mi Saigon,NY,New York,10013,1558.0,4.0,198 Grand St,vietnamese sandwiches,40.7192950325997,-73.9967160153442
34,qy2S_akh9RjSAktwUKf1-g,Jollibee,NY,Woodside,11377,622.0,3.5,6229 Roosevelt Ave,filipino hotdogs chickenshop,40.746091209164646,-73.90120499897989
35,BX0Ybutt3XFaO9G2yTtyqA,Panya Bakery,NY,New York,10003,487.0,3.5,8 Stuyvesant St,bakeries japanese desserts,40.7297668,-73.989357
36,J9UA6rzI5WW_cDGjwDnF5g,Tsurutontan Udon Noodle Brasserie,NY,New York,10003,2107.0,4.0,21 E 16th St,japanese noodles soup,40.73678,-73.9910699
37,i68ePkcGmSimy2_OTDo5qQ,Happy Garden 813,NY,New York,10011,6.0,5.0,513 6th Ave,chinese,40.73699,-73.99744
38,0zmFmXrFFEWxj8RxpVMfzA,Madame Vo BBQ,NY,New York,10003,175.0,4.0,104 2nd Ave,vietnamese bbq,40.72741,-73.98816
39,SxKvgnkMMZdhBJcxxKQnww,Nobu Fifty Seven,NY,New York,10019,1321.0,4.0,40 W 57th St,sushi japanese,40.7636210840864,-73.9765048613641
40,aSFBv64GBpMOFPqIleeQFQ,Lure Fishbar,NY,New York,10012,1783.0,4.0,142 Mercer St,seafood sushi bars,40.724612166991,-73.998574708004
41,s_DZ-c74Tqltc_SHub_hww,Kabayan,NY,Woodside,11377,62.0,2.5,69-12 Roosevelt Ave,filipino,40.7461700439453,-73.8957214355469
42,qrydcGQpeDP_1oFvx3qOeg,Somtum Der,NY,New York,10009,802.0,4.0,85 Ave A,thai,40.7252151982238,-73.9842741682317
46,xw3_Pwi1YB5-8-2s_RFgzA,Kabayan,NY,Woodside,11377,162.0,3.5,4912 Queens Blvd,filipino,40.7423782348633,-73.9154891967773
47,DgzQP-fH8ITqt-iYVvekbw,Gata Golosa Astoria,NY,Astoria,11106,27.0,4.0,30-18 Broadway,colombian cafes breakfast_brunch,40.761992,-73.925725
48,m6sYBuozGY1JhnHlBf1Bzg,BondST,NY,New York,10012,1050.0,4.0,6 Bond St,japanese sushi,40.726934,-73.994404
0,j_ZW3vvpjLDG34nBq5f-UA,Grill 21,NY,New York,10010,557.0,4.0,346 E 21st St,filipino,40.73570710809612,-73.9799634876969
1,STBNV2yArITdLJ1k5hfBig,Gotham Coffee Roasters,NY,New York,10011,93.0,4.5,23 W 19th St,coffeeroasteries coffee,40.73975,-73.99269
2,wx9mXol6jOrUoAK4vaFS9Q,Mission Ceviche,NY,New York,10021,561.0,4.5,1400 2nd Ave,peruvian,40.7692325,-73.9578759
3,pBIvJHn65iqlUh1L2tN-qg,TAO Downtown Restaurant,NY,New York,10011,1530.0,3.5,92 9th Ave,panasian,40.742543316070794,-74.00384559819703
4,YAOJAXBqQTHuY85kN8VulQ,Mama Fina's,NY,New York,10009,214.0,4.0,167 Avenue A,filipino,40.72829,-73.98226
7,QJTLAOMNvhV1_jPfcQ_qPw,Nippon,NY,New York,10022,184.0,4.0,155 E 52nd St,sushi japanese,40.75743,-73.97042
11,IYlO-XRwjZlUl0yoKY87cA,Cagen,NY,New York,10009,219.0,4.0,414 E 9th St,japanese sushi newamerican,40.72779,-73.98417
12,vscYK65F_MUH8WqACKSdog,The Musket Room,NY,New York,10012,533.0,4.0,265 Elizabeth St,newamerican cocktailbars,40.72392,-73.99378
13,Hc7wuYIXJQD0mWWOvqvjzQ,Red Ribbon,NY,Woodside,11377,296.0,4.0,65-02 Roosevelt Ave,bakeries filipino,40.74590954342099,-73.8988405779272
16,nimSBSdPKva3QhepfVjIiw,Bene Bistro,NY,New York,10009,1.0,1.0,208 Avenue A,breakfast_brunch,40.729474,-73.980645
17,0L03onqNwxWLrbb_FCK79A,SriPraPhai Thai Restaurant,NY,Woodside,11377,2439.0,4.0,64-13 39th Ave,thai,40.7464987,-73.8992328
19,veq1Bl1DW3UWMekZJUsG1Q,Gramercy Tavern,NY,New York,10003,3071.0,4.5,42 E 20th St,newamerican,40.73844,-73.98825
20,SAUBVV-yj9DFQ7NnZr5b1w,Prodigy Coffee,NY,New York,10014,213.0,4.0,33 Carmine St,coffee,40.7302096,-74.0032381
21,zEIt0xaPM9DIS-pc118O6A,Hometown Hotpot & BBQ,NY,New York,10013,1371.0,4.0,194 Grand St,hotpot bbq,40.71931,-73.99689
22,seGYMEYsw6F_H33Md1E1dA,Tito Rad's Grill,NY,Woodside,11377,769.0,3.5,49-10 Queens Blvd,bbq filipino breakfast_brunch,40.7426021292423,-73.9155745324366
23,H_KyiRhwho8rdlw_R93_0Q,Marea,NY,New York,10019,2210.0,4.0,240 Central Park S,italian seafood wine_bars,40.7674213694566,-73.9810554368179
24,eVBVn6bjwl_mMLxN-35_6w,Hotel Chantelle,NY,New York,10002,1448.0,3.5,92 Ludlow St,cocktailbars tradamerican venues,40.71843,-73.98909
25,41m0Mepm_XeBMS2azfK-vA,Ihawan,NY,Woodside,11377,409.0,3.5,4006 70th St,filipino,40.7461352719843,-73.8955235481262
27,1Duix1fA6zcJGdYAmBPkmw,Dumpling Man,NY,New York,10009,850.0,3.5,100 Saint Marks Pl,dimsum szechuan,40.727171,-73.9847508
28,1m6viubAWUgsTgguIrJT6A,Cosme,NY,New York,10010,1126.0,3.5,35 E 21st St,mexican desserts cocktailbars,40.739691,-73.988428
29,sinDhwX8Egru_3FCI7bhkw,Laut,NY,New York,10003,1349.0,3.5,15 E 17th St,thai malaysian singaporean,40.73756,-73.9911
33,bYolHbAgMb-zOHpa41Lp0Q,Nam Son Vietnamese Restaurant,NY,New York,10002,563.0,3.5,245 Grand St,vietnamese,40.71818,-73.994333
35,nRO136GRieGtxz18uD61DA,Eleven Madison Park,NY,New York,10010,2273.0,4.5,11 Madison Ave,newamerican french cocktailbars,40.7416907417333,-73.9872074872255
36,5K0b-fEk96xUJCV_5ytNog,Contra,NY,New York,10002,342.0,4.0,138 Orchard St,newamerican,40.719878,-73.989063
37,-VvrQWfbkQWeuGC4L0KcfQ,Il Buco Alimentari & Vineria,NY,New York,10012,561.0,3.5,53 Great Jones St,italian,40.7264539,-73.992549
38,sb1_MyLHzmjV1Jk21pyOIA,Sao Mai,NY,New York,10003,599.0,4.0,203 1st Ave,vietnamese noodles soup,40.730362,-73.98362
0,1D5dNErr_IWFewSE3AuHug,Bubbleholic,CT,Trumbull,06611,4.0,4.5,5065 Main St,bubbletea coffee juicebars,41.23003,-73.22072
1,8LNX_8hEScNFvKkAb0Rp1Q,The Whale Tea,CT,Fairfield,06824,34.0,4.5,1700 Post Rd,bubbletea,41.141331,-73.260456
2,VWUxOzHJCBivRiqToPRvwg,Poke House,CT,Danbury,06811,58.0,4.0,130 Federal Rd,bubbletea icecream poke,41.42873,-73.41732
3,jce9sFwuiZfw3J_e0e2KxA,Pearls N Swirls,CT,Fairfield,06825,30.0,4.0,200 Tunxis Hill Rd,icecream bubbletea creperies,41.17662,-73.22647
5,fSsny3Ox8wYwyczI7yH7Hg,Papa Tea,CT,Danbury,06810,32.0,4.5,7 Backus Ave,bubbletea icecream,41.37994251699473,-73.48076570227975
7,w7y8hOJZgm-gcsd1NkCZLQ,Bubble & Brew,CT,Wilton,06897,6.0,5.0,,coffee foodtrucks bubbletea,41.2077334,-73.4415929
8,EAeILNxX4MAZEzlbcmta6w,Thai Berry Kitchen,CT,Monroe,06468,140.0,4.0,440 Main St,thai,41.32262,-73.26469
10,F7mndldLQrJNG8s417jQYQ,The Whale Tea,CT,Stamford,06901,41.0,4.0,1 Bank St,bubbletea,41.05294,-73.54074
11,W0jUnaWAfLTZcfejVpvumA,Black Pearl Bubble Tea,CT,Norwalk,06854,5.0,4.0,100 N Water St the Sono Collections,bubbletea,41.10413,-73.41904
13,0q-cKXWByiC5_RDbLpImyw,Pho Vietnam Restaurant,CT,Danbury,06811,467.0,4.0,56 Padanaram Rd,vietnamese,41.4188,-73.46633
15,xreSDrormrc8Qc-WZYl65w,Pho Hong Thom,CT,Bridgeport,06605,209.0,4.5,48 Wood Ave,vietnamese,41.1777034,-73.2021711
16,tSCFIjdMRQZ3W6TwgCDDAg,Le's Kitchen,CT,Danbury,06811,163.0,4.5,18 Mill Plain Rd,vietnamese bubbletea,41.3876694256729,-73.4956520742249
17,--aY3hAl0-PRo23nnGlA8A,Ninja Bubble Tea,CT,Stamford,06901,6.0,4.0,225 Summer St,bubbletea vietnamese korean,41.05486,-73.54044
18,S6lPIjYmHkH_fRAQhdi0bA,Thai Dish & Burger,CT,Seymour,06483,106.0,4.5,56 Pearl St,thai burgers,41.3884,-73.07073
19,x6V9a_sRZ-yruGCY4fbwfQ,Kowloon Chinese Restaurant,CT,Bethel,06801,25.0,3.5,110 Greenwood Ave,chinese bubbletea seafood,41.3710675065479,-73.4113785313379
22,c7Lp42UyPTzvIvXdy_Gw5w,The Whale Tea - Norwalk,CT,Norwalk,06854,2.0,3.0,11 N Main St,bubbletea,41.09947,-73.41862
23,0TLcpptoRjkFv39TKN-tvQ,Milkcraft,CT,Fairfield,06824,515.0,3.0,1215 Post Rd,desserts icecream,41.14342,-73.25417
25,TF2WgQv5DYa7cGr9dLxFFw,Maruichi Japanese Food & Deli,CT,Stamford,06902,31.0,4.5,1980 W Main St,ramen grocery delis,41.0474701622583,-73.5626910564924
26,L5Ff81SFPPfEH9fMKKsuNA,Shelton Thai Fusion Kitchen,CT,Shelton,06484,20.0,4.5,509 Howe Ave,thai,41.318544,-73.094571
27,jj9VwnF5Wfz-wURbUcGoyg,The Whale Tea Westport,CT,Westport,06880,2.0,5.0,381 Post Rd,bubbletea,41.1402752,-73.3515493
29,8um-LSynjkWy_kOYwt6XNw,Mecha Noodle Bar,CT,Fairfield,06824,746.0,4.0,1215 Post Rd,ramen noodles,41.1431385076672,-73.253478849937
31,Av63eeF94ShTINkiPMoOww,Good Hope Dumpling & Ramen House,CT,Norwalk,06851,248.0,4.5,172 Main St,asianfusion ramen szechuan,41.12605,-73.41964
32,YiOHvUvp__6fi-oyILrt1g,Xay's Kitchen,CT,Danbury,06810,94.0,4.5,35 White St,laotian thai,41.3976653,-73.45195
34,gVgbrZKunPM3WShKXPliRQ,Phoenix Vietnamese Cuisine,CT,Derby,06418,102.0,5.0,49 Pershing Dr,vietnamese,41.330365488622604,-73.0866423
35,ke3pEzRr5-7IWe9_rPI9dg,Zul Cafe and Grill,CT,Norwalk,06851,35.0,4.5,268 Main Ave,filipino,41.1323109,-73.4235
36,IN8Jejp_6TdWg1E-pfv7zA,Mecha Noodle Bar,CT,Norwalk,06854,475.0,4.0,116 Washington St,noodles,41.09874,-73.41711
39,xV3YW6aqzEodvZdcfe_BkQ,InThai Restaurant,CT,Stamford,06901,236.0,4.0,83 Atlantic St,thai,41.0540816,-73.5396116
41,jwVFCuZTyH4LAgGd2kuNpA,Thai Pepper,CT,Danbury,06811,152.0,4.5,45 Padanaram Rd,thai,41.4191614805963,-73.4655580507936
42,3pruqXxfuiw94YeNo3HZeg,Boom Thai Restaurant,CT,Norwalk,06851,77.0,4.5,456 Main Ave,thai,41.150503,-73.424729
43,1AYwf0Eh0k0obmmRMZrIqQ,Greate Taste Fusion,CT,New Milford,06776,9.0,4.5,27 Main St,chinese,41.577972,-73.411797
44,cRik3GeDwPN8kZg6Jgvhqw,Ruuthai's Kitchen,CT,Bridgeport,06604,165.0,4.5,648 Beechwood Ave,thai,41.17663,-73.21518
45,9uteRxchWeI8SWwKq9qinA,Pho Saigon,CT,Bridgeport,06605,217.0,4.0,80 Wood Ave,vietnamese,41.1776916,-73.2027718
46,I_FQilx-gb4idY9rK8ZyWw,Pho Nha Trang,CT,Fairfield,06824,89.0,4.5,80 Post Rd,vietnamese noodles soup,41.1530389047728,-73.2384432244825
47,Qq889D-qXblrnsT_6ZXvCg,Haruki Ramen and Izakaya,CT,Norwalk,06850,103.0,4.5,515 West Ave,ramen izakaya tapasmallplates,41.111833150407165,-73.41548863543107
49,PtnsKE2_dOMbPqzEu6fIJg,Yuan Asian Cuisine,CT,Ridgefield,06877,94.0,3.5,470 Main St,japanese asianfusion chinese,41.2830458989533,-73.4980110530295
0,4d_ZGRqRvGCg_BPwOKYXuQ,Thai Elephant 2,NY,Patterson,12563,108.0,3.5,2693 Rt 22,thai,41.490177,-73.578068
1,JXEx3yWB4TJynOCOC9oxdA,Thai Kit,CT,Fairfield,06824,95.0,4.5,222 Post Rd,thai,41.15185,-73.240357
5,GTyGCd6foPxBxW66_3Tc5g,Kyushu Ramen and Sushi,CT,Stamford,06901,197.0,4.0,235 Bedford St,ramen noodles tapasmallplates,41.056792,-73.537861
6,2d2_0oo6Ejz42mYdr7vOhA,Mecha Noodle Bar,CT,Stamford,06901,191.0,4.5,151 Bedford St,ramen panasian noodles,41.0563707,-73.5382841
10,OpkGdyXWNQMuPASwWrfe_w,Fuji,CT,Stamford,06901,100.0,3.5,94 Bedford St,chinese japanese sushi,41.0556672,-73.5389925
14,ia2be7DTl6OkCiYB417jJw,Chopsticks - Stamford,CT,Stamford,06905,28.0,3.5,921 Bedford St,chinese seafood,41.061571,-73.537655
19,xX9D2iud0rW2F0gndmHeWw,Blue Ginger,CT,Stamford,06902,84.0,4.0,1132 E Main St,asianfusion chinese sushi,41.0581185,-73.5142222
21,xuTsndP557_Nvi-PUMARvw,Enchanted Szechuan,CT,Norwalk,06854,176.0,4.0,120 Washington St,szechuan noodles hotpot,41.0988272,-73.4172443
22,rQXboAPZBXQCflCdAqgKbA,Mama Chow,CT,Southport,06890,178.0,4.5,3381 Post Rd,noodles ramen tapasmallplates,41.13820817,-73.29171717
27,rShie09TPCzLNq4q5nNVTQ,Peter Chang,CT,Stamford,06901,194.0,4.0,230 Tresser Blvd,szechuan,41.051901,-73.537232
29,YujEz3-0dqI97Y0JP8A1Xw,China House Restaurant,CT,Stamford,06901,1.0,3.0,94 Bedford St,chinese,41.0556679,-73.5389938
32,uDmCJtc1rWjU0PK5mhocTw,Hibachi Sushiya,CT,Darien,06820,89.0,3.5,111 Old Kings Hwy N,sushi asianfusion chinese,41.084128,-73.461035
42,Bi6veGhmhQKIDYawK36RGA,Moon,CT,Greenwich,06830,48.0,4.0,130 E Putnam Ave,sushi chinese japanese,41.033963,-73.623425
3,mCddxCyJvT-OrRXtrlcj3g,Bobaly,NJ,Fair Lawn,07410,22.0,5.0,13-20 River Rd,bubbletea shavedice,40.93457362544739,-74.13355718861736
39,x2kM5s7I7bppxsychF2Gbg,Blue whale,NJ,East Rutherford,07073,21.0,3.5,1 American Dream Way,chinese bubbletea,40.80896,-74.07074
45,wVZmnDlPDdVHI01_XLfBXQ,Beijing Hot Pot,NJ,Rutherford,07070,61.0,3.5,12 Sylvan St,hotpot chinese,40.827236,-74.1036817
46,FLRQ-xnaSRmQ9j40Glnvmw,Mama Fina's  House of Filipino Sisig,NJ,Elmwood Park,07407,275.0,4.0,95C Broadway,filipino,40.919642,-74.124352
24,YtodbLOZumHLbo97t-1LOg,Tropical Hut,NJ,Maywood,07607,23.0,4.0,104 W Pleasant Ave,filipino,40.9053382309804,-74.0643499852662
32,HmttG7ZJstbcc4W9hj9b6Q,Rita's Italian Ice,NJ,Lodi,07644,39.0,3.5,184 Essex St,icecream desserts shavedice,40.888806,-74.068588
38,bYfdVbxXrSv9vrA7ZXEWAw,Rita's Italian Ice,NJ,Wood-Ridge,07075,15.0,2.5,191-2 Hackensack St,icecream desserts shavedice,40.8471068087889,-74.0829559799039
26,meBLW7RzoIH2eY6B2AQ_ng,5 Spice Teahouse & Restaurant,NY,Mount Kisco,10549,49.0,4.0,11A S Moger Ave,chinese asianfusion bubbletea,41.2079792,-73.7282908
28,A3Ji6YXwqltYk-wmi3CuQg,Let's Have Thai,NY,Mahopac,10541,89.0,4.5,961 Rte 6,thai,41.39097021313901,-73.7238348
36,6wQ1mOWyim8GSCKlsBtBRw,Thai Golden,NY,Carmel,10512,163.0,4.0,5 Seminary Hill Rd,thai,41.4215974148607,-73.6782511200877
39,xqFCPdodNWhvCGM5wdm-5g,Thai In Love,CT,Thomaston,06787,99.0,4.5,209 Watertown Rd,thai,41.657680162243,-73.0867370466453
2,XjMc9k5Hg2KOqj9Z8e-x3Q,China Taste,NY,Carmel,10512,15.0,3.0,1922 Rt 6,chinese,41.414539367032,-73.6677002156254
9,e_hmhxJbpSPAGEfim86PVQ,Gentle Perch,NY,Brooklyn,11206,142.0,4.5,112 Graham Ave,korean,40.705106,-73.942587
23,1VulIvaA95_ZjBIs1O0sxQ,Brooklyn Ball Factory,NY,Brooklyn,11206,140.0,4.0,95 Montrose Ave,coffee japanese sandwiches,40.7072338027948,-73.9458661779097
42,iJzOUDE0T8uDonhTKpqDCw,Plaza Ortega,NY,Brooklyn,11221,10.0,5.0,140 Stanhope St,mexican acaibowls icecream,40.69815931227013,-73.9226344664632
25,_3LS-7QKMqTqHtF4r_HsLA,Posto Italian,MA,Longmeadow,01106,92.0,4.0,674 Bliss Rd,italian bars,42.057313,-72.555929
43,q4FRXozpbX1TnZ6MbgiK_g,Pho Saigon Restaurant,MA,Springfield,01108,254.0,4.5,400 Dickinson St,vietnamese,42.08653,-72.55834
8,UZViRVpxNZvOM5KarmbT1g,Sweet Moment,NY,New York,10013,964.0,4.5,106 Mott St,coffee icecream waffles,40.71763,-73.99714
17,NkOpM1SBI50qviqE6LCKRg,The Little One,NY,New York,10002,264.0,4.0,150 E Broadway,desserts icecream shavedice,40.714158,-73.990942
38,LQ8ITaZIbaiQ8pHPOx5i6w,SkyIce Thai Food & Ice Cream,NY,Brooklyn,11217,769.0,4.0,63 5th Ave,icecream thai,40.6806411743164,-73.9772872924805
25,xymropCDcEvCYGKC0AKe-w,Fob Brooklyn,NY,Brooklyn,11231,277.0,4.0,271 Smith St,filipino breakfast_brunch bbq,40.6826583,-73.9930755
41,6DsOHfaiVSoMSGORkt5Ifg,Taiwan Station,NY,Sunset Park,11220,64.0,3.5,5510 7th Ave,taiwanese bubbletea,40.639566,-74.009272
43,No4ny0agfERlycMQwkLD4w,Purple Yam,NY,Brooklyn,11226,444.0,3.5,1314 Cortelyou Rd,filipino asianfusion korean,40.6402061280108,-73.9656538486476
2,CzCflUw_oWoDelAGl4scbw,"Love, Nelly",NY,Brooklyn,11233,23.0,5.0,53 Rockaway Ave,bakeries coffee empanadas,40.681351,-73.911186
5,YFwncruQm44GTqn2jZ9BwQ,Mango Mango Dessert,NY,New York,10013,701.0,4.0,63 Bayard St,desserts juicebars icecream,40.71528,-73.99811
18,QMwF3MpXNaHJzavVOLRWfA,Sugar Miss Tea Cafe,NY,Brooklyn,11220,96.0,4.0,5309 7th Ave,desserts coffee,40.640396,-74.007718
20,D0EV-xXaUUi35raZ_hWg-w,Momofuku Ssam Bar,NY,New York,10038,65.0,4.0,89 South St,asianfusion newamerican steak,40.705476024827576,-74.0016428
22,u0bvKVWyyzyXAJcFEmgXpA,Cafe Japon,NY,Brooklyn,11232,14.0,3.0,934 3rd Ave,coffee bakeries japanese,40.65597,-74.00641
37,Ut4N7Fxikkxi214fy5Qo2w,Send Noods,NY,New York,10013,1.0,4.0,11 Mott St,thai,40.7140600199484,-73.9988298341632
39,r2JVKalbucGf2nryywuL2w,Kopitiam,NY,New York,10002,837.0,4.0,151 E Broadway,malaysian desserts breakfast_brunch,40.71387,-73.99091
7,o6q3jm-dU5A6nV3r2lBg9A,Chinatown Ice Cream Factory,NY,New York,10013,2935.0,4.0,65 Bayard St,icecream desserts,40.715452,-73.99818
9,EfayCQ-uIn-yGDF4kcjBiQ,Paris Baguette,NY,Brooklyn,11201,153.0,4.0,97 Court St,coffee bakeries cakeshop,40.6910452600365,-73.9915985693088
12,dnhEMFIYnkF0ke5oWv9hMg,BAMBU,NY,New York,10002,97.0,4.5,124B Hester St,bubbletea juicebars vietnamese,40.71697,-73.99471
23,xW_i7UqJYvk4OURnq6DltA,ViVi Bubble Tea,NY,Brooklyn,11220,18.0,4.5,5002 5th Ave,bubbletea,40.64515,-74.010669
29,yono7ZJcU1KiqfC-xUMaIA,Japan Village,NY,Brooklyn,11232,263.0,3.5,934 3rd Ave,japanese food_court,40.65597,-74.00641
44,96svxj2NIOrba2fBMZAqOQ,Bogota Latin Bistro,NY,Brooklyn,11217,2370.0,4.0,141 5th Ave,bars gluten_free colombian,40.678165,-73.978976
3,WxNlqGSsj_2TCodkx9Sa4A,ViVi Bubble Tea,NY,New York,10013,658.0,4.0,49 Bayard St,bubbletea,40.715099,-73.997535
15,ybAfKElsgVcm60sS-39zyA,Clark's Restaurant,NY,Brooklyn,11201,460.0,4.0,80 Clark St,diners newamerican,40.69740294105,-73.993250079407
17,kNOr6_g6QfBHdhf89j3g5w,Taiwan Pork Chop House,NY,New York,10013,535.0,4.0,3 Doyers St,taiwanese chinese noodles,40.71429,-73.99798
20,O4rYM6YBj90W2u7RhG3Mvg,Maison Premiere,NY,Brooklyn,11249,1173.0,4.0,298 Bedford Ave,seafood bars venues,40.7142634,-73.96166459999999
23,bnDfFdiCcPzhuNWUJORvLQ,Noodle Village,NY,New York,10013,1257.0,4.0,13 Mott St,chinese noodles,40.714167,-73.998803
41,_EBQhV-UQ7NoV66uXYH0dw,Golden Diner,NY,New York,10002,263.0,4.5,123 Madison St,diners breakfast_brunch sandwiches,40.71244,-73.994
49,q11TljTQd33XCWlVoPyRqg,The Osprey,NY,Brooklyn,11201,249.0,4.0,60 Furman St,newamerican,40.702241,-73.995539
7,nYhEcrY0zqh6Hc3-ERcVXw,Silk Road Cafe,NY,New York,10013,177.0,3.5,30 Mott St,coffee bubbletea bagels,40.714702,-73.998573
10,-baxJlIOCYvy31p6oqM1Ew,Nieves tia mimi,NY,Brooklyn,11220,2.0,4.5,5421 5th Ave,icecream juicebars shavedice,40.64236,-74.01298
15,SqVHETmH6bf3rPKmdftvvw,Ten Ren's Tea Time,NY,New York,10013,657.0,4.0,73 Mott St,bubbletea,40.7163819,-73.9982683
25,0GftSP2dRwEzujkv2VKIgA,Wok Wok Southeast Asian Kitchen,NY,New York,10013,1095.0,4.0,11 Mott St,chinese malaysian thai,40.7140555,-73.9988387116394
29,1851MMElaLteR03rnGAMlw,Pho 87,NY,New York,10002,504.0,4.0,87 Chrystie St,vietnamese,40.717587,-73.9944029
32,W2sR69xVLzMI_CXJXk-PZg,Henry Public,NY,Brooklyn,11201,293.0,3.5,329 Henry St,gastropubs burgers cocktailbars,40.69029751922101,-73.9962894811474
47,3BGG2nlFs_TOkRCC2j3m5Q,Tous Les Jours,NY,New York,10002,95.0,3.5,7 Division St,bakeries coffee desserts,40.71389,-73.99706
13,SgRt4YefG3Zkh60MtO5PoQ,Ten Ren Tea,NY,New York,10013,165.0,3.5,75 Mott St,bubbletea,40.7164175,-73.9981933
20,KkMXFomcmJZBmDdmTMh8yw,West New Malaysia,NY,New York,10013,755.0,3.5,69 Bayard,malaysian,40.71560896185754,-73.99824907718484
30,aNCF4-9nH3hbLJXqIW3EgA,Semicolon Cafe,NJ,Jersey City,07302,182.0,4.5,77 Hudson St,coffee cafes,40.714351,-74.034801
33,OQ_Ghn4IHnnTYAiTVUFxCA,Little Quiapo,NJ,Jersey City,07306,68.0,4.5,530 Newark Ave,filipino,40.731,-74.05565
5,yQDP-BgGKNUeyUeto9Fr1g,Angel Azul Bakery Cafe,NJ,Jersey City,07307,46.0,4.5,460 Central Ave,bakeries breakfast_brunch cafes,40.75032,-74.04607
23,uPVYeVOSLmvAkbxM9cTAQg,Mamak House,NJ,Jersey City,07305,99.0,4.5,250 Rte 440,malaysian chinese cocktailbars,40.705152,-74.099596
28,G_zDrPTmfNCL2R1tHpEouw,The Archer,NJ,Jersey City,07302,326.0,4.0,176 Newark Ave,cocktailbars tapasmallplates,40.721315204191,-74.045283556493
5,Fbt32h6hv56IyczrurIq3A,Max's Restaurant - Jersey City,NJ,Jersey City,07306,313.0,3.0,687 Newark Ave,filipino seafood chickenshop,40.73476,-74.06018
10,4x5suSKSAOKYdTvKaRKxKQ,New Thanh Hoai,NJ,Jersey City,07302,592.0,3.5,234 10th St,vietnamese seafood soup,40.729157116151576,-74.04346469503243
3,ut9ZIbHxcGc9DT6h213XxQ,Chowking,NJ,Jersey City,07305,24.0,2.0,393 Danforth Ave,filipino,40.703987,-74.098805
39,88dpHyEMek3aYlMEG396Ig,Steam  Asian Kitchen,CT,Greenwich,06830,34.0,3.0,374 Greenwich Ave,chinese asianfusion,41.022740158893534,-73.62498132596478
39,j1WmlY32CJCUDfY1EQAfQA,Vientiane Thai Cuisine,CT,Torrington,06790,116.0,4.5,231 High St,thai,41.800396,-73.126148
4,4klpCjsYNzy4_pKE6PIMmw,Taste of Thailand,CT,Torrington,06790,27.0,4.5,19 Mc Dermott Ave,thai salad,41.8126632219152,-73.1242774799466
19,AnxHS20ffU08OXkdwAM9-Q,Liquori's Pizza,MA,West Springfield,01089,109.0,4.0,659 Westfield St,pizza,42.1035723,-72.6348607
11,yU74fuUj9nLAFpbgKsrKFg,Mama Pho,CT,Winsted,06098,38.0,4.0,242 Main St,vietnamese,41.92142278082018,-73.0663605
37,SUzHgBnyIMipRHFc0PiXxQ,Rita's Italian Ice,NJ,Glen Rock,07452,25.0,4.0,1020 Maple Ave,icecream desserts shavedice,40.9526238,-74.1360506
38,E3B6-oyidrfFSqLo-nCLrA,Rita's Italian Ice,NJ,Mahwah,07430,18.0,2.5,3 Miller Rd,icecream desserts shavedice,41.094416,-74.1461463
45,bdkM4D9_OxHvFnkYL224eA,TUCANES Restaurant,NJ,Prospect Park,07508,54.0,4.5,299 N 8th St,latin steak spanish,40.93377,-74.17222
36,jEuwATKO1ozChrWDLiJ2OQ,Julien's,NY,Millbrook,12545,33.0,4.5,5 Washington Ave,pizza sandwiches sushi,41.78419,-73.69515
4,BcbRx2tTXAIBkW8q6Xb4CQ,Amanda’s Macaron Shoppe,NY,Arlington,12603,39.0,4.5,44 Eastdale Ave N,gluten_free bubbletea desserts,41.710298,-73.866982
12,-G4mI0H6lV1_5I6UwmPguA,Tso's Asian Cuisine,NY,Hopewell Junction,12533,41.0,4.0,1906 Rt 52,chinese asianfusion sandwiches,41.5380044834459,-73.8413468707862
16,a4G-yqNQMXn97vaNG0ArBA,Ichiban,NY,Poughkeepsie,12603,55.0,4.5,702 Freedom Plains Rd,japanese,41.6690635681152,-73.8398284912109
10,sFbzzqw-KY3I1HiVDAfdig,Shimmy’s Açai,NY,Jefferson Valley,10535,1.0,4.0,3633 Hill Blvd,bubbletea juicebars acaibowls,41.33058,-73.80212
13,4jmDzb582KrwBSFU6F-bRw,Twisted Soul,NY,Poughkeepsie,12603,212.0,4.0,47 Raymond Ave,asianfusion argentine bubbletea,41.692246132595415,-73.90086157729864
22,Iygd1pF4-0crf-u4N31DVQ,Little Asia,NY,Fishkill,12524,101.0,3.0,17 Merritt Blvd,japanese sushi chinese,41.5313,-73.89321
24,xDdEyg7wuxmnoW0cgoDQSg,Sushi Village,NY,Poughkeepsie,12603,71.0,3.5,8 Raymond Ave,sushi japanese buffets,41.69574,-73.90099
25,3nlFJf3iA4Gq9e7m51m21A,Tokyo Express,NY,Poughkeepsie,12603,59.0,4.0,8 Lagrange Ave,japanese,41.6928919404745,-73.900214061141
14,Hu57Hg5qRwIsmZyNPz8WDA,Alo Saigon,MA,Westfield,01085,117.0,4.5,116 Elm St,vietnamese bubbletea soup,42.123119354248,-72.7487716674805
31,4xOPFgrVjxKmRPlfKH-Meg,Binh Duong,NJ,Bloomfield,07003,671.0,4.0,61 Belleville Ave,vietnamese,40.7974008,-74.1816965
44,5pTQKdoMv_N1l2q06OFMYg,Empire Nutrition -Montclair,NJ,Montclair,07043,4.0,5.0,598 Valley Rd,juicebars acaibowls healthmarkets,40.84089,-74.20818
26,svXAPghDQ84t86p-Bhh7iA,Rita's Italian Ice,NJ,Bloomfield,07003,31.0,4.0,1066 Broad St,desserts icecream shavedice,40.8281423896551,-74.1870890557766
4,bGOnuGMDf9gVfrrnwOgZSQ,Rita's Italian Ice,NJ,Nutley,07110,22.0,3.5,401 Centre St,icecream desserts shavedice,40.8150996155698,-74.1627255088167
5,nIYdswP9v_SbE4-dqY9PFA,Rita's Italian Ice,NJ,North Arlington,07031,15.0,3.0,50 River Rd,icecream desserts shavedice,40.78726,-74.14474
41,4GZV8h_Sa_jq1hEKF85kkg,Eemas Cuisine,NJ,Orange,07050,4.0,5.0,406 Tompkins St,hawaiian filipino catering,40.7666141,-74.2462922
23,KiPTSHk23by-8Y0PlroGKw,Rita's Italian Ice,NJ,East Orange,07018,14.0,4.0,513-517 Main St,icecream desserts shavedice,40.766221,-74.217565
6,gZNsdzoWMSE2NEnWv77d1Q,Rita's Italian Ice,NJ,Little Falls,07424,16.0,4.0,66 East Main St,desserts icecream shavedice,40.879447,-74.221656
12,8pl9oj0zdSU6X6Gp-Q3mVg,Rita's Italian Ice,NJ,Pequannock,07440,16.0,4.0,225 Newark Pompton Turnpike,icecream desserts shavedice,40.9472124,-74.2892733
17,PcU_Q5odSvZ4NMQNxn0SQg,Junction JT's Food Market,NY,Croton-on-Hudson,10520,21.0,4.5,123 Grand St,asianfusion korean,41.208907,-73.884424
2,qbT4AnuSOl2y4fwLtb_XUQ,Bagels & Deli Express,NY,White Plains,10601,15.0,3.0,38 Westchester Ave,bagels delis sandwiches,41.032759,-73.760998
3,W90fK45NcaehiJLRDsssEw,Panda Garden,NY,White Plains,10601,25.0,2.5,3 S Kensico Ave,chinese,41.0373401,-73.7589609
11,NfHDTc8ZyIlVYiwX6cf6MQ,Bubble Shop,NY,Scarsdale,10583,27.0,4.0,365 Central Park Ave,bubbletea,41.00904,-73.80959
15,O6p1D8Tg0GQyTLIoAAj9nA,The Whale Tea,NY,White Plains,10601,11.0,4.0,148A Mamaroneck Ave,bubbletea,41.02874,-73.76546
24,qIYfsIg4T_V5r9Qq6VVfyw,Hastings Tea & Coffee,NY,White Plains,10601,116.0,4.0,235 Main St,coffee wine_bars juicebars,41.03326,-73.76625
29,N9BcEnfPnsV_1NmsTBiAeA,Flour and Sun Bakery,NY,Pleasantville,10570,71.0,4.0,19 Washington Ave,bakeries bubbletea customcakes,41.1356232,-73.7917719
35,5PfUXP3r33dI2ttKHVKspw,T-swirl Crepe,NY,White Plains,10601,166.0,4.5,151 Mamaroneck Ave,creperies coffee,41.0289985,-73.7649754
37,bpbWWUa0Ol8XZzv9uDabYg,Aberdeen,NY,White Plains,10601,427.0,4.0,3 Barker Ave,dimsum seafood,41.034927,-73.770276
38,dukq5LZu41f6-D5sHMV0_A,The Tasty Table,NY,Ossining,10562,130.0,4.5,21 Campwoods Rd,tradamerican breakfast_brunch,41.16901,-73.8431
40,q64J5ZJjqPlLQU9y1cuD7g,Bibille,NY,Tarrytown,10591,281.0,4.5,14 Main St,korean bubbletea,41.07618,-73.85905
1,g3VmznTxqsJn_tda9t9hMg,The Banh MI Shop,NY,White Plains,10601,226.0,4.0,148 Mamaroneck Ave,vietnamese sandwiches noodles,41.02875,-73.76547
2,OGmE5I5zxTBnKa8X-N_rGQ,Go Greenly,NY,Dobbs Ferry,10522,44.0,2.5,1 Cedar St,icecream bubbletea juicebars,41.014908,-73.870329
4,uSfmEYbZw4_5taheKLGt0g,Saigon Pho,NY,Wappingers Falls,12590,236.0,4.0,1582 Rt 9,vietnamese,41.597578,-73.910487
9,eovnycaUOp_YdXnTfAjSiQ,Taste Of China Chinese,NY,Tarrytown,10591,136.0,3.5,17 Main St,chinese,41.0767,-73.85912
12,b6GIUsckql5_VafI6FPa-A,Asian Wave,NY,Thornwood,10594,110.0,4.0,636 Columbus Ave,sushi asianfusion,41.1140317798627,-73.7703984715469
18,mhIxjP-wjfihK8BTuf-Apw,Noodle Plus,NY,White Plains,10601,295.0,3.5,245 Main St,thai chinese noodles,41.0330189019442,-73.7657408416271
20,7-v1ip-6XTm-GguqfDwyCw,Fantasy Cuisine,NY,Hartsdale,10530,282.0,3.5,20 N Central Ave,dimsum szechuan,41.019325,-73.797458
26,NDScGBCiyo0xcHXr4Po2kg,Asian Legend,NY,White Plains,10601,41.0,3.0,23 Mamaroneck Ave,chinese asianfusion japanese,41.03196,-73.76625
12,6s_BnrbjsQO-bipbLMsb1w,Meet Fresh,NY,Brooklyn,11220,79.0,4.0,5815 8th Ave,desserts bubbletea taiwanese,40.63621,-74.0086
38,MOTZjYcyAwqUhxXIrrfoww,Phil-Am Kusina,NY,Staten Island,10305,154.0,4.5,556 Tompkins Ave,filipino,40.6123064741041,-74.0712469295854
40,DfYC6fNGdGULBYst6UwPJQ,A lil bit of this & a lil bit of that,NY,Staten Island,10310,12.0,4.5,210 Clove Rd,gourmet comfortfood,40.63514,-74.12641
24,v3eUa8OR5npHBXv9VsZxrA,JM Cake Boutique,NY,Brooklyn,11204,51.0,4.5,7211 18th Ave,customcakes desserts bubbletea,40.61475,-73.9944
33,Tjo8JXQzoBwvw_QYicejiw,Ding Food Market,NJ,Harrison,07029,113.0,5.0,241 Harrison Ave,japanese taiwanese asianfusion,40.7461823757412,-74.1584174860186
2,t3Vqhv57cow4LeVqTy-3Ug,Newkirk Fruit,NY,Flatbush - Ditmas Park,11226,25.0,4.0,17 Newkirk Plz,bubbletea juicebars,40.6354599,-73.9626007
22,HZ-wHdT1S1JNi4JRP5tNrQ,Pho BK,NY,Brooklyn,11220,14.0,5.0,5604 8th Ave,vietnamese,40.6377,-74.00747
33,KHCEsOxsqw-XPdJaUrJ__g,OC Dessert,NY,Brooklyn,11220,42.0,3.0,770 56th St,desserts,40.637854,-74.007828
4,kVj4z8a4GUUmiJI0qLyVXg,Ipoh kitchen Asian cuisine,NY,Brooklyn,11204,91.0,4.0,6415 20th Ave,malaysian asianfusion,40.616691,-73.985459
9,5Rm4IBf0uWs1ArYixObz4A,Stand Up,NY,Brooklyn,11204,79.0,3.5,7215 18th Ave,desserts asianfusion bubbletea,40.6146599819009,-73.9944900199771
11,lWG9oP_Gf4uS2AJguFbTEw,Rita's,NY,Brooklyn,11230,10.0,3.5,1317 E 17th St,icecream shavedice,40.61809,-73.95796
26,s63N2t9IwXIABlVXR26CWg,Pho Mac Vietnamese Restaurant,NY,Staten Island,10314,311.0,4.0,1407 Richmond Ave,vietnamese,40.613872,-74.15747
44,xJlMHqnScLobt-Rr44Sotw,Langkawi,NY,Brooklyn,11220,76.0,3.5,5323 8th Ave,malaysian thai,40.63889,-74.00582
16,xCUkWulAEHlbDvPwPZYgtw,New Belacan Restaurant,NY,Brooklyn,11220,88.0,3.0,5918 8th Ave,malaysian,40.6358642578125,-74.0095367431641
17,OMBSBBdzxO97fz9w0wEUFg,PokéBowl Station,NY,Brooklyn,11220,147.0,3.5,6116 7th Ave,poke hawaiian desserts,40.636031,-74.012938
2,offOqje-YecqAsJiZZLzUQ,Tous Les Jours,NY,Brooklyn,11220,62.0,3.0,6003 8th Ave,bakeries coffee desserts,40.63521,-74.00949
22,xahGM3RdrR1x5unoxTjI9w,Rita's - 51st St,NY,Brooklyn,11230,1.0,1.0,1311 51st St,desserts shavedice icecream,40.63378,-73.99286
38,B4Yd3Oh3clZFYh2LTdfdbQ,Leo's Casa Calamari,NY,Brooklyn,11209,195.0,3.5,8502 3rd Ave,italian pizza sandwiches,40.62426,-74.03107
40,isIFCDLE3VIDJcqhVy_klA,99 Favor Taste - Brooklyn,NY,Brooklyn,11220,889.0,4.0,732 61st St,chinese hotpot bbq,40.6355691,-74.0115482
37,xIOCl9RSCrCUMpWVPxhxQQ,You Me and Tea,NY,Port Jefferson,11777,47.0,4.0,45 Chandler Sq,coffee bubbletea herbsandspices,40.946023074451,-73.0694779381156
41,M8yUx8A_9mSovTzgiTUHsw,Kung Fu Tea,NY,Stony Brook,11790,28.0,3.5,1009 NY-25A,bubbletea,40.922609,-73.127571
43,ehsSVl-mrviWUoxN9ua7kA,The Grange,NY,Larchmont,10538,23.0,4.5,158 Larchmont Ave,breakfast_brunch bubbletea sandwiches,40.928595,-73.753239
45,CvZusGEXJy3imHMn4vlVJQ,Arnor Crepes & Bubble Tea Stony Brook,NY,Stony Brook,11790,16.0,4.0,1113 N Country Rd,bubbletea creperies icecream,40.9194894,-73.1297511
49,k85ZclDzKnrAnD53nwxFNw,Slurp Ramen,NY,Port Jefferson,11777,701.0,4.5,109 W Broadway,ramen soup salad,40.94623291,-73.0696078
18,wSNp-OJzSi-I1nrsbs7l4w,Green Tea Restaurant,NY,Stony Brook,11790,123.0,3.5,1015 Rt 25A,seafood szechuan,40.922357,-73.127695
24,dhmat4uE7J-nwenv7Yc6qA,Domo Sushi,NY,East Setauket,11733,108.0,3.5,180 Rt 25A,sushi japanese,40.938871283589,-73.108836539646
23,O8ywmI_PjgKalLB6WBiluA,Yum Ice Cream&Bubble Tea,NY,New Rochelle,10801,49.0,5.0,8 Anderson St,icecream juicebars bubbletea,40.9108799,-73.7807123
35,4Tf397QPrUrhJ38h6YYPRA,Go Greenly,NY,Scarsdale,10583,64.0,4.0,1109 Central Park Ave,juicebars bubbletea icecream,40.986319,-73.826576
42,X7Opl9IQDOJNK1tJplhdXw,Korean BBQ Grill,NY,New Rochelle,10801,122.0,4.5,496 Main St,korean bbq bubbletea,40.909017,-73.7813176
44,IMUyuyZ6WPnCU_CrYamlZg,Cafe L'ami,NY,Yonkers,10710,4.0,4.0,1789 Central Park Ave,bubbletea coffee juicebars,40.959701,-73.8431263748113
7,9RnDnhZUuAzvKMZfA2oD3A,Chatime,NY,Stony Brook,11790,2.0,2.5,,foodtrucks bubbletea,40.9140345118289,-73.1234084442258
11,czp2dfwZ8MK0GwemL_6pWA,H Mart - Yonkers,NY,Yonkers,10710,108.0,4.0,1789 Central Park Ave,grocery korean food_court,40.9601819036675,-73.8426773250103
19,gBoqjD5MTJuGx65QjAhJGg,Bangkok City,NY,Pelham,10803,166.0,4.0,100 Fifth Ave,thai,40.9123096,-73.8089336
22,SNZjma_-Ts9k7vXO6ErJWw,Dumpling + Noodle,NY,Bronxville,10708,285.0,3.5,26 Palmer Ave,noodles panasian,40.9413694,-73.8374813
26,BTb5vGfbgO_BHS7CzY7Nlw,Jasmine Stony Brook University,NY,Stony Brook,11790,57.0,2.5,Charles B Wang Ctr,chinese indpak korean,40.9160421523016,-73.1199359893799
37,gsqZEDmd2AvzJPy8aYC0Bg,Ramen Musashi,NY,Scarsdale,10583,109.0,4.0,816 White Plains Rd,ramen japacurry,40.97586,-73.80246
3,8eAhtV2fd36nGrtvgqc6Bw,Yaaas Tea - Huntington,NY,Huntington,11743,7.0,5.0,347 New York Ave,bubbletea coffee,40.87051,-73.42642
23,DWsca23bYIL2hPHU5IGouA,Möge Tee - Fort Lee,NJ,Fort Lee,07024,180.0,4.5,2029 Lemoine Ave,bubbletea,40.85235,-73.96984
24,ip_fA3yDzIJd6yF0obTH7Q,Gong Cha Bronx,NY,Bronx,10458,5.0,5.0,625 E 187th St,bubbletea,40.85517,-73.88652
25,4p1we2acVk6KIer8iR3Yug,Pearl Dynastea,NY,Bronx,10463,19.0,4.5,3702 Riverdale Ave,bubbletea,40.88695851777492,-73.90704417252006
35,LdeWzWjrV8e_1oFZ5I0v_w,Lucky Penguin,NY,Glen Head,11545,11.0,4.5,675 Glen Cove Ave,icecream bubbletea juicebars,40.8323481,-73.6298649
36,fB2QftugXW1ltthIXWSGPA,Bento & Tea,NY,Yonkers,10704,2.0,5.0,954 B McLean Ave,bubbletea japanese,40.9034907,-73.8663122
40,DtMLmhonf6FCmt3Nworc_A,Gong Cha,NJ,Closter,07624,21.0,4.0,245 Closter Dock Rd,bubbletea,40.97295,-73.96077
42,FoPXzYFHgOn1wUlMbEBTnw,Mochinut - Tenafly,NJ,Tenafly,07670,3.0,5.0,24 W Railroad Ave,donuts bubbletea hotdog,40.9268785,-73.9645831
46,vaTfKRTYoeO1-k3OBULN6Q,Matcha Tea In Heaven,NY,Smithtown,11787,19.0,4.0,52 N Country Rd,coffee,40.85786,-73.18608
49,uQgOX9BSOr03q7kvJfXI0Q,Tami Bubble Tea,NY,East Northport,11731,13.0,3.0,1964 Jericho Tpke,bubbletea,40.83808,-73.33015
0,yrBkOcyjbYg_JByikHtKTQ,Lucky Rolls cafe,NJ,Englewood,07631,64.0,4.0,2 E Palisade Ave,icecream bubbletea coffee,40.8937953113406,-73.9751863674938
1,x88MSPBGenJwktQ4FlcL5A,Kung Fu Tea,NJ,Fort Lee,07024,146.0,4.0,2151 Lemoine Ave,bubbletea coffee juicebars,40.855773,-73.967675
3,BxYEXcjVFYrwGZerFRO5Lg,Kung Fu Tea,NY,West Nyack,10994,35.0,3.5,1000 Palisades Center Dr,juicebars bubbletea coffee,41.097151,-73.9561530650297
4,ky2q6_-iCr7i4P1ipG40LQ,Coco Fresh Tea & Juice,NY,Syosset,11791,34.0,3.5,26 Cold Spring Rd,bubbletea juicebars,40.8260586816766,-73.501163039759
5,rNVGbnraymXL9tVwWwrIvw,Gong Cha,NJ,Fort Lee,07024,58.0,4.0,1630 Lemoine Ave,bubbletea,40.8506348129876,-73.97012013942
6,hF_JZjHeozQU4zT4mFPhbA,Xin Xing Desserts,NY,The Bronx,10462,17.0,4.5,1520 Metropolitan Ave,desserts,40.839308,-73.858289
12,KMp2rILlUcwBg2-hfg13YA,Guerrero's Juice Bar,NY,Yonkers,10705,12.0,3.5,434 S Broadway,juicebars,40.918582779016,-73.8962936773896
15,_f90KJCpan3IHl2Am1earQ,Maui Poke,NY,Commack,11725,54.0,4.5,6162 Jericho Tpke,poke hawaiian,40.8415152,-73.3019312
16,_AcVebavnuB0cAYWEV-osg,Dulce Delights,NY,Glen Cove,11542,22.0,4.0,90B Forest Ave,desserts icecream bubbletea,40.872642,-73.622611
22,y84xrCCIClkxw2ZX-pf7AA,Kung Fu Tea,NY,New York,10032,37.0,3.5,4053 Broadway,coffee bubbletea juicebars,40.84303,-73.9394
23,vfqn_rZ2N1TSo8SwO1rXhw,Zai’s Dessertery - Cresskill,NJ,Cresskill,07626,4.0,5.0,22 Union Ave,desserts icecream macarons,40.941829,-73.961653
25,p4TERLi-Oqc5-M2pIsBvtw,15 Flavors,NY,New York,10461,25.0,3.5,1763 Crosby Ave,icecream bubbletea juicebars,40.8466751,-73.832048
26,qvXUXFKijyprAOMtxRGyGQ,Mei Mei,NY,Bronx,10468,46.0,3.5,2831 Grand Concourse,chinese bubbletea,40.87028,-73.8915
27,Qzi4zhVsIsTlE76qgMfz_Q,Zabb Thai Kitchen,NY,West Nyack,10994,2.0,5.0,724 W Nyack Rd,thai salad soup,41.0943177092791,-73.96862260000002
34,ug7LrvC4foM9f2WyJUkt3A,Marinade,NJ,Norwood,07648,63.0,4.5,544 Livingston St,korean chicken_wings asianfusion,41.0002152,-73.9530759
35,7o91_Xk3eceFnGRk3PvTDA,Juice Up,NY,Bronx,10452,16.0,4.0,1584A Jerome Ave,juicebars acaibowls bubbletea,40.844345,-73.91427167
37,yU-ZxFJIDSgEoNbpqyPdRw,Narinatto,NY,Port Washington,11050,49.0,4.0,5B Irma Ave,asianfusion diners korean,40.83097,-73.68856
40,rdIyz5KXryJ5BiDfM3suhw,YoSweets,NY,New York,10033,39.0,3.0,756 W 181st St,desserts icecream,40.8506203,-73.9377747
45,v3BJ71AzK8tpSI8MpgNKFg,TAO HAUS,NJ,Closter,07624,115.0,4.0,272 Closter Dock Rd,dimsum noodles bbq,40.97131,-73.96008
46,jVuj54_J9z0w9DjKPoUK2g,China Mia,NY,Bronx,10467,48.0,4.0,2232 White Plains Rd,chinese,40.8581892,-73.8675759
49,gTngYFmhXch3Gk-9_YuIRQ,Juice Rite,NY,Bronx,10462,16.0,3.0,1274 Castle Hill Ave,juicebars,40.83405,-73.85139
0,NSSINPz7_s65pFBS2iZFjQ,T-Swirl Crêpe,NJ,Fort Lee,07024,228.0,4.5,244 Main St,creperies gluten_free desserts,40.8517874032259,-73.9719611406326
1,E2pLus5pOMwr-w9FK5_ZbQ,Mochinut,NJ,Norwood,07648,54.0,4.5,450 Livingston Str,donuts hotdog,40.99738656449265,-73.9548561
4,2d-Nr8FpvoJP7qx-QiQ5Mg,Roc N Ramen,NY,The Bronx,10473,55.0,4.0,606 E 187th St,caribbean ramen noodles,40.85531,-73.88738
5,LDjwvqad4MubqBk58A7fHw,Rakkii Ramen,NY,Smithtown,11787,128.0,4.5,97 E Main St,ramen noodles,40.8559930927,-73.190744172
7,thq3C0yeUm2i0pCHKOm4mg,Zabb Thai Kitchen,NY,West Nyack,10994,6.0,5.0,724 W Nyack Rd Suite,thai,41.09439,-73.9686
12,85y2x_yaBAEGDtwkhqe6ug,Loong Xin Asian cuisine,NY,East Bronx,10466,20.0,4.0,670 E 233rd St,japanese thai chinese,40.8935462028793,-73.8584990054369
13,PoKmg-C-oSdA9oI0gFnNEg,Bunsik Fort Lee,NJ,Fort Lee,07024,3.0,4.0,247 Main St,korean,40.85216,-73.97206
14,NebgteFykeM1gwiVgPcCHw,The Handpulled Noodle,NY,New York,10031,1011.0,4.0,3600 Broadway,chinese noodles,40.828384,-73.948674
15,C3spvfEd8JQJie-yixRgpQ,Com Tam Ninh Kieu,NY,Bronx,10468,474.0,4.0,2641 Jerome Ave,vietnamese desserts coffee,40.86702,-73.8982
16,OBQ2IKvREm5oW6_uu-v_uw,Shangerila Restaurant,NY,Bronx,10461,261.0,3.0,2893 Buhre Ave,sushi buffets seafood,40.847301,-73.8330438
17,v3qL3KqFJYuS_3rCsgpuXQ,Rain II,NY,New York,10032,180.0,3.5,1095 St Nicholas Ave,thai,40.838382,-73.940054
18,tx-gxkns4uFyve7Eu5mYKA,Tana Thai,NY,Bronx,10461,209.0,3.0,1890 Eastchester Rd,thai,40.8513635,-73.8439993
19,_NVvlHZ6RUKADvZvcrBjKw,Fresh Tortillas,NY,Bronx,10461,54.0,3.5,2123 Williamsbridge Rd,japanese chinese tex-mex,40.8559418,-73.8558273
20,guFvJCuSYac1d607Je1brQ,Aki Japanese Cuisine,NY,East Northport,11731,120.0,4.0,2074 Jericho Tpke,japanese sushi,40.838493,-73.32521
21,WZwsWjcFILSyx7ii-Nrl8A,Sake II,NY,Bronx,10458,68.0,3.0,690 E 187th St,japanese sushi,40.85411,-73.88473
23,dk8T-DRrBWeZXUUm_mbdwQ,Mr.Q's,NY,Bronx,10461,92.0,3.5,2115 Williamsbridge Rd,chinese bars japanese,40.8557802,-73.8558213
26,_3KZcY3apoAwH_9wTXp4OQ,Linda's Pizza,NY,Bronx,10457,20.0,3.5,729 E Tremont Ave,pizza,40.84507,-73.89014
27,Pysmvb6_b0aFU_-3N50O-A,Juice Rite,NY,Middletown - Pelham Bay,10461,32.0,3.5,3042 Buhre Ave,salad juicebars breakfast_brunch,40.8470617748617,-73.8317152027474
28,HGm3itKMaPIjUd-_qPICcQ,AKS Halal Deli & Grill,NY,Norwood,10467,26.0,2.0,319 E 204th St,halal hotdogs grocery,40.872757,-73.877884
30,jjmwO_fSM4xjvt2vmX9NbQ,My Pizza,NY,Bronx,10453,44.0,2.5,1723 University Ave,pizza burgers chicken_wings,40.849785,-73.9168998
33,Mc-uTqSARIIvdE8Jn8a5Yw,Amy's Restaurant,NY,New York,10034,114.0,3.5,586 W 207th St,chinese,40.86701,-73.92097
36,oJtepqd05qirG0kPpapEFw,Golden Phoenix,NY,Bronx,10471,43.0,2.5,5646 Riverdale Ave,chinese,40.90562374271547,-73.90424189040809
37,A2OkNFvMNyuaEgRx6wcobg,Ramen Azuma,NJ,Englewood,07631,266.0,4.0,39 S Van Brunt St,ramen,40.8930197731678,-73.9765897346638
38,jLe1SQFcZ3Om-OEn58KJyQ,Sushi Palace,NY,Commack,11725,66.0,3.5,1141 Jericho Turnpike,sushi,40.8466751263425,-73.2645328293275
39,MWtBVRNZwahTwr9wniDqyA,Ikedo Ramen,NY,Port Washington,11050,70.0,4.5,983 Port Washington Blvd,ramen tapasmallplates,40.829901,-73.683615
41,OH-tJdhXFZW4A9xYCpBiwg,Sunmerry Bakery,NJ,Fort Lee,07024,41.0,4.0,2024 Center Ave,bakeries bubbletea coffee,40.85257335761997,-73.9714327
42,jmF92hmt2tmrdAdjzdl1Qw,Splash Poke,NJ,Fort Lee,07024,87.0,4.0,1605 Lemoine Ave,poke hawaiian japanese,40.849152,-73.970905
43,5hOsofy2nQiVSUdovxEnQg,Wayback Burgers,NY,East Northport,11731,85.0,3.5,1964 Jericho Turnpike,hotdog burgers tradamerican,40.838126,-73.330172
44,kudtMrj5jk4YKFS1P8RzYQ,Poke Station,NY,New York,10032,18.0,3.5,4053 Broadway,poke bubbletea,40.84303,-73.9394
45,HvwzpovfVUYPxWR6nogX-g,Golden Chef,NY,Bronx,10461,19.0,4.5,1632 Crosby Ave,hotdogs chinese,40.8449738353256,-73.8306849996683
46,gHJ5FxwrxRhZw1CQxxc3Pw,Makana,NY,New York,10033,38.0,3.5,1329 Saint Nicholas Ave,poke hawaiian,40.84643,-73.93606
47,XHY--nkIkINrRTthKG_BFA,Sweet Harvest Smoothie Shoppe,NY,Cold Spring,10516,9.0,4.0,82 Main St,juicebars,41.418144040506554,-73.9580861
48,CSmGpzkX0rqaJ4RIj8KbZQ,Mr. Wok & Sushi,NJ,Tenafly,07670,94.0,3.0,1 Highwood Ave,chinese sushi japanese,40.92598,-73.96388
49,7Ga0ZBa-92OfiifPIVW98A,Perista Cafe,NY,New York,10040,18.0,2.5,158 Dyckman St,breakfast_brunch coffee bagels,40.8633321,-73.92612
1,vQe7_ZW_jBSWKtgSiXGIOA,Soup Dumpling Plus,NJ,Fort Lee,07024,1101.0,4.5,1550 Lemoine Ave,shanghainese,40.84757,-73.9706099
5,LDAiAv-Ms2H5DllklIytfw,Tous Les Jours,NJ,Fort Lee,07024,14.0,3.0,112 Linwood Plz,bakeries coffee desserts,40.8609649599249,-73.9705552216258
6,4IvzF466N4PFl4xf4ZOAGQ,H Mart - Fort Lee,NJ,Fort Lee,07024,105.0,4.0,112 Linwood Plaza,grocery korean food_court,40.8612004964379,-73.9708035066035
7,sCbkm45j6pKBpq8gxd12LA,Pho Today,NJ,Fort Lee,07024,232.0,3.5,2151 Lemoine Ave,vietnamese,40.85637629,-73.96725253
0,YukoC_D1gpBGDT_APTmcwQ,Meet Fresh,NJ,Edison,08817,63.0,4.0,1727 Route 27,desserts,40.512452,-74.407893
1,fSJE-v3aIVLdS6joW683PA,CafeTeasia,NJ,Cranford,07016,89.0,4.5,1 S Ave E,bubbletea coffee desserts,40.65469,-74.30495
2,p9sdHlPEYp7buL3EmF_xaw,Bao Dumplings & Bao Tea,NJ,Hazlet,07730,61.0,4.5,1358 State Rte 36,bubbletea dimsum noodles,40.42963,-74.18758
3,DhDo4mpM5JqY2anhdHX3Ww,Melao Cafe & Creamery,NJ,Rahway,07065,83.0,4.5,1425 Irving St,icecream cafes sandwiches,40.6065362640869,-74.2756219001525
4,xrWfNsqeU8arU8wKIrkv4Q,Mango Mango - Edison,NJ,Edison,08817,262.0,4.0,1729 Lincoln Hwy,desserts icecream waffles,40.5125398227457,-74.4077878006904
6,cOoo_1FquqdCAO2fzmtx4A,Paris Baguette,NJ,Edison,08817,384.0,4.0,1739 State Rte 17,bakeries coffee cakeshop,40.51291746869606,-74.40828495375088
7,9Vp7QwQDA46i_BsGC3CbFQ,Kona Ice of Central Morris County,NJ,Parsippany,07054,1.0,5.0,,shavedice foodtrucks,40.86204,-74.40612
8,3wZMhVFYJkP8xhdNYaUvVg,Cafe Zio,NJ,Edison,08817,125.0,5.0,252 Plainfield Ave,bubbletea coffee icecream,40.5133895874023,-74.4033126831055
10,OmDufNiCb_VZvuMmTc_KNA,Bulbap Grill,NJ,Marlboro,07746,177.0,4.5,280 Rte 9 N,korean asianfusion shavedsnow,40.342136,-74.305221
11,51Xq1pj1ebobbY-Kgyxw3A,Bubble in Paradise,NJ,Denville,07834,59.0,4.5,38 Broadway,bubbletea juicebars shavedice,40.892303,-74.476839
16,paclKOhZkNRJkzFs_vOuwQ,Fruity Yogurt,NJ,Hillsborough,08844,50.0,4.5,424 Rt 206 S,icecream bubbletea shavedice,40.505131,-74.644339
18,PbKf8PTR9D8X9c6yoHU4SA,The House of Poke,NJ,Old Bridge,08857,270.0,4.0,4024 Rte 9 S,poke desserts bubbletea,40.3633055,-74.3053049
19,ZBsL0sJDDYiW_WlAhmykLQ,Jersey Sno,NJ,Hightstown,08520,1.0,5.0,,catering foodtrucks shavedice,40.266529083252,-74.5249328613281
23,k0rgC1UdwEe3pm76dlbvJw,Super Scoops,NJ,Parsippany,07054,39.0,4.5,325 Parsippany Rd,icecream desserts shavedice,40.8550188,-74.4270782
24,xmAosRr4LAu-uU3J7lc7PA,Fruity Yogurt,NJ,Princeton,08542,179.0,3.5,166 Nassau St,icecream bubbletea shavedice,40.35094,-74.65661
25,n1DUe9ItIlnuqUssG8j9Sw,Fusion Ti,NJ,Edison,08817,150.0,3.5,501 Old Post Rd,bubbletea asianfusion juicebars,40.5154,-74.3786
26,m58nsEI5G0l3qcgZoy9urw,Mars Tea,NY,New York,11214,33.0,4.0,2037 86th St,icecream bubbletea juicebars,40.60414090608403,-73.99715547041212
31,Z2wEFjq2e5utSoHAfsaQVQ,Red Onion,NJ,Edison,08817,211.0,4.0,260 Talmadge Rd,taiwanese chinese,40.5417054,-74.3981205
33,X6-jTrYB8EMU3bz1_bDDOg,Dan Zai,NJ,Green Brook Township,08812,232.0,4.0,299 US-22,sushi ramen,40.5899052108308,-74.5000356944174
34,2vvRasjheGe_9Fsc4v92Sw,Tous Les Jours,NJ,Edison,08817,48.0,4.0,1761 Lincoln Hwy,bakeries coffee desserts,40.513468,-74.407653
36,epS--4_G-fqdgjkQn2jqPA,Coco Asian Cuisine Restaurant,NJ,Edison,08817,324.0,4.0,1803 Lincoln Hwy,malaysian thai asianfusion,40.514082,-74.404599
42,Jiowa5JuV3nQQyUyKOscUw,Ralph's Italian Ices,NJ,Lincroft,07738,7.0,5.0,607 Newman Springs Rd,icecream juicebars shavedice,40.33071,-74.11808
43,qWhjtlqZzDQY_e6r3Fb5Eg,Frozen Flavors Homemade Ice Cream & Italian Ice,NJ,North Middletown,07748,1.0,5.0,490 Palmer Ave,icecream shavedice,40.43376,-74.13141
44,b-66j0jyXSZMKwgW8rqLKA,ViVi Bubble Tea,NJ,New Brunswick,08901,39.0,4.0,6 Easton Ave,bubbletea,40.4967719814979,-74.4472103122739
46,8DonQEh8faGXHn3LboYyFg,Pokébowl Station,NY,Staten Island,10306,16.0,4.0,331 New Dorp Lane,poke bubbletea ramen,40.5715,-74.11144
5,M_i3UBpgyYVGEXM6XQoujw,Kuay Tiew Noodles & More,NJ,Somerville,08876,275.0,4.5,42 W Main St,thai noodles,40.56888998872064,-74.61286336158386
10,ybZ0Coi8uvZviWJk4vnLYw,Leo's Barbecue,NJ,South Plainfield,07080,44.0,3.5,4947 Stelton Rd,filipino,40.5509103911214,-74.4294885245775
11,op69XtamP51D33GC8ZuCNw,Rita's Italian Ice,NJ,Edison,08817,6.0,4.0,2303 Woodbridge Ave,icecream desserts shavedice,40.5032522060599,-74.3886145565267
18,GTvFnkFZv3ctZz1dMFgwhA,Yogurt Dojo,NJ,East Brunswick,08816,16.0,1.5,755 State Route 18,icecream bubbletea shavedice,40.4237846256044,-74.3827175252198
19,9RKUVkzLmZgGJUi2l5VJvg,Ralph's Famous Italian Ices,NY,Staten Island,10306,23.0,4.0,2361 Hylan Blvd,icecream juicebars,40.573565,-74.1071
20,m7va7-30tTYEccRq6uxc_Q,Penang Malaysian & Thai Cuisine,NJ,Princeton,08540,283.0,3.0,635 Nassau Park Blvd,thai malaysian,40.300820690479,-74.678984007236
22,dbGmJsan92Gllib8X46xgw,The Dog House,NJ,Keansburg,07734,3.0,2.5,369 Carr Ave,hotdog shavedice,40.44217,-74.13195
24,0aAJxKYZdgQxD7oznXnc4w,Something Sweet,NY,Staten Island,10306,121.0,4.0,314 New Dorp Ln,icecream desserts bubbletea,40.57155,-74.11216
32,kFOPzb5yLnE83gB7U3VoOA,Kung Fu Tea,NJ,Princeton,08542,157.0,4.0,80 Nassau St,bubbletea coffee juicebars,40.349671,-74.6602873
33,_yIN5PPNJ05YKPKuF9KkbQ,Saigon Subs & Café,NJ,Morristown,07960,442.0,5.0,98 Elm St,vietnamese bubbletea sandwiches,40.796422,-74.474255
38,T4yKvlaCm0Y3TeWc2Or5Mg,Bollywood Grill,NJ,Lake Hiawatha,07034,305.0,4.0,435 N Beverwyck Rd,indpak hotdogs sandwiches,40.876017624730835,-74.38157512947225
41,cwXvPZTb0SzV-bISkkQPwA,Rita's Italian Ice,NY,Staten Island,10314,4.0,4.5,2655 Richmond Ave,shavedice desserts icecream,40.581804,-74.16613
46,blQhf-nMBBp0O2wRXBkyeg,Malay,NJ,Morristown,07960,267.0,4.0,147 Morris St,thai malaysian asianfusion,40.7965176,-74.4744841
47,-vs6u1s7nQ6qjCKzjxzNDw,Pho Today,NJ,Bridgewater,08807,279.0,3.5,623 E Main St,vietnamese,40.56383922,-74.57720779
49,XnBKN38V-V-ErN0g-0eCTw,Penang Malaysian & Thai Cuisine,NJ,East Hanover,07936,460.0,4.0,200 Route 10 W,thai malaysian,40.8093879,-74.3753335
6,1NtYAzPlx0AOcsOxhv2XFw,Don Beto's,NJ,Long Branch,07740,9.0,5.0,20 Memorial Pkwy,salvadoran hotdogs,40.3039489443081,-73.9854741096497
14,ifle3S6i_q3L6s9j7tbFMg,Rita's Italian Ice,NJ,Franklin Park,08823,17.0,4.0,3175 Rte 27,icecream desserts shavedice,40.4349276884301,-74.5446574397102
29,vEn8MGxD1cKXJ3-L4EGUZQ,Rita's Italian Ice,NJ,Union,07083,18.0,4.0,1353 Stuyvesant Ave,icecream desserts shavedice,40.70262,-74.26301
33,DtsNsDG7RWl54brmF0bMMA,Rita's Italian Ice,NJ,Manalapan,07726,11.0,3.0,342 Route 9 N,desserts shavedice icecream,40.310347,-74.303474
38,KvyBzPAQZX71Yxd9Yf9zGg,Noches de Colombia,NJ,Randolph,07869,262.0,3.5,140 Route 10 W,colombian spanish bars,40.874144,-74.539645
39,KBidOWz0clYioxvlmUsOKw,Cinders Wood Fire Grill,NJ,Mine Hill Township,07803,241.0,3.5,319 US-46,bars italian breakfast_brunch,40.88020802932819,-74.60716923917002
42,Ns8_SJw1cTUM2Uc7BIHY9w,Penang Malaysian & Thai Cuisine,NJ,Edison,08817,495.0,3.5,505 Old Post Rd,malaysian thai chinese,40.5154075622559,-74.3781127929688
46,znogFSET5dXyp75DSe12tQ,Rita's Italian Ice,NJ,Old Bridge,08857,16.0,3.5,2535 Route 516,icecream desserts shavedice,40.40407,-74.32558
49,p7QwIzWXMBYwCGdS6V36tg,Rita's Italian Ice,NJ,Berkeley Hts.,07922,17.0,4.0,412 Springfield Ave,icecream desserts shavedice,40.6855185,-74.43836
6,-xvb428_p1yGRAH45ROvUg,Rita's Italian Ice,NJ,North Brunswick,08902,9.0,2.0,574 Milltown Rd,desserts shavedice icecream,40.46612,-74.45344
7,mhNukHKqaFUkDq1HWI8iTA,Cali Burger,NJ,Elizabeth,07201,47.0,3.0,1127 Elizabeth Ave,hotdog burgers,40.6623802185059,-74.2125854492188
9,maWgdIn9MJZJgxJvxk1vrQ,Ralph's Italian Ices,NJ,Hazlet,07730,11.0,4.0,1729 Union Ave,icecream juicebars shavedice,40.424595,-74.160124
25,yPYXtHmGzQ_H_wCgdV791A,Rita's Italian Ice,NJ,Union Beach,07735,9.0,4.0,865 Hwy 36,desserts shavedice icecream,40.43808,-74.16771
30,u3ZX9LGb1gwtGZ-n-9tmpA,Brisas Empanadas,NJ,Elizabeth,07208,3.0,4.5,308 Morris Ave,colombian empanadas coffee,40.66883,-74.21824
33,DzudMRbtpg8WVCS88GjIBw,Monchy's Colombian Grill,NJ,Elizabeth,07208,50.0,3.0,330 Morris Ave,colombian,40.6695020003151,-74.2186459703036
0,SFMXWRn3wy8Og_AOW0lQqw,Rita's Italian Ice,NJ,Eatontown,07724,11.0,3.5,76-C Hwy 35,icecream desserts shavedice,40.3000956813144,-74.0572840472717
1,lQc6KDq-B66P5agA7VroQQ,Rita's Italian Ice,NJ,Bridgewater,08807,18.0,4.5,1359 Prince Rogers Ave,desserts shavedice icecream,40.5880314,-74.6126259
3,3V3vPcAMloLwpKg13Z5kAQ,PokéBowl Station,NY,Brooklyn,11214,141.0,4.0,2037 86th St,poke bubbletea salad,40.60413,-73.99715
5,njqyJyepyq7g1AbvsPsJfA,Rita's Italian Ice,NJ,Roselle,07203,8.0,3.0,108 Chestnut St,desserts shavedice icecream,40.6595299,-74.26397
25,RWx1P9ZiPbO0m1kuHE79Iw,Rita's Italian Ice,NJ,Plainfield,07062,10.0,4.0,111 Terrill Rd,icecream desserts shavedice,40.6424154,-74.4055213
27,u51XJ74mEjRvyjZBZ99b1Q,Rita's Italian Ice,NJ,Hopelawn,08861,5.0,3.0,201-205 New Brunswick Ave,desserts shavedice icecream,40.5245036800685,-74.2980808220901
39,ZLZswviJ0CSX5ZeQFSO2sQ,Pho Vietnam,NY,Brooklyn,11229,336.0,4.0,1243 Ave U,vietnamese,40.598733,-73.958544
49,m_MifFxQmDkG3-kBkhtYBg,Rita's Italian Ice,NJ,South Plainfield,07080,10.0,2.5,1901 Park Ave,icecream desserts shavedice,40.59697,-74.4005899
7,2DmjDXq2ipEhHzVN-96c6Q,Urban Pops NY,NY,Brooklyn,11223,1.0,1.0,1901 Ocean Pkwy,icecream gelato shavedice,40.60228,-73.96581
26,wLwmVW6-uzRciuWUOOiTug,Monchy's Colombian Grill,NJ,Dover,07801,34.0,2.5,19 Bassett Hwy,colombian,40.885074,-74.559416
34,6YH_etEV_xxf5_Xo4qDjcg,Rita's Italian Ice,NJ,Middlesex,08846,14.0,4.0,1250 Boundbrook Rd,icecream desserts shavedice,40.579856,-74.501218
46,LsJXLiK8NW6KQZQPvzF_Vg,Rita's Italian Ice,NJ,Hillsborough,08844,4.0,3.0,381 Triangle Rd,icecream desserts shavedice,40.518797,-74.632786
47,8EIpsdwCs5mpUPXgDHijAA,Rita's Italian Ice,NJ,Piscataway Township,08854,4.0,5.0,1297 Centennial Ave,desserts icecream shavedice,40.5528149753809,-74.4419606029987
1,TffPnIdhkEIQuNFIF5x9bw,Rita's Italian Ice,NJ,Parlin,08859,14.0,4.0,3310 Washington Rd,icecream desserts shavedice,40.470154,-74.302925
14,bDkpPJoEI_bKFvhIhaa26g,Rita's Italian Ice,NJ,Irvington,07111,5.0,3.0,693 Lyons Ave,icecream desserts shavedice,40.7208099365234,-74.2312088012695
0,hnOJhH4iADIVogPC22CYEA,Surreal Creamery,NJ,Westfield,07090,6.0,4.5,130 E Broad St,icecream bubbletea desserts,40.651015581912134,-74.34885707362179
1,I2-vFPeZbHjD3QKoP2LjZg,Yestoday dessert bar,NJ,Clark,07066,3.0,4.5,1255 Raritan Rd,juicebars icecream bubbletea,40.63093337331635,-74.30701148222023
3,aCFbCwNM6j5PsMpQpGc0yg,Yo Delight,NJ,Woodbridge,07095,35.0,4.0,82 Main St,icecream bubbletea creperies,40.55445,-74.27989
4,bVqSlCHtxfSsjWPyrnPPDA,I bubble tea & cafe,NJ,Cranford,07016,24.0,4.5,109 Walnut Ave,bubbletea,40.65402,-74.304143
5,RVT0U_Erzc672JH1aTmMuQ,Gong Cha,NJ,Edison,08837,18.0,4.5,1199 Amboy Ave,bubbletea,40.534912,-74.346456
6,JptXuKtewl37OLgpr7Z8iw,Real Fruit Bubble Tea,NJ,Woodbridge,07095,8.0,3.0,250 Woodbridge Center Dr,bubbletea juicebars,40.556574,-74.298318
7,Y8c19yAUoYJbtJdtIHRY5Q,I Love Bubble Tea,NJ,Woodbridge Township,07095,1.0,3.0,326 Woodbridge Center Dr,bubbletea,40.5562463818914,-74.2979772761464
8,-hstJpfr8nZLZHGXOI97ww,Real Fruit Bubble Tea,NJ,Edison,08837,13.0,3.0,55 Parsonage Rd,juicebars bubbletea coffee,40.54791267267883,-74.3348845
9,dUbbIlPms0Mfa3gYtyFtVQ,Yo Bubble,NJ,Woodbridge Township,07095,4.0,3.0,250 Woodbridge Center Dr,bubbletea,40.557203,-74.301401
10,eDRSevocSLUp-jomsORstw,Pho Minh's,NJ,Linden,07036,316.0,4.0,430 N Wood Ave,vietnamese,40.63284,-74.2566917
11,aw48wMOoqi4mVyH-0XyzAA,Manna Sushi,NJ,Woodbridge Township,07067,52.0,5.0,537C Inman Ave,japanese sushi juicebars,40.598616,-74.324699
