,id,name,state,city,zip code,review count,rating,address,categories,latitude,longitude
0,gH3hkR2LkgTfW5xeRqQa2g,Stevie D's House Of Freeze,MS,McComb,39648,1.0,5.0,300 S Broadway,shavedice,31.2405962153686,-90.4529233494085
1,94NWaiEvhB0NSLmZdUHQNQ,SnowHaven Snowballs,MS,Brookhaven,39601,1.0,5.0,307 US Hwy 51,shavedice,31.5864661087972,-90.4569356271487
2,7ig9-YLYQqN5AzrINyH8Tw,Conni Cone Snowballs,MS,Hattiesburg,39402,6.0,5.0,4888 Old Hwy 11,shavedice,31.286,-89.414
3,i6vpl9mUz57ci4EHu_oQGQ,Snobiz,MS,Jackson,39211,5.0,4.0,6230 Old Canton Rd,shavedice juicebars icecream,32.386178569214,-90.1144770178604
4,isA7rUYuv5eE0k8rurC4qA,Pookies Shaved Ice,MS,Florence,39073,3.0,3.5,132 S Church St,shavedice icecream,32.15212,-90.13037
5,wXJZQYvDzU2_l5ahDQ1d-w,Nannie Mac’s Snowballs,MS,Hattiesburg,39401,4.0,5.0,3803 W 4th St,shavedice icecream,31.3357272223397,-89.345354418966
6,yZtVqpXpMzNRZTZaIXaJGw,Dukes,MS,Hazlehurst,39083,1.0,5.0,28057A Hwy 28,desserts shavedice gourmet,31.87509,-90.40551
7,Ct5FELcmlJN4DwIzfrM8kg,The Snoasis,MS,Brandon,39042,1.0,5.0,212A E Government St,shavedice,32.272693479354466,-89.98454032332256
8,kfdYHs7v5JeOwdnIfj8ZEA,Sno Biz,MS,Brandon,39047,4.0,4.0,1123 Old Fannin Rd,icecream shavedice,32.3815017755694,-90.0424723303261
9,0P0Olpi9vGAGgYuYvO-1BA,Kona Ice,MS,Flowood,39047,1.0,1.0,,shavedice,32.33121109008789,-90.1085205078125
10,ckqqrPutagSJAVgzCETObw,Bop's Frozen Custard of Brandon,MS,Brandon,39042,12.0,5.0,1390 W Government St,shavedice icecream juicebars,32.28428786823327,-90.01575752944777
11,Ic73sY5iv37Is3z7KhhbRw,Ridgeland Coffee Co.,MS,Ridgeland,39157,4.0,5.0,377 Highway 51,coffee shavedice juicebars,32.4199608,-90.1348436
12,ktKKyATW2yUVs9ua2ZpIzw,CrawBillys on the Tracks,MS,Pelahatchie,39145,17.0,4.5,109 1st St,burgers seafood cajun,32.312357,-89.79965
0,dyxBS61EojAyoFLoLSPXWQ,Asian Cafe,MS,Hattiesburg,39401,45.0,4.0,109 S 31st Ave,asianfusion,31.3236099133,-89.3355585801508
1,g2b9B2-B6cRyMhcxi4Qydg,Ice's Corner,MS,Flowood,39232,31.0,3.5,376 Ridge Way,bubbletea icecream,32.3414275,-90.06508567
2,t5pV4PpKjPcz6M664nwoSw,King Kong Milktea & Smoothie - Fusion Kitchen,MS,Ridgeland,39157,12.0,4.0,6967 Old Canton Rd,juicebars asianfusion bubbletea,32.413693403191125,-90.10648503899574
3,G817S1JLhXntOPn1Xhau3Q,Equinox Coffee,MS,Hattiesburg,39401,22.0,4.5,1901 Hardy St,coffee,31.32517,-89.31935
4,UkAUbtmGz4GO_3dvRRjf9g,O Hashi Sushi,MS,Jackson,39211,9.0,4.5,1200 Eastover Dr,sushi japanese bubbletea,32.34328,-90.15724
5,N4YQcWUesK54KCPhF3iTeQ,Sugar Magnolia Takery,MS,Flowood,39232,44.0,4.5,5417 Hwy 25,bakeries salad breakfast_brunch,32.350589,-90.031596
6,0WRuSA9rWKEZFzMHf3OSrw,Wok N Roll,MS,Clinton,39056,25.0,3.5,103 Hwy 80 E,chinese noodles bubbletea,32.3339962931012,-90.3264640632522
7,i8Ciihgkw1mAvtRgui_haQ,Pho Huong,MS,Ridgeland,39157,100.0,4.5,6547 Old Canton Rd,vietnamese noodles soup,32.4009576835231,-90.1087649166584
8,3HrGBlBIyUAEUWXSFCwkuQ,Mr Chen's - Jackson,MS,Jackson,39206,128.0,4.0,5465 Interstate 55 N Frontage Rd,chinese,32.377212,-90.149499
9,kdEQOw2-zRiRghL77dy38A,Bangkok Thai Cuisine,MS,Richland,39218,11.0,3.5,1055 Hwy 49 S,thai bubbletea,32.218031,-90.15479605026245
10,ZG4csABa9KY0EF-2WuBYzw,Pho Saigon Vietnamese Cuisine,MS,Hattiesburg,39401,41.0,4.0,2902 Hardy St,vietnamese,31.323965,-89.333094
5,aVEzn9LTlr22EEwXuPGa5A,Sno@Joe,MS,Madison,39110,1.0,4.0,238 Weisenberger Rd,coffee shavedice juicebars,32.51186,-90.08652
3,af_rMvz-h6cD7o_SUevkrg,Caffe Paradiso,MS,Vicksburg,39180,34.0,4.0,3401 Halls Ferry Rd,cafes,32.3143312639991,-90.8747456544129
9,ifMBiCXNjnYaySRoyWeBoA,Fusion Cuisine,MS,Madison,39110,58.0,4.0,1030 A Hwy 51,japanese thai,32.46134015224554,-90.11035666481855
0,cV0-CFIskzUfAZDHoi-hUw,Summer Snow,MS,Laurel,39440,1.0,5.0,3110 Audubon Dr,shavedice,31.7287,-89.13944
1,3mt8PY9Syst8ydbgBt0pbA,Kassy's Kones & Concessions,MS,Laurel,39443,1.0,5.0,Pine Tree Dr,shavedice icecream foodtrucks,31.691358,-89.136813
11,_rX79iYWJWMIxBJcZHVieg,A&M Chicken,MS,Enterprise,39330,1.0,5.0,300 E Bridge St,chicken_wings shavedice breakfast_brunch,32.1758176867241,-88.8116393987146
3,Iy16J0R0ql92PmrJAX_9_A,Sno Biz,MS,Meridian,39301,7.0,4.5,516 Highway 19 S,shavedice icecream coffee,32.3641416713538,-88.6655818612726
0,wad5xXhYbNaZMG3RPg88UQ,Thrive Juice Lounge,MS,Grenada,38901,1.0,5.0,1730 Commerce St,juicebars bubbletea acaibowls,33.7651565,-89.8088151
0,60lXZaU6Iouc9q3m96mSBQ,Tyummi Cafe,MS,Starkville,39759,8.0,4.0,329 MS-12 E,juicebars soup bubbletea,33.45305217791589,-88.82391406925557
1,BFOmNxWynoSsFLGkyBy5AQ,Coffee House On 5th,MS,Columbus,39701,28.0,5.0,111 5th St N,coffee bakeries,33.495618,-88.4284772245369
2,f02cTmabjmHhSVcHPqCL9w,Thai Siam,MS,Starkville,39759,79.0,4.5,303 Dr Martin Luther King Jr Dr E,thai,33.4662624025097,-88.8125832675832
2,Sf4NoeG-G32gFGKpgdyiYQ,Sno Biz In Saraland,AL,Saraland,36571,4.0,4.5,412 Hwy 43 S,shavedice icecream,30.8127497881651,-88.0712563544512
3,QgPN7DSKwI2IYNwYkGar3A,Jennifer's Lil Alaskan Snowball Shop,AL,Prichard,36610,6.0,5.0,1819 W Main St,shavedice,30.7406880898022,-88.0958900441722
5,u12xSwfLUDXB1VTEraJeoA,Snow Boogers,MS,Perkinston,39573,15.0,4.0,1030 King Bee Rd,desserts shavedice icecream,30.811864,-89.054242
5,e0cVf41mFkLc2EyVHynkOQ,Ellen's Snowballs & Old Fashioned Malts,LA,Covington,70435,2.0,4.5,78495 Hwy 437,tradamerican shavedice icecream,30.5763692,-90.0760242
6,vM3ugZhLH5aVLIbZ-hCDbQ,Grandkids Snowballs,MS,Perkinston,39574,1.0,5.0,29557 Hwy 603,shavedice,30.60389,-89.41273
3,DwrGqiXESe3lhlSUsU_lcg,LuLu's Sno Shack,AL,Mobile,36608,4.0,5.0,850 Blackburn Dr,shavedice shavedsnow,30.67239,-88.26266
7,W4r2cjYJlyZJcp1ki_AM0A,The Sno Shack,MS,Gulfport,39503,5.0,3.5,20010 Mennonite Rd,shavedice tradamerican,30.5151005,-89.1717606
2,D_SiFlxXp9MgD3e6N2JP2w,The Melt,MS,Picayune,39466,2.0,4.5,119 US-11 N,bubbletea icecream,30.5260622,-89.6799664
3,fPisonAMItR76nvBpisc0g,Kurabi Bubble Tea,AL,Mobile,36608,43.0,4.5,3821 Airport Blvd,bubbletea juicebars thai,30.67529,-88.14182
5,QQH1By_ScDfNQUpdAKD_3A,Quickly Asian Fusion Cafe,AL,Mobile,36609,69.0,4.5,5033 Cottage Hill Rd,bubbletea asianfusion juicebars,30.6488959,-88.1590829
6,XuZhdXADLZesMXzc4T8bcg,Benja's Thai & Sushi Restaurant,AL,Mobile,36695,87.0,4.0,1281 Hillcrest Rd,sushi thai,30.662022294762,-88.1901628377953
7,VeBnOJ2-z22HQEilCpr7KA,Sugar Rush Donut Company,AL,Mobile,36608,92.0,4.5,4701 Airport Blvd,donuts bubbletea juicebars,30.6759352,-88.1736412
8,0BV0SgV1zejlgKyxdGeOwQ,Pot Au Pho,AL,Mobile,36609,149.0,4.0,464 Azalea Rd,vietnamese,30.6627267757426,-88.1518024206161
9,qwIXsIiEuXFplhhvXrbmJQ,Smoothie King,AL,Mobile,36609,4.0,4.5,6358 Cottage Hill Rd,juicebars,30.6407534610517,-88.1921318893117
10,UXl-oMwmPpbgGhBesFUa7g,Happy Sushi,AL,Mobile,36608,42.0,4.5,3662 Airport Blvd,sushi ramen,30.67691,-88.13391
2,KN2cSL91FmrANdUXWmi8JA,OMG Snoballs,MS,Biloxi,39531,1.0,5.0,910 Popps Ferry Rd,shavedice,30.4431121787988,-88.932819776237
3,jycd0UMFFGinCyyiJC7-Gw,Sweet Dulce,MS,D'Iberville,39540,13.0,4.5,10104 Gorenflo Rd,shavedice,30.4305568312003,-88.8884567080493
5,EOWExkAUYrkBmt5isNd0pQ,Bud N Trays Sno Biz,MS,Gulfport,39503,1.0,5.0,12100 US 49,shavedice coffee juicebars,30.4601383678449,-89.1002433534846
7,KtLh2dcG6AVCdsF9WXJ82w,Caboose Cones,MS,Ocean Springs,39564,2.0,5.0,1009 Desoto Ave,shavedice icecream tradamerican,30.41425,-88.82714
10,pe-9hiBsrJaAl1oG_aizHg,Chillin The Coast,MS,Long Beach,39560,1.0,5.0,,foodtrucks tacos shavedice,30.3526,-89.14606
11,Kb7t5P1bke_bnL8SFAVUiQ,Dog House,MS,Moss Point,39563,2.0,5.0,4425 Elder St,icecream shavedice,30.4043445587158,-88.5364303588867
13,DtjCPNlP2QDGkT-byK0Fmg,Flavor-Rite,MS,Long Beach,39560,2.0,5.0,601 Klondyke Rd,shavedice icecream,30.36948,-89.1537
14,wpbhWzLzJvdCNZyNODm9nw,Salasno,MS,Gautier,39553,1.0,5.0,5508 Gautier Vancleave Rd,shavedice icecream,30.42192,-88.64877
15,DHOZX7odWZX4dM7tFYdL4A,Quickly Asian Fusion Cafe,MS,D'Iberville,39540,262.0,4.0,11516 Lamey Bridge Rd,taiwanese coffee asianfusion,30.457047,-88.891082
17,FiDlrwWcmZY6gObL2vqzKA,Kim Long 2,MS,Ocean Springs,39564,27.0,3.0,1408 H Bienville Blvd,thai,30.415789,-88.820038
2,fGlnGAsoNX2yFO1uh8uViQ,Coffee Fusion,MS,Ocean Springs,39564,99.0,4.0,2228 Bienville Blvd,coffee sandwiches breakfast_brunch,30.41551333,-88.8045795
3,GaCvjPMcijKmXwOfPVuT8w,BAMBU,MS,D'Iberville,39540,48.0,4.5,3680 Sangani Blvd,juicebars bubbletea vietnamese,30.4592839025814,-88.8951283693314
4,r8iOLTB-yq6bsbTpoF7p3w,Boba & Beanz Cafe,MS,Biloxi,39531,10.0,4.5,2600 Beach Blvd,coffee cafes juicebars,30.39195,-88.98999
6,DXdZ1ZRpKgo86EaO-_vzkQ,Tastea Fusion,MS,Gulfport,39503,13.0,4.5,14451 Dedeaux Rd,bubbletea vietnamese beerbar,30.448544,-89.083817
7,Cu4dNYVnAaByyzSsanyWdw,Fresh Vietnamese Bistro and Teahouse,MS,D'Iberville,39540,27.0,4.0,3840 Promenade Pkwy,vietnamese bubbletea asianfusion,30.457581,-88.902279
8,ayzK-6ZK_p55MWhOPPogpQ,Coffee Fusion,MS,Biloxi,39534,1.0,5.0,301 Fisher St,bubbletea,30.4122917266101,-88.9111299705696
9,KeNEBkzkorGX6pKpxZtlAQ,Le Bakery,MS,Biloxi,39530,171.0,4.5,280 Oak St,bakeries vietnamese bubbletea,30.4023,-88.86739
10,eG6lTOtl9BGUwjDC0AuNqQ,Sugar Rush,AL,Bayou La Batre,36509,19.0,5.0,13240 N Wintzell Ave,donuts coffee bakeries,30.4156652837007,-88.2451726594677
11,YTJl0RPrBBkSWJBX_0Yxdw,Henry's Cafe & Bakery,MS,Diberville,39540,37.0,3.0,10345 Auto Mall Pkwy,bakeries vietnamese cafes,30.432681,-88.900681
14,JuxRtj8fqfCaNHmxqz6JDA,Thai Lotus Restaurant,AL,Bayou La Batre,36509,3.0,3.5,13812 Shell Belt Rd,thai,30.403673,-88.249001
0,5WCuDmeVw45G4Ih8WnTvoQ,Juanie's Shaved Ice & Sweet Treats,LA,Slidell,70460,2.0,5.0,143 Northshore Blvd,shavedice foodtrucks,30.305898,-89.828238
1,3PmZxCKXzoaKYD6gDk874A,Mr Geez SnoBreeze,MS,Waveland,39576,2.0,5.0,2203 Nicholson Ave,icecream coffee shavedice,30.3057793,-89.3782994
2,3GBFIXUaEPsiVYMuqVvPYg,Pelican's Snoballs,LA,Mandeville,70448,18.0,4.0,1890 Florida St,shavedice,30.3623376376503,-90.0596645269816
4,_Qb0VikhO5WA-D6Iey0TbA,White House Coffee And Creamery,LA,Lacombe,70445,8.0,4.5,61700 La 434,coffee gelato shavedice,30.327638,-89.9302884
5,IhQweWvMkHoPiRVzDHkJpw,Honey's Snoball Shack of Abita,LA,Abita Springs,70420,1.0,5.0,71360 Hwy 59,shavedice,30.469908,-90.040388
1,uMAxlDrujVgof8GLwqAiag,Moba Tea & Treats,LA,Covington,70433,12.0,5.0,70515 LA-21,bubbletea coffee bakeries,30.45617,-90.13334
3,vcJbewGrCtwUA2i1KE03Uw,Tea Time Cafe,LA,Mandeville,70471,39.0,4.5,3845 LA-22,bubbletea coffee,30.39582,-90.09303
4,_zILfCDtWOeChb_wfeqfKQ,Bo Tea Cafe,LA,Slidell,70458,46.0,4.0,534 Gause Blvd,bubbletea vietnamese,30.2848700627589,-89.7754994407296
12,wGjD-JlJmqPuG5oTvxMKGg,VIVI Bubble Tea,LA,Metairie,70002,56.0,4.5,3000 Severn Ave,bubbletea,30.005751,-90.160028
13,CzKf2bHwnxwiqglZBHKAtA,Luv Pho Food,LA,Mandeville,70471,59.0,4.5,4628 LA-22,vietnamese,30.4005128,-90.1092028
15,Rwov3sNkS42_2z0qtuAPvQ,Pho Bistro,LA,Slidell,70461,67.0,4.0,2395 Gause Blvd E,vietnamese,30.2898946553,-89.7246486746
16,Feo9uXKA9lfC06vXs_624Q,Poke City,LA,Hammond,70403,12.0,3.5,520 Palace Dr,poke bubbletea juicebars,30.482384,-90.46181084232926
17,VOH7nv7S1f7m4g_mtIVBmg,Pho House,LA,Slidell,70458,85.0,4.5,720 Brownswitch Rd,vietnamese,30.3103869,-89.7499997
18,pFQSo_TvT8-RDTHc_-PhlQ,Sharetea,LA,Metairie,70002,99.0,4.5,3325 Severn Ave,bubbletea coffee juicebars,30.009511,-90.15823183
20,NQGCirVWCre3BQ24fodXOA,Kung Fu Tea,LA,Metairie,70002,145.0,4.5,3348 W Esplanade Ave S,coffee bubbletea juicebars,30.0137109,-90.1573606
21,zCWiLq6lekFItJDyDRwNOA,Journey East,LA,Mandeville,70471,54.0,5.0,1814 N Causeway Blvd,ramen bubbletea asianfusion,30.39360217,-90.09067467
22,gr6vxay8koUGMqGLp-PdIg,Magic Sweets,LA,Harahan,70123,12.0,4.5,1301 Hickory Ave,desserts shavedice bubbletea,29.9573079,-90.2031118
23,A2Rb3mknxdF6MvzEXz_xVA,Boba Boba,LA,Kenner,70065,33.0,3.5,3405 Williams Blvd,bubbletea,30.018861,-90.240225
24,OgCyBZICDLrOSWxgnSnMVg,Follow Tea,LA,Metairie,70002,28.0,4.5,3334 Severn Ave,bubbletea coffee,30.00986,-90.15971
25,sSpQ5gtDdAND4qAE9Vq4bw,Viet Kitchen,LA,Mandeville,70471,72.0,4.0,3415 US-190,vietnamese,30.3924724,-90.0840665
26,RwBlKaKijyhfmBSLDwdFbA,Bubbie's Snowballs,LA,Kenner,70065,23.0,4.0,391 W Esplande Ave,desserts icecream,30.0227325492504,-90.2533721923828
27,xXAWWlpXGlDfgGzy9TTJIw,Mr. Bubbles Cafe,LA,New Orleans,70112,66.0,4.0,1441 Canal St,vietnamese sandwiches cafes,29.95776,-90.07462
28,8GIIGV3WX7v-gick1OfAEA,Pho Cong Noodles & Grill,LA,Covington,70433,98.0,5.0,1200 US-190 Bus,vietnamese noodles tradamerican,30.473079,-90.084758
29,4OXWn2ytzaq4eTpJy4VvJA,Frosty's Caffe,LA,Metairie,70002,139.0,4.0,3400 Cleary Ave,vietnamese bubbletea asianfusion,30.00537,-90.17295
30,iqjmhsABCvM39inmtSUEwA,Golden Koi Asian Cuisine,LA,Covington,70433,42.0,4.0,1600 N Hwy 190,sushi chinese japanese,30.4535998444553,-90.0818618129811
32,nmNiOUOZz7_jlF0X4VNdKA,Ba Ta's Cafe,LA,Kenner,70065,5.0,4.0,2025 Williams Blvd,seafood salad chicken_wings,29.9933078891218,-90.242306260852
33,dTDBXOnGK0w96L79P92AbA,Chez Pierre,LA,Metairie,70002,22.0,4.5,3413 Veterans Memorial Blvd,bakeries vietnamese desserts,30.0042618,-90.1587521
34,mWZOPkusdImQRGwhyrymaQ,Beignets & More,LA,Chalmette,70043,83.0,4.5,8700 W Judge Perez,vietnamese tradamerican cafes,29.9512539,-89.9744492
35,XtIPfx8ixswyHIuxDwxA4w,Pho Bistreaux,LA,Harahan,70123,148.0,4.5,5359 Mounes St,vietnamese soup,29.957631,-90.18665
36,IGna30iAQJa6RMbsv-9tWg,Dong Phuong,LA,New Orleans,70129,419.0,4.5,14207 Chef Menteur Hwy,bakeries vietnamese gourmet,30.03622,-89.91517
37,sy9erwW0yTpjsTQ1eLtnUQ,The Orange Couch,LA,New Orleans,70117,223.0,4.0,2339 Royal St,coffee,29.9648237,-90.0547258
38,IWHscMR1NaaLDy6g5lpnkg,Pho NOLA,LA,Metairie,70006,246.0,4.0,3320 Transcontinental Dr,vietnamese,30.00664,-90.19585
39,isuOwjnrPrr1bRELgQM0aA,Ba Chi Canteen,LA,New Orleans,70118,285.0,4.0,7900 Maple St,vietnamese,29.943195,-90.131401
40,2ao0GD9qmbF6XjhfqDlkvg,"Chez Pierre French Bakery And Cafe On Harrison, Lakeview",LA,New Orleans,70124,35.0,4.0,141 Harrison Ave,vietnamese bakeries,30.00592167,-90.116865
41,2MHNvEPEGxvBxZLXM5ESpg,Pho Bistreaux,LA,New Orleans,70118,269.0,4.5,1200 S Carrollton Ave,vietnamese,29.9475543,-90.1297535
42,oqzdTykkEPhhq9DMpqMErg,Le Saigon,LA,Hammond,70403,52.0,4.0,1820 S Magnolia St,asianfusion vietnamese korean,30.504718092641276,-90.45881061060354
43,zWfzgYe2nT9mHYm_vl1Ukw,Mopho,LA,New Orleans,70119,776.0,4.0,514 City Park Ave,vietnamese asianfusion bubbletea,29.9835238904289,-90.1052539050579
44,FjkLXJCoM_rgP2osroSxdg,Pho Sunrise,LA,Kenner,70062,124.0,4.0,2305 Veterans Memorial Blvd,vietnamese noodles soup,30.00579,-90.23663
45,-UEeCTgxud4OGWshX4x-jw,Drip Affogato Bar,LA,New Orleans,70130,414.0,4.5,703 Carondelet St,coffee gelato beer_and_wine,29.94755,-90.07266
46,Hh-lUvqYOnf7E6-fqAKzNA,Rolls N Bowls,LA,Metairie,70005,175.0,4.0,605 Metairie Rd,vietnamese,29.9869316,-90.1297793
47,03sqfUjXdEtZCUxVFxXntQ,Fusion Cafe,LA,Metairie,70006,97.0,4.5,5000 1/2 W Esplanade Ave,vietnamese japanese sushi,30.016687,-90.198954
48,jIfRcC9Vd_bz66nVsoEMzA,Pho Orchid,LA,Metairie,70006,355.0,4.0,3117 Houma Blvd,vietnamese,30.00297,-90.1792
49,qq6vsh6ZEshfv4mTdrjA0g,Magasin Kitchen,LA,New Orleans,70130,145.0,4.0,611 Okeefe Ave,vietnamese,29.9483139795614,-90.0752910748688
0,CKvcCZ14SeDs0GgJClFk5A,Little Chinatown,LA,Kenner,70065,296.0,4.0,3800 Williams Blvd,chinese,30.02533,-90.23838
1,mbzW1gqMXxy5hDkB3h2tmg,Chez Pierre French Bakery & Cafe,LA,Metairie,70006,127.0,3.5,3208 Clearview Pkwy,bakeries vietnamese,30.0042438284104,-90.1857832650919
2,J2Jcksoo1wQ5gC06fEwE3g,highway fried chicken & seafood,LA,Jefferson,70121,56.0,4.5,4150 Jefferson Hwy,tradamerican seafood chicken_wings,29.9603915,-90.17004367
3,82bYVTfEpApVNMcmz4pMeA,Fuji Sushi,LA,Metairie,70003,158.0,4.0,8814 Veterans Memorial Blvd,sushi,30.0051091519975,-90.2239215373993
4,KpnBKih7jB23obxjdocCRg,Pho Orchid Express,LA,Metairie,70001,77.0,4.0,1401 Airline Dr,vietnamese,29.9735932900365,-90.1411457082994
5,YwuFAksLS4mU7Clifh3YRA,Pho Bang,LA,Metairie,70005,59.0,4.0,1901 Veterans Memorial Blvd,vietnamese,30.0025270897355,-90.1442389696214
6,eA9p9OXvrdQI1J1jxVsRlQ,Pho Michael,LA,Metairie,70002,297.0,4.5,3559 18th St,vietnamese bubbletea soup,30.0088012891477,-90.1617417474353
7,rlWSIBm8rpEKZzpG9X9Jsw,French Press Coffee House,LA,Metairie,70003,59.0,3.0,2120 David Dr,coffee breakfast_brunch sandwiches,29.9957301672357,-90.2177561575749
8,HWLgmRSRDdUwXFkUxf4N-w,Jazmine Cafe,LA,New Orleans,70118,158.0,3.5,614 S Carrollton Ave,vietnamese,29.9436931610107,-90.1341247558594
9,e7fAEuZ58SEOWB0Rw_4w2w,French Press Coffee House,LA,Metairie,70002,85.0,3.0,3238 Severn Ave,coffee,30.008651363433,-90.15940852518
10,745k3sqcSEQeCNPj799u9w,Ba Mien Restaurant,LA,New Orleans,70129,48.0,3.5,13235 Chef Menteur Hwy,vietnamese,30.03051,-89.93002
11,aOHNMIs-N591irOmxQfbFg,French Press Coffeehouse,LA,Kenner,70065,108.0,3.5,3236 Williams Blvd,coffee,30.01569,-90.23935
7,RNcMVrTaO5bfI_INqCP3pg,Snow King,LA,Amite City,70422,1.0,3.0,401 NW Central Ave,shavedice shavedsnow,30.7311013409499,-90.5093048885465
4,BDrjbB0YwNmm-FrPx3qglA,Sno-Shack SnoBalls,AL,Fairhope,36532,2.0,4.5,17022 State Highway 181,shavedice,30.47276,-87.852053
10,QZbieK6dHC24kYrC-ct19w,ice ice baby Fairhope,AL,Fairhope,36532,2.0,3.0,369 S Mobile St,shavedsnow shavedice desserts,30.51766,-87.91467
4,Q6RKT8DyV6wQgIjWtSPsnA,Poke Bowl Sushi Burritos and Boba,AL,Daphne,36526,15.0,4.5,28600 US-98,bubbletea sushi hawaiian,30.641846,-87.911508
6,trBKD2rfMWWt1e5XH0tiCw,Honeybun Donuts and Kolaches,AL,Spanish Fort,36527,13.0,4.0,6729 Spanish Fort Blvd,breakfast_brunch bubbletea donuts,30.67045,-87.90688
11,RnlMTzPtsnilO82glTvi5A,Tropical Treats,MS,Long Beach,39560,1.0,3.0,311 Beach Blvd E,shavedice,30.3466741,-89.1426708
13,Af7pP_R-8_y5ajL8dQQnAw,Island Rainbow Pizza,AL,Dauphin Island,36528,79.0,3.5,1614 Bienville Blvd,pizza,30.2505722045898,-88.1304626464844
19,NKKwNvb6S_TP7pI4Ilm1UA,Frost Bites Gulf Shores,AL,Gulf Shores,36542,2.0,4.0,925 Beach Club Trl,shavedice icecream foodtrucks,30.237014773707436,-87.87712096808828
14,AZ8wJZGGFwdg2PGeg1a0MA,Cold Rush Snowballs,LA,Covington,70433,2.0,4.5,70321 Hway 1077,shavedice,30.475747,-90.187085
17,J_ytuPBL2sg6StVNkH565A,Snowbiz Snowballs,LA,Covington,70433,4.0,4.0,1248 N Collins Blvd,shavedice,30.4899085,-90.094765
18,y6B4S23CQ2oweG6FMwYzgw,Ziggy's Ice Cream & Snowballs,LA,Mandeville,70471,40.0,4.5,4450 Hwy 22,shavedice icecream desserts,30.39775,-90.10181
19,npWWHIoRz0zVdrpIx4msGA,Brazilian Breeze Snoballs,LA,Covington,70435,4.0,4.5,Downtown Covington,shavedice,30.4810124,-90.0790869534424
27,rugfFfuEEQbsZyxZuMhAtQ,Moo Moo's Frozen Custard,LA,Mandeville,70448,3.0,5.0,2660 Florida St,icecream shavedice,30.368402,-90.072812
28,hCMQB9XTTPCGmUVJFeznxA,Whammies Snoballs & Gifts,LA,Mandeville,70448,1.0,3.0,2482 Florida St,desserts flowers shavedice,30.3672285,-90.0692766
1,jA5aJ6yoQGQ1H-QA_EiKng,Bayou Snoballs,LA,Slidell,70461,17.0,4.5,698 Old Spanish Trl,shavedice icecream,30.2627596,-89.7805977
3,GWoxzG10oAKN6GSxUXyNJA,Southern Delights,LA,Slidell,70458,18.0,3.5,1311 Broadmoor St,icecream shavedice,30.283995,-89.7674549
13,EvwnRnlgQxjhlhhdK3iS_A,Dream House Cafe,LA,Marrero,70072,20.0,5.0,1331 Barataria Blvd,desserts bubbletea macarons,29.887262907434323,-90.09891028516817
20,JAyIehVFrP2Mkf2qj1bsgw,Smoothie Bubble Tea,LA,Marrero,70072,8.0,4.0,2653 Barataria Blvd,juicebars bubbletea,29.853691,-90.106728
21,vGWxHSjUQrS3fLJdax2V6Q,Frosty's Caffe,LA,Harvey,70058,97.0,4.5,2800 Manhattan Blvd,bubbletea coffee vietnamese,29.87067,-90.04862
24,GDcNvFZPEAzOFk4x4EbGEw,Ding Tea Nola,LA,Harvey,70058,37.0,4.0,1440 Lapalco Blvd,coffee bubbletea,29.87685,-90.04514
29,cOihnyvkuI4M6wLEzHcTzg,Mr Bubbles Sandwich House,LA,Gretna,70056,94.0,4.0,925 Behrman Hwy,vietnamese sandwiches bubbletea,29.8908078168195,-90.0180053338408
36,89a7Sg2u2Z-Xe0G7I5ssag,Bubble B’s,LA,Terrytown,70056,5.0,3.0,900 Terry Pkwy,cakeshop bubbletea macarons,29.892318,-90.031537
38,2KlvBObysXe00p7phB45_A,éclair délicieux,LA,Terrytown,70056,40.0,4.5,900 Terry Pkwy,cakeshop bakeries desserts,29.8923044993658,-90.0315300375223
39,Tyie6h1FTsTeyGm-2BnRDA,Tofu House,LA,Harvey,70058,18.0,4.5,2245 Manhattan Blvd,cafes,29.88103,-90.05124
45,Vnob_w_Aohf7ZDqxcJ9z2A,Mint Modern Vietnamese Bistro & Bar,LA,New Orleans,70115,412.0,4.0,5100 Freret St,vietnamese,29.9349228652809,-90.1095502386642
49,Isaf9-x5hdXWX0cvboGTMA,Bamboo Cafe,LA,Harvey,70058,25.0,4.5,1530 Lapalco Blvd,vietnamese juicebars sandwiches,29.876912,-90.0465829
3,EBonJ5tjkxBEUezwosVlLg,Mojo Coffee House,LA,New Orleans,70130,337.0,4.0,1500 Magazine St,coffee,29.9342212677002,-90.0722503662109
4,WO_5ViN3KaeYZaAxTSRjdg,Le's Baguette Banh Mi Cafe,LA,New Orleans,70115,123.0,4.5,4607 Dryades St,breakfast_brunch vietnamese coffee,29.9293102084613,-90.1049424031854
8,McOkn30exQqcYrmsG_aeig,Ba Ta Cafe 2,LA,Terrytown,70056,4.0,4.0,2950 Belle Chasse Hwy,burgers chicken_wings bubbletea,29.880068,-90.019752
12,j579drGztc4y1i-5dGFapA,Kim Anh's Noodle House,LA,New Orleans,70123,116.0,4.0,6624 Jefferson Hwy,vietnamese noodles,29.937732,-90.195436
13,yID8zq7b4YRcWn5Vcc-MuA,Pho Kang,LA,New Orleans,70130,66.0,4.0,2135 St Charles Ave,vietnamese,29.934436948604052,-90.08054223201951
15,sGbjViru0iJfxH5cBpMeHQ,August Moon Chinese Restaurant,LA,New Orleans,70115,85.0,3.0,3635 Prytania St,chinese thai vietnamese,29.92591,-90.0943099
18,XbobIU5XuX4K52HrTvHknw,Pho Bang,LA,Harvey,70058,169.0,4.5,2245 Manhattan Blvd,vietnamese bubbletea noodles,29.88103,-90.05124
19,4DGJbaaFuCPJ8L4YJCR29w,August Moon,LA,Harvey,70058,140.0,3.5,875 Manhattan Blvd,vietnamese chinese,29.90244,-90.06494
20,NCzKKh6npVeq-AvlJnGh3w,Tan Dinh,LA,Gretna,70053,308.0,4.0,1705 Lafayette St,vietnamese noodles soup,29.9069842,-90.053773
26,Y5h63GisHbcp01uN16NrGQ,Nobuko,LA,Harvey,70058,61.0,4.0,1901 Manhattan Blvd,japanese bubbletea sushi,29.8859001832012,-90.0540163426876
27,QmonRmyRdZFc7rW-qq3M_A,Pho Bang Restaurant,LA,Gretna,70053,82.0,4.0,932 Westbank Expy,vietnamese,29.9061584589844,-90.0606744013275
28,Nhci37qY0HPCNWc5UQul9w,9 Roses,LA,Gretna,70053,255.0,4.0,1100 Stephens St,chinese vietnamese,29.9158651,-90.04585
29,FNwvXKcoN_WZzOOKqrfFAQ,Umi 2,LA,New Orleans,70114,103.0,4.5,3580 Holiday Dr,japanese sushi,29.9188060760498,-90.0164337158203
30,eFtQDmNER9pRB9YdPxMMXA,Jung's Golden Dragon II,LA,New Orleans,70115,285.0,3.0,3009 Magazine St,chinese,29.92498,-90.08498
7,Bw12VaJdIskO2b3sOi_igg,Nana’s Sno Shack,LA,Hammond,70401,1.0,5.0,14620 W University Ave,shavedice icecream,30.518867260653032,-90.48373327116396
17,l9VxhA9QCAYJ-bzV7YuxnQ,Blizzards Snobalz,LA,Hammond,70403,5.0,5.0,17290 Hwy 190 E,candy shavedice icecream,30.5082264,-90.4405362
22,zf5vnjjo044ikTGobdd34Q,Where Y’at Sneaux Balls,LA,Ponchatoula,70454,3.0,4.5,285 W Pine St,shavedice,30.439221073018782,-90.43816551018435
23,BIR2XGJ8lQmLLBPNRquRKg,Snow Bro's,LA,Hammond,70401,2.0,5.0,14514 W Thomas St,shavedice icecream hotdog,30.5009773546533,-90.478404
26,yiEnVUseRF5-keucyFNi9g,Courtyard Cafe,LA,Hammond,70401,35.0,4.5,110 N Cate St,creperies coffee shavedice,30.5045896313176,-90.4606992006112
5,Q3aTVV3hEcdX5DjRY96ZtQ,Pho Grace Vietnamese Restaurant,LA,Hammond,70401,60.0,4.5,2728 West Thomas St,vietnamese bubbletea juicebars,30.5028529,-90.4919741
4,WAnrBuLWBVM6Uk5sYAmBIA,Brain Freeze Snowballs,LA,New Orleans,70127,8.0,5.0,10816 Hayne Blvd,shavedice,30.051501,-89.9791286
4,hvEsouk98SvEGJyGJL2VoA,Goody's Sno-Balls,LA,Chalmette,70043,3.0,4.5,2229 Palmisano,shavedice icecream,29.9338603019714,-89.9546264111996
8,GdBAh4I4UEHyMyUnBg9Gqw,Van's Snowballs,LA,New Orleans,70131,20.0,3.0,4811 General Meyer Ave,icecream shavedice foodtrucks,29.9326762,-90.0048644
1,fGOqh3KEa7LnQzxjIJzTQA,The Spicy Nacho,LA,Zachary,70791,5.0,5.0,20555 Plank Rd,shavedice mexican,30.6548470990977,-91.1037843301892
2,P11FKBb2RWtBqgLNZyDEMg,Chloe's,LA,Zachary,70791,2.0,5.0,4552 Lee St,shavedice,30.648752584216,-91.1540897365876
4,4dqxM8sdzD1QTB5T8GpMsg,Sno Biz Shaved Ice,LA,Baton Rouge,70836,1.0,5.0,6401 Bluebonnet Blvd,shavedice,30.39226,-91.09021
7,BP-ad7eSqyDrR7YsoFiE_A,S.A.B.'s Snowball Shoppe,LA,Port Allen,70767,1.0,5.0,6203 La Hwy 1 S,shavedice foodtrucks,30.41708,-91.22268
8,gFjTTET8ARs79AHlSAbdZQ,Snoman Snowball,LA,Baton Rouge,70808,3.0,2.5,3655 Perkins Rd,shavedice icecream,30.42131,-91.15128
10,0Z_1twXCzL1KyySh7Rc9Xg,Cool Tiger Ice Snoballs,LA,Baton Rouge,70816,12.0,5.0,5355 Jones Creek Rd,desserts icecream shavedice,30.4050914478951,-91.0163494810766
11,M9THGbIQxccP8r64KT2pAQ,The Meltdown Snoballs,LA,Brusly,70719,1.0,5.0,6243 LA-1 S,shavedice hotdog icecream,30.380269588065463,-91.24897804285537
12,akFWCpZ-yENUiDzaOepBqA,The Sno House,LA,Baton Rouge,70817,23.0,3.0,5522 Jones Creek Rd,desserts shavedice icecream,30.402933,-91.017109
13,Qr0VdXE1NOeqk4PKFAt9Ig,Mrs V's Snowballs & Snacks,LA,Baton Rouge,70818,3.0,5.0,11951 Sullivan Rd,shavedice foodstands,30.555506,-91.039897
14,y9MI9bSpi0GdrZeChGOMpg,WayCool Snowballs,LA,Baton Rouge,70817,14.0,4.5,7020 Antioch Rd,shavedice,30.38785,-91.00763
15,yobDNvqKlZ_HOnZA38vWjw,Cool Delights,LA,Baton Rouge,70805,2.0,5.0,7269 Airline Hwy,shavedice foodstands,30.482,-91.1160699
17,B1xWTwcoQvORMCDVmaM2Zw,Snow City Snowball Stand,LA,Baton Rouge,70806,2.0,4.5,303 S 22nd St,shavedice,30.4456515238435,-91.1656714452516
18,ha0zcSwjvSZeIthWX5I-Bg,Rainbow Delites,LA,Baton Rouge,70816,23.0,3.5,10770 N Harrells Ferry Rd,icecream shavedice,30.43332,-91.06562
20,xCK-Y0OoA78Fxhnq23yNkw,SnoMan Snoballs,LA,Baton Rouge,70817,11.0,4.5,14616 Tiger Bend Rd,shavedice,30.3916271,-91.0212736
21,Garl8hSCDaDqDZ2rPB5avA,Cool Delights,LA,Port Allen,70767,1.0,4.0,313 N Alexander Ave,shavedice foodstands,30.454526,-91.2108757
22,JarTlHZzfBHH0XaukRpJEA,Snow Day,LA,Baton Rouge,70816,5.0,4.0,14848 S Harrells Ferry Rd,shavedice icecream,30.42866,-91.02172
23,Pk6G8NsG9-Xi0vGLGvA7dA,Sweet Society,LA,Baton Rouge,70802,85.0,4.5,1509 Government St,desserts icecream bubbletea,30.443914192496884,-91.17224464569301
24,mBoPJApNX9nqsPAJ1w7cZw,Pinky’s,LA,Denham Springs,70726,1.0,2.0,9007 Lockhart Rd,shavedice foodstands,30.508812177249,-90.9345238796825
26,KLyj5rn-9Z4mKfOOMgVL0w,The Lemonade Bus,LA,Baton Rouge,70806,3.0,5.0,,foodtrucks desserts shavedice,30.46088,-91.1214
27,y8clOMjkPuYGS7MzLp67EA,Southfin Southern Poké,LA,Baton Rouge,70808,186.0,4.5,4321 Perkins Rd,poke hawaiian seafood,30.41763,-91.14527
28,b86LOjZe8V83tR2LHDXtVA,Cool Delights,LA,Baton Rouge,70806,3.0,3.5,544 N Foster Dr,shavedice foodstands,30.45368,-91.13867
29,LI94_xN-Ld38--6CQ8ITxA,Cool Delights,LA,Baton Rouge,70802,1.0,5.0,1115 Government St,shavedice foodstands,30.443856,-91.1773319
30,1x5st-U1CGn7WQtFu9TgWA,Pho Cafe,LA,Baton Rouge,70816,173.0,4.0,3851 S Sherwood Forest Blvd,vietnamese,30.418103548332,-91.0513709172996
31,duXD-0XfYgIOO-oz-s_OUQ,Paradise Smoothie,LA,Baton Rouge,70815,67.0,3.5,1295 N Sherwood Forest Dr,juicebars icecream bubbletea,30.459940335387,-91.0589729623919
0,2VACkqNJ6FEn_GyR8gQgfA,Tastea Bubble  Tea & Korean Corndog,LA,Baton Rouge,70817,7.0,4.5,5531 Jones Creek Rd,bubbletea foodtrucks juicebars,30.403551477925856,-91.0162299
1,SysB7RwRdaVjjOEdrf8xkQ,Momo Tea,LA,Baton Rouge,70810,86.0,4.5,7673 Perkins Rd,bubbletea,30.3947328,-91.1082374
2,t4PPmZTWGAt1656b_nm5gA,Boba ParTea,LA,Baton Rouge,70816,37.0,5.0,2515 O'Neal Ln,bakeries coffee bubbletea,30.43235,-91.00681
3,gvy3q5fSKyw_r2vqCCMlFQ,Teatery - Tea and Tapioca,LA,Baton Rouge,70809,122.0,4.5,7620 Corporate Blvd,bubbletea coffee juicebars,30.4302409777396,-91.1104905232787
4,wqhRHGboZ2CypR7Q6KTuWg,Vivi Bubble Tea,LA,Baton Rouge,70815,86.0,4.5,11230 Florida Blvd,bubbletea,30.457905,-91.059261
5,CxmylRblOAmVt8l8cxC_og,King Kong Milk Tea and Juice,LA,Denham Springs,70726,18.0,3.0,240 Range 12 Blvd,bubbletea desserts juicebars,30.45141,-90.9588
6,0lg6sUT-gcrdxfGxHklbYA,Paradise Smoothie,LA,Baton Rouge,70817,20.0,5.0,15255 George O'Neal Rd,juicebars,30.4085315,-91.0156449
8,sEIyb9_EJzF2w464ZRWapg,Zero Degrees,LA,Baton Rouge,70802,62.0,4.0,3260 Highland Rd,hotdogs bubbletea juicebars,30.418318,-91.177562
10,PHmUkJqjrAIswl04HFKLIg,Kung Fu Tea,LA,Baton Rouge,70810,63.0,4.5,7584 Bluebonnet Blvd,juicebars bubbletea coffee,30.381161,-91.09908
11,PJFzqFo-67wCuFFQdID-IQ,Exotic Sweets,LA,Baton Rouge,70809,82.0,4.5,7064 Siegen Ln,bubbletea asianfusion sushi,30.38534,-91.06575
12,QwL1uOPThI8Bsl6PUGi6YQ,Arctic Bites,LA,Baton Rouge,70810,43.0,4.5,12658 Perkins Rd,bubbletea icecream,30.367819207,-91.0759720332
13,Cn4TMQd-D9jyOIrslbEWnA,King Kong Milk Tea and Smoothie,LA,Baton Rouge,70810,40.0,4.0,8342 Perkins Rd,desserts juicebars bubbletea,30.3883,-91.1057682
14,iokxLa3FNCHF-SOWqd9PwQ,Prince Donuts & Geaux Boba,LA,Denham Springs,70726,10.0,4.5,1113 S Range Ave,donuts bubbletea,30.47012,-90.95708
17,RFTc2MkgXuQbB1Gs6YwnAQ,Simply Pho & Tea,LA,Baton Rouge,70809,20.0,4.0,9878 Jefferson Hwy,vietnamese bubbletea juicebars,30.4096291122909,-91.0737763358786
18,P1VolbeS_K9mY1FfcvQVrQ,Bao,LA,Baton Rouge,70810,206.0,4.0,8342 Perkins Rd,vietnamese,30.3882701902437,-91.1058969460327
19,Q3yoQwOWy5Kf2n72Gl2LWA,Kitchen 16 & Yami,LA,Denham Springs,70726,12.0,2.5,31570 Hwy 16,japanese seafood poke,30.525686,-90.955659
20,5IgCxfHEZcAk8C-IbJVcrA,Koi Sushi,LA,Baton Rouge,70802,57.0,3.5,217 W State St,sushi szechuan,30.41791,-91.17804
17,bWh7QOAJpir198NoJEAmqQ,Cool Breeze Snowballs,LA,Prairieville,70769,3.0,3.0,37043 Perkins Rd,shavedice,30.3280231874611,-90.9958123292987
25,sHsZnNgo1kBZtM6o00lpRw,Sno Man Snoballs,LA,Baton Rouge,70810,22.0,4.0,9534 Burbank Dr,shavedice icecream,30.35877,-91.12173
36,C6_8gf1DuRl6tYM9o5ZqMg,Kona Ice of Baton Rouge,LA,Addis,70710,1.0,5.0,,shavedice,30.3565598,-91.2551117
0,QihmK5mc_IdjinhEbpNX6g,Tropical Smoothie Cafe,AL,Tuscaloosa,35404,26.0,2.5,1800 Mcfarland Blvd,juicebars sandwiches,33.1938407081727,-87.5288451447616
2,glf-cBPJnbdFkXahCDYYFA,Bobamania,AL,Tuscaloosa,35401,5.0,4.5,1914 University Blvd,bubbletea juicebars,33.21181,-87.56214
3,Qw_rxt7i7DkfvcxbOAPw2g,Flinderz Cafe,AL,Tuscaloosa,35406,1.0,5.0,1825 Mcfarland Blvd N,bubbletea waffles coffee,33.23674005632972,-87.54967508624942
4,DyIpbew1AxObZ1d40Zcgpg,Crimson Japanese Grill,AL,Tuscaloosa,35401,2.0,4.5,1535 Hackberry Ln,bubbletea japanese,33.19788,-87.54286
6,nOmT3prNi9UasPZhaQBS3Q,Mr. Chen's Authentic Chinese Cooking & Oriental Market,AL,Tuscaloosa,35401,144.0,4.0,514 14th St,chinese asianfusion,33.2015324991517,-87.5471950296442
7,KkBDccHuCwm99xLK3qefsw,Lai Lai Asian Cuisine,AL,Tuscaloosa,35406,38.0,4.0,1223 Mcfarland Blvd NE,chinese asianfusion japanese,33.2297845353748,-87.5330911556463
0,XoGf4ShHiWnIh4zQJx6F1g,Magnolia Creamery,MS,Tupelo,38804,1.0,5.0,3881 Market Center Dr,foodtrucks shavedice icecream,34.3065573558855,-88.7056691329546
1,vcDZrJoaaPR1ewTW3sE4bA,La Michoacana Paleteria,MS,New Albany,38652,2.0,4.5,911 W Bankhead St,desserts shavedice icecream,34.507724602401,-89.0322810005625
1,qG65k465978vU9TJOSMH7w,Summer Snow,AL,Tuscaloosa,35404,7.0,5.0,1501 University Blvd E,shavedice,33.2060104608536,-87.5174351781607
4,iU8sOB-BoCGQLlhwlMfy0A,Fuku Ramen,AL,Tuscaloosa,35404,54.0,4.5,1800 McFarland Blvd E,ramen bubbletea noodles,33.1946373567912,-87.52780324375072
1,q7n16g6NE7tz3EcLMg7gbA,Sno Biz,MS,Oxford,38655,3.0,4.5,1132 N Lamar Blvd,shavedice icecream,34.3774303031424,-89.5110681652536
2,snzW2F0wUVmUCdUrg6Z2oA,Mi & Tea,MS,West Oxford,38655,18.0,4.5,1502 Jackson Ave,bubbletea vietnamese seafood,34.3662885,-89.55035617
4,ddTu9mu15nBZ4My-pDsbqQ,The NoodleBowl Asian Bistro,MS,Oxford,38655,63.0,4.0,1501 Jackson Ave W,asianfusion japanese noodles,34.36722,-89.55071
0,Lu2Fg2a4j_3WSgaisoAgEA,Blue Moon Ice Cream & Brick Oven Pizzeria,GA,Albany,31707,3.0,2.5,2601 Dawson Rd,icecream pizza,31.617532,-84.216583
1,7L9X7v0jKI1j72xi4nfU6g,Road Ice Cafe,AL,Dothan,36305,1.0,5.0,2087 S Brannon Stand Rd,hotdog shavedice,31.211065651979848,-85.4846448
0,wYd1Ud6j-I16ZOJd1P7Eng,J Y Tea,AL,Dothan,36303,1.0,5.0,2767 Montgomery Hwy,bubbletea,31.24643973957869,-85.42295477410778
0,SeJndjcK7t36huzLJv-i6A,Jeremiah's Italian Ice,FL,Tallahassee,32312,4.0,4.5,1400 Village Square Blvd,desserts icecream shavedice,30.512297,-84.249746
1,WIwBtB_dt65-htQVPB43BA,Sneauxball,FL,Tallahassee,32301,21.0,5.0,2033 S Adams St,desserts shavedsnow catering,30.4211185,-84.2818343
2,FAfCOyRqv21xI0pjKJIgAw,Big Easy Snowballs,FL,Tallahassee,32303,61.0,4.0,1621 N Monroe St,icecream shavedice,30.46106,-84.28104
3,-6TTt5EYfPjY2Ri0f9Z3zA,Ur Bowl,FL,Tallahassee,32304,111.0,4.5,1800 West Tennessee St,ramen vietnamese poke,30.44955,-84.31137
4,dLxt3CSeGKqQVULafJT5JQ,Madison's Scoop Of Paradice,FL,Tallahassee,32301,2.0,4.5,1205 South Adams St,icecream shavedice desserts,30.43222,-84.28161
0,WMcReUJf4BSiG6XrjHZDWQ,Bubbly Tea Bar,FL,Tallahassee,32304,75.0,4.5,2020 W Pensacola St,bubbletea,30.44185,-84.31954
1,5cHoNPj8YW6FgUsJEUd5fA,Pong's Boba Tea,FL,Tallahassee,32304,57.0,3.5,1350 W Tennessee St,icecream bubbletea,30.44914947985439,-84.304765352761
2,rs4gQ_fFjzVGgUpjhulGTA,Natural Kitchen,FL,Tallahassee,32304,36.0,4.5,699 W Gaines St,poke bubbletea icecream,30.434884,-84.293204
3,IpI0Vn_kZkA2e5gg5Nif4Q,Paris Banh Mi - Tallahassee,FL,Tallahassee,32303,12.0,4.0,1875 N Monroe St,vietnamese bakeries bubbletea,30.4651531,-84.28321480796541
4,pl0EChCvrF7zURVnyfkNfw,Midtown Noodles Bar,FL,Tallahassee,32303,58.0,4.5,1660-6 N Monroe St,ramen bubbletea asianfusion,30.461673,-84.2834268
5,taxvnCs9oFC1VQJ86TW9Bg,Straw Hat Poke,FL,Tallahassee,32304,18.0,4.5,631 W Madison St,bubbletea poke,30.43638,-84.29203
6,gqC2Hqjc7XO0a9IMP5_rOw,Sweet Shop Cafe & Lounge,FL,Tallahassee,32304,53.0,3.5,701 W Jefferson St,cafes,30.43936,-84.2940799
7,rIBwJ7y4_eIdayQQznxQWQ,Tan's Asian Cafe,FL,Tallahassee,32308,203.0,4.0,2743 Capital Cir NE,chinese vegan indonesian,30.4907875061035,-84.2388534545898
8,mJIyODih0PrAaBszopNwzw,Natural Kitchen,FL,Tallahassee,32304,5.0,4.0,1525 W Tennessee St,poke bubbletea,30.448619,-84.307259
9,x7eKhqX4llDfty6JNMg4AQ,Boru Boru @ Varsity Plaza,FL,Tallahassee,32304,63.0,4.0,1861 W Tennessee St,sushi bubbletea ramen,30.44797,-84.31372
10,mUJuiQ7bpTE2e4KZhK2WMw,Kami Poke,FL,Tallahassee,32301,48.0,4.5,1779 Apalachee Pkwy,korean sushi poke,30.430777651834106,-84.25051562310105
11,dkD6j6Ch6natq3Svh2jZaA,Blossom Kitchen,FL,Tallahassee,32304,88.0,4.0,625 W Tennessee St,chinese,30.44452,-84.29188
12,etLpFGmFArlgjfVOpgJpPQ,Bento Asian Kitchen + Sushi,FL,Tallahassee,32304,113.0,3.5,1660 W Tennessee St,sushi panasian chinese,30.449601,-84.309294
13,zMCrVYYhGn990zA2rCxdUg,New Garden - Tallahassee,FL,Tallahassee,32312,10.0,4.0,6753 Thomasville Rd,chinese,30.563504982214543,-84.21301982229309
14,5zkCxCKP4egLEFhke-temg,Lemongrass,FL,Tallahassee,32303,136.0,3.5,2415 N Monroe St,thai vietnamese sushi,30.475587807447358,-84.29095827903228
15,fjLLhFFDFghJ6AdLAOJctA,Reangthai Thai Restaurant,FL,Tallahassee,32308,178.0,4.0,2740 Capital Cir NE,thai,30.48916,-84.24119
0,IujVAQHmM0BcBxK2vUMg2w,Sereni Tea,GA,Tifton,31794,5.0,4.0,218 Magnolia Dr,bubbletea,31.4590603,-83.5250308
1,ac54w1G7LqaJwg58NjA9cw,Uptown Vietnam Cuisine,GA,Columbus,31901,157.0,4.0,1250 Broadway,vietnamese,32.4697008155032,-84.9930515729762
2,fHdR-rD8aN2hM4eylfwwcw,Chick Land,GA,Columbus,31904,7.0,3.0,1056 Manchester Expy,tradamerican cheesesteaks,32.5070560102119,-84.9777837734389
1,hfbQ_rEtLWxbPYyY5kVrxQ,Pho Time,AL,Enterprise,36330,57.0,4.5,2200 Ozark Hwy,vietnamese soup bubbletea,31.346837,-85.836363
0,lxKgDUGRLUVFMKugRyJdQQ,The Icey Girl & Co.,GA,Columbus,31904,7.0,5.0,1241 Double Church Rd,shavedice foodtrucks,32.5563,-84.9738
1,MrQdSCEP93ZnQzk1hNen3A,The Frigid Frog Shaved Ice,GA,Columbus,31909,1.0,5.0,6361 Talokas Ln,shavedice,32.5363467860886,-84.8777199577245
2,5Gj2F0oziS-C0fGLvQcItg,The Ice Cream Girl and Co,GA,Columbus,31904,1.0,5.0,1241 Double Churches Rd,shavedice foodtrucks,32.5563,-84.9738
0,5LEGNwLDUQU8eIDj6XDerA,Ice Queen,GA,Columbus,31909,26.0,4.5,6600 Whittlesey Blvd,icecream bubbletea indpak,32.548147,-84.935402
1,f1OeNz6RGQROUi1kof1MUQ,Kung Fu Tea,GA,Columbus,31904,30.0,4.5,2505 Airport Thruway,bubbletea coffee juicebars,32.5216953282812,-84.9571559
2,2JivJ_gWG30qsbp_OAQPRg,Gongcha Columbus,GA,Columbus,31904,6.0,4.0,5592 Whitesville Rd,coffee,32.52335,-84.95791
4,LVoIwOXuu4g4-44GBtJEvA,YummyVilla,GA,Columbus,31909,19.0,3.5,5295 Whittlesey Blvd,icecream bubbletea,32.54162,-84.95047
5,NEk_Iesr8NkHYMGEIDgrnA,JL Japanese Express,GA,Columbus,31909,31.0,3.5,5555 Whittlesey Blvd,teppanyaki sushi bubbletea,32.54755,-84.941262
8,ew5CKNsjkytah4eAZCqn_A,GongCha Columbus,GA,Columbus,31904,1.0,5.0,5592 Whiteville Rd,bubbletea,32.52310146059817,-84.95759405999787
2,V5zycDlNNrfJFCRaRunoHw,SnoBiz Warner Robins,GA,Warner Robins,31088,2.0,4.5,4993 Russell Pkwy,shavedice juicebars hotdog,32.578917,-83.718969
3,5IQ1jQGc6NsMXYDywD6meg,Tbreak Pho and Boba,GA,Warner Robins,31093,74.0,4.0,4027 Watson Blvd,vietnamese bubbletea,32.61533854942871,-83.69887014461854
9,t9kaZdrlgnkkoogvMTGGFQ,Sunny Wings & Burgers,GA,Columbus,31904,3.0,3.0,1790 Williams Rd,cheesesteaks burgers chicken_wings,32.568657,-84.9665764
0,oyIrAdkI9m6FdezEabw_tA,Tropical Snow Shaved Ice,KY,Shelbyville,40065,8.0,4.5,18 Main St,shavedice,38.2101860046387,-85.208740234375
1,nbu8aikMPo07Ww1Hhb5CIg,Kona Ice Of The Bluegrass,KY,Lexington,40502,4.0,4.5,,foodtrucks shavedice,38.0417724734346,-84.5044711066918
2,x-aOzFDOSkOSsXkbVk1-zw,Bella Shave Ice,KY,Lexington,40511,2.0,4.5,,shavedice foodtrucks,38.0875015258789,-84.4780807495117
3,dZcnLC-iRsGAkum685CLrg,Big Mike's Shaved Ice,KY,Louisville,40204,36.0,5.0,1265 Bardstown Rd,shavedice,38.23623,-85.71647
4,Mmyx9p9uupGCuTLjm0PSSQ,Loco Ice,KY,Lexington,40509,7.0,4.5,1979 Pavillion Way,shavedice,38.0229178759484,-84.4201432962981
5,cMYED4mnj0RUOv2MkzrXrQ,Hawaiian Shaved Ice,KY,Cynthiana,41031,1.0,4.0,1797 Paris Pike,shavedice foodtrucks,38.38064952815564,-84.30800937438016
6,lDsXePrWBoA44j_5EM0w-A,Loco Ice,KY,Lexington,40502,4.0,5.0,3101 Clays Mill Rd,shavedice,38.003691,-84.545197
7,06tArVnrs1HbXYfuRglv4Q,Ohana Ice,KY,Georgetown,40324,1.0,4.0,814 S Broadway St,shavedice foodstands,38.19402,-84.56115
8,VKScUr-1QlItfd0sxV0u9A,Boudreaux's New Orleans Style Sno-Balls,KY,Middletown,40243,48.0,4.5,11816 Shelbyville Rd,desserts shavedice,38.24779,-85.53622
9,lxvv9J0svwFj4ZeQ8eSXOg,The Local,KY,Harrodsburg,40330,2.0,4.5,,shavedice foodtrucks,37.7630386352539,-84.845588684082
10,VmZDiQzbE15OZRfbROMReA,SnoWhat Snoballs,KY,Louisville,40203,63.0,5.0,1270 S Preston St,shavedice foodtrucks,38.23140097967878,-85.7502213433952
11,sieEpAOV4nFwFic-8J_4TQ,Shiver Shack,KY,Crestwood,40014,2.0,2.5,5999 Lagrange Rd,shavedice,38.3389455247294,-85.46504221355025
12,5VaggThwAwerztHPt809cg,Tikiz of Louisville,KY,Middletown,40223,1.0,5.0,,shavedice icecream foodtrucks,38.25832,-85.54185
13,iwk6_hQGQkoH66YosjlhoQ,Scoops & Smiles Water Ice,IN,New Albany,47150,5.0,5.0,1222 State St,shavedice desserts,38.29593213252893,-85.82978024387593
14,FA5JpA-J3-XUvsCi_BRkSw,"The Human Bean Lexington, Harrodsburg Rd",KY,Lexington,40503,44.0,4.5,1946 Harrodsburg Rd,coffee juicebars,38.027149205168676,-84.53327718220889
15,aCX_tXQ_JuYQtA6jOXPSHg,Philly’s Best Frozen Desserts,KY,Louisville,40218,36.0,4.5,3912 Bardstown Rd,desserts shavedice icecream,38.194582,-85.652508
16,2Hz6V7SRoc9bbP6Fu2t7XA,Mr Icee's BrainFreeze,IN,Jeffersonville,47130,17.0,4.0,114 E Chestnut St,shavedice,38.27194,-85.73995
17,wH3qUswO9tr9e6g7aSVEvA,Inolvi's Shave Ice Temptations,KY,Louisville,40229,1.0,3.0,1679 Old Preston Hwy N,shavedice,38.08009138785582,-85.66834378219224
18,C-HSkBb8Hk1QBr99nRTuAg,Fistful of Tacos,IN,New Albany,47150,35.0,4.5,2708 Paoli Pike,foodtrucks tacos,38.315006,-85.851461
19,mVJPXtGlEcEou2JOuB62-g,JR's Fresh Spot,IN,Jeffersonville,47130,4.0,4.0,3012 Middle Rd,salad burgers chicken_wings,38.3124,-85.701982
20,YpPvG4tYrw95P2J1COxO_Q,Sarang,KY,Louisville,40204,189.0,4.5,1908 Eastern Pkwy,korean bubbletea chicken_wings,38.2317207328535,-85.7094144067373
21,EHeNzwCXOt89FIT1GYFhGA,Barrel of Fun Ice Cream,KY,Louisville,40229,42.0,5.0,9421 Smyrna Pkwy,icecream burgers hotdog,38.110546,-85.644692
22,BZtDknTXCN8yKZZth8x0iw,Fun Tea,KY,Louisville,40205,86.0,4.5,1608 Bardstown Rd,bubbletea shavedsnow juicebars,38.230395752915435,-85.70458910691146
23,rPCKVbicx0daWt8Ci4Hz0g,Champion’s Gourmet Popcorn,KY,Louisville,40219,1.0,4.0,1679 Old Preston Hwy N,shavedice popcorn,38.0785475578152,-85.6682443970382
24,TXGtIehxUawpNES5s7Z3QQ,Ace's Slushie World,KY,Louisville,40203,1.0,5.0,1821 W Broadway,bbq icecream shavedice,38.24934,-85.78244
25,a17XPH0VtCRjyyOhNj1vpA,The Silver Dollar,KY,Louisville,40206,792.0,4.0,1761 Frankfort Ave,southern breakfast_brunch whiskeybars,38.25716,-85.71663
26,YdpO4BiEFkmndamOoBdFAw,Norris Place Ice Cream,KY,Louisville,40205,1.0,1.0,1647 Norris Pl,shavedice icecream,38.2249718,-85.7064209
0,e0zJz_c-lEWEcwK8qvhiJA,Nutrition Place,KY,Shelbyville,40065,4.0,4.5,1661 Midland Tri,juicebars,38.2132,-85.24164
1,qPsilbXyISK2mYmn9o05kw,Tsaocha,KY,Lexington,40504,17.0,4.5,1080 S Broadway,coffee icecream bubbletea,38.037011,-84.517231
2,FEirSH7PCnukS-hpM0tu8g,Bubble Tea Studio,KY,Lexington,40508,18.0,4.5,535 S Upper St,bubbletea,38.0428622869096,-84.5046082230898
3,endN0ax2vtV5-LccZXpy0g,Sharetea,KY,Louisville,40218,116.0,5.0,3333 Bardstown Rd,bubbletea coffee juicebars,38.206603,-85.666662
4,oKlLnGRso2JrKVFWZ7wzag,Bumble Bites,KY,Richmond,40475,6.0,5.0,521 Leighway Dr,bubbletea popupshops,37.73711882956298,-84.31558615880394
5,EcNrflmEkJ61bpL9Fam3Rg,Kung Fu Tea x TKK Fried Chicken,KY,Lexington,40508,9.0,3.5,685 S Limestone St,bubbletea coffee chickenshop,38.03525,-84.50844
6,zp2qmShoU0SRkdU29NeZiQ,Pho Saigon,KY,Lexington,40509,189.0,4.5,1555 E New Circle Rd,vietnamese,38.01943,-84.45462
7,lqVWXMz6CH9Axp7R0dh43g,Fresco Tea Bar,IN,New Albany,47150,7.0,5.0,216 Pearl St,coffee bubbletea,38.284364,-85.82208
8,DdUgPtZlRGSj9_75cbJZeQ,Black Pearl Bubble Tea,KY,Lexington,40503,40.0,3.0,3401 Nicholasville Rd,juicebars bubbletea,37.987044,-84.529395
10,iIQ-YUyJSU8Y5zibcgD3fQ,Oldham Nutrición,KY,La Grange,40031,4.0,5.0,315 S 1st St,acaibowls bubbletea juicebars,38.40440833,-85.37676333
11,jKPZX01gew1dI3S6lWTwNA,Mishik Cafe Boba Tea,KY,Louisville,40222,1.0,5.0,200 S 5th St,bubbletea coffee,38.25505,-85.75884
12,hGZWmU9SDU-y75dJAPjKqA,Sweet Kuppz,IN,Madison,47250,5.0,4.5,1402 Bear St,bubbletea icecream juicebars,38.77311,-85.41752
13,Xm3qJiMb9EV9ZpqZqQaMag,Tea Station Asian Bistro,KY,Prospect,40059,209.0,4.0,9422 Norton Commons Blvd,chinese sushi thai,38.32473,-85.56596
14,Qry-UkgqUfQ8N4a4rXEGhg,Namnam Cafe,KY,St. Matthews,40207,250.0,4.0,318 Wallace Ave,vietnamese soup bubbletea,38.25186,-85.65759
15,lNtD9O18Gq-P8XOKD_t6Ww,Boba Fête,KY,Louisville,40204,34.0,4.0,1001 Logan St,bubbletea coffee,38.235679439659656,-85.73916358697622
16,iKe_2ua9G_xDfQpQmGSoSA,Fresco Tea Bar,IN,Jeffersonville,47130,19.0,4.5,223 Pearl St,bubbletea breakfast_brunch bakeries,38.27062387645179,-85.74152870091648
17,6-Lp1Z_sLiB8nYNGGwCQTg,Kung Fu Tea,KY,Louisville,40207,53.0,3.5,5000 Shelbyville Rd,bubbletea coffee juicebars,38.2483083,-85.622531
19,809GjbrynHj04EwqoKn98g,Sharetea,KY,Louisville,40223,9.0,4.5,13210 Shelbyville Rd,bubbletea,38.2422438968737,-85.51124574616719
20,K1-kUB8kqVT8zcv7Pdru_g,2B Thai,KY,Elizabethtown,42701,224.0,4.5,3040 Ring Rd,thai,37.71058,-85.83883
21,-hZ4i-Masq53sz1R4A7Utw,Mt Fuji,KY,Louisville,40208,126.0,4.0,309 Cardinal Blvd,japanese juicebars sushi,38.2207404,-85.7614992
22,5EWLPewYxjS0aWW4MwS0yQ,Fleur de Tea,KY,Prospect,40059,20.0,4.5,10704 Meeting St,bubbletea tea,38.32513837638605,-85.56699082440902
23,Ya4CDTOPBpS-KRh1NEvidQ,Pho BC,KY,Lexington,40503,157.0,4.0,171 W Lowry Ln,vietnamese,38.00708,-84.52092
24,m70MSN495Tjt85zvD0XXew,Sakura 13,KY,Lexington,40503,66.0,4.0,3695 Nicholasville Rd,japanese sushi,37.984713,-84.527497
25,rAsP3GSXqa907VueIMtVDQ,Kim & Bab,IN,New Albany,47150,91.0,4.5,3012 Charlestown Crossing Way,korean asianfusion,38.3509741723537,-85.7978300750256
26,V3HTObZrUbb_1GUhVbJKYQ,JW Cafe & Bakery,KY,Louisville,40245,105.0,4.5,2301 Terra Crossing Blvd,bakeries coffee cafes,38.2714,-85.49504
27,irKb304_kp6mFPp_SwfCJA,Aji Sushi and Asian Cuisine,KY,Louisville,40219,84.0,4.0,5610 Outer Lp,sushi asianfusion bubbletea,38.1385054238008,-85.656331
28,KSAT9QybSfrikNsSbIouGQ,Onion Restaurant and Tea House,IN,New Albany,47150,94.0,3.5,4211 Charlestown Rd,chinese japanese,38.3486227652988,-85.7971509833292
29,ICStAyR3hniE4P93VUoB2w,DaLat's Gateaux and Cafe,KY,Louisville,40214,53.0,4.0,6915 Southside Dr,vietnamese coffee bakeries,38.15672512717562,-85.7636670496871
30,zwPfXo3wwAJ48-f8xxhyuA,Healthy & Delicious,KY,Louisville,40205,2.0,4.5,1561 Bardstown Rd,bubbletea juicebars,38.231318,-85.706059
31,ErY_UnC3seOOAy2LJe6Wow,Vietnam Kitchen,KY,Louisville,40214,530.0,4.5,5339 Mitscher Ave,vietnamese noodles,38.170529340487484,-85.7699458
32,H-fbrqyst5BUXONfImr_JQ,Asian Wok,KY,Louisville,40206,83.0,4.0,2235 Frankfort Ave,sushi chinese asianfusion,38.2535474489544,-85.704318598571
33,g0e9qXjqt-P3pCfP2O8smQ,Green Tea Chinese Restaurant,IN,New Albany,47150,41.0,4.0,2206 State St,chinese,38.3059100855832,-85.840589851141
34,qvY2MN2tJvV3_TmFnXdcow,Heart & Soy,KY,Louisville,40204,212.0,4.5,1216 Bardstown Rd,vegetarian vegan panasian,38.236376,-85.71803
35,DDMaR8LnZSTtsnJFZycOnA,Roots,KY,Louisville,40204,168.0,4.5,1216 Bardstown Rd,vegetarian asianfusion soup,38.2365,-85.7179
36,9wHPyzkvSut9-8pzCGvk5Q,Rice Bowl,IN,New Albany,47150,125.0,4.0,3114 Grant Line Rd,korean ramen soup,38.3241424424476,-85.8193916374768
37,0yvqggJenPkzlCGeRU8BdQ,Simply Thai,KY,Louisville,40243,177.0,3.5,12003 Shelbyville Rd,thai sushi asianfusion,38.24946,-85.5348999
38,2nOI_Ht-QHuFwLkNEu55SQ,Peking City Express,KY,Louisville,40207,41.0,4.0,4000 Dutchmans Ln,chinese taiwanese,38.23343,-85.6347399
39,cJALLtsD_rpOX_scLHZqrA,Jasmine Asian Bistro,KY,Louisville,40222,56.0,3.5,2420 Lime Kiln Ln,chinese,38.287136,-85.629304
40,CBMKrRLK46mfeFPM4F4ieg,Bento Asian Kitchen + Sushi,KY,Louisville,40243,114.0,4.5,12951 Shelbyville Rd,japanese bubbletea sushi,38.244189,-85.510789
41,3v_WPa3XzRZzoBV1aieExQ,China 1,KY,Taylorsville,40071,13.0,4.0,99 Settlers Center Rd,chinese,38.0424651454683,-85.3415557807872
42,qLDRflgg7KmhXtUQvpDZcg,All Thai'd Up,KY,Louisville,40202,28.0,4.0,211 South 5th St,thai foodtrucks cookingclasses,38.2549146,-85.7582133
43,YqwwxSEsvcdVrriTQmsk2g,Jasmine Szechuan Chinese Cuisine and Tsubaki Sushi Bar,KY,Louisville,40245,143.0,3.0,13825 English Villa Dr,chinese sushi,38.2399908,-85.4949964
44,5rey1IvYK2GR_ph0k_qBiw,La Que,KY,Louisville,40204,216.0,3.5,1019 Bardstown Rd,asianfusion vietnamese thai,38.24002,-85.72342
45,cYEJZMDB64u34F2fUO4CdQ,Pho Phi,KY,Louisville,40207,115.0,3.5,4600 Shelbyville Rd,soup vietnamese,38.248167,-85.629494
2,aCNuUoB3HthDYoL1DMChNg,Krakt Ice,KY,Rineyville,40162,1.0,5.0,,shavedice foodtrucks,37.75015624527965,-85.97030377693736
5,M6_KHYjjebMQ6NYJIs9Lcg,Maddy's Shave Ice,KY,Fort Knox,40121,1.0,5.0,1 Mobile Concession,shavedice,37.919256,-85.9406745
6,ldt2803-emIR8L-AtMTgHA,Snow To Go,KY,Louisville,40258,2.0,5.0,6405 Greenwood Rd,shavedice,38.1449019346596,-85.8710854847715
18,5mrmpAo_FRd-7RlPbue21A,Charleys Cheesesteaks,KY,Fort Knox,40121,4.0,2.5,125 Binter St,shavedice sandwiches,37.885944,-85.954807
20,t5wex4jKjC6CLYtj6nrrCg,Padrino’s,KY,Brandenburg,40108,4.0,4.0,455 Bypass Rd,bubbletea,37.97951648373667,-86.1618978773325
6,H8_a4CG8VgqIOH6EodwP4g,Sno Biz,IN,Columbus,47201,6.0,4.5,1110 25th St,icecream shavedice,39.2231490215859,-85.912670463145
18,idRi0ydXM_Za_Tdujcuc8g,Snobug,OH,Cincinnati,45247,3.0,4.5,5884 Cheviot Rd,shavedice,39.2004599923634,-84.60009789967314
20,eShQ9qsAYEVxhWx2VS-MYw,Chako Bakery Cafe,KY,Covington,41011,69.0,5.0,611 Main St,cakeshop bakeries japanese,39.0836873,-84.5177131
25,9fcFE47BVo5fxVBGbOIvXw,Mr. Genes Dog House,OH,Cincinnati,45223,35.0,4.5,3703 Beekman St,hotdog,39.15364,-84.55074
27,f5WVGO3tA2vM-39pCyi1WA,Cone Zone,OH,Cincinnati,45211,30.0,3.5,4101 Harrison Ave,icecream juicebars shavedice,39.1578314482786,-84.6176704891325
12,tNix4mhkqffOcc6fNeNL_A,The Daily Grind,KY,Winchester,40391,25.0,5.0,225 Redwing Dr,coffee,37.99259,-84.21638
22,fjg6ZzHdFrILIaG9CPU7Gg,Snowie Shaved Ice,OH,Cincinnati,45255,3.0,4.5,Cherry Grove Plz,shavedice,39.0740677,-84.3111687
23,GToOtta-8hFM5ReV5R5ypg,Snowie,OH,Cincinnati,45255,1.0,5.0,,shavedice foodstands,39.07273,-84.33642
5,S2k1xavOBp3j32ubwxpQgA,Thai Tea House,KY,Florence,41042,7.0,5.0,7563 Mall Rd,bubbletea thai,39.00121697601383,-84.65392430904134
25,Gdw_apTSIUaOgxi7aK4WaA,Pholicious,KY,Florence,41042,63.0,4.0,2094 Florence Mall,vietnamese,38.9950412067719,-84.6494976465593
31,nQexC9Oflp1MlS_66aYm4g,Mai Thai Restaurant and Sushi Bar,KY,Florence,41042,331.0,4.5,7710 US 42,sushi thai,38.991793,-84.636714
33,T2jnXjvCszd880MPHRl_VA,Memorie Makers Cafe & Cupcakery,KY,Florence,41042,14.0,4.5,8460 US Hwy 42,customcakes coffee cupcakes,38.977663,-84.658595
35,5F25smnbPsbYz6B0qLjdeA,Bon Mi Street,KY,Newport,41071,12.0,4.5,1 Levee Wy,bubbletea vietnamese juicebars,39.09533487958106,-84.49607142570885
43,Sr8LNubU6A3ZNT9HRtgYpA,Basil Thai Kitchen,KY,Florence,41042,3.0,3.5,2074 Florence Mall,bubbletea ramen thai,38.99510483,-84.64975833
21,gfpq6TchuTyzvPsjJ47BuA,Kona Ice West Cincinnati,OH,Cincinnati,41073,3.0,3.5,,foodtrucks shavedice,39.10713,-84.50413
22,I1VQoAdTU7D-hQU9uZc0-A,Snowie Shaved Ice,OH,Cincinnati,45209,1.0,2.0,3760 Paxton Ave,shavedice,39.14435333,-84.42891833
24,33nLuyUMZE4g3sQP_soXAg,Schneider's Sweet Shop,KY,Bellevue,41073,87.0,4.5,420 Fairfield Ave,candy chocolate shavedice,39.10711,-84.48189
5,TGeyBB57B6I5v7BE6CRHkg,Yoyo Boba Teahouse,IN,Columbus,47203,8.0,4.0,3988 25th St,bubbletea icecream,39.22466507957293,-85.87638328637411
19,mJwVKAiqHzjf_H6cxD2BfQ,Thai Connection,IN,Columbus,47201,130.0,4.5,527 Washington St,thai,39.2041930673059,-85.9210343286395
42,BSlQWn6ZuugFBfHpb-w9Vg,Fusion Wok Sushi Bar,OH,Cincinnati,45251,56.0,3.0,3645 Stone Creek Blvd,japanese sushi asianfusion,39.2525697298945,-84.600099362433
44,Q6gRKM-mqjbuSPIwv-qyyA,China Chef Restaurant,OH,Cincinnati,45239,46.0,3.5,8034 Colerain Ave,chinese,39.21847,-84.58536
0,jNd1zYkXFBX4PmuYpiGyBQ,Paradise Snow Shaved Ice,KY,Hartford,42347,1.0,5.0,S Main St,shavedice,37.4443504693231,-86.8982295421598
18,XfYvd8mmxOyETsMapMK2ug,Rasbury's,IN,Mitchell,47446,1.0,5.0,649 W Main St,icecream shavedice juicebars,38.73304,-86.47335
0,Hij997MBnqzJ0YXW39TJJw,Bubble TeaTalk,KY,Owensboro,42303,1.0,5.0,3238 Kidron Valley Way,bubbletea juicebars,37.75545718518067,-87.05910023964064
1,s33Vi9Kwam0l2xCeZvvxmA,The Snow Shack Shaved Ice,KY,Morgantown,42261,1.0,5.0,111-115 West Porter St,shavedice,37.225005,-86.685407
6,wPvUOWG1tssmG4CsU_FRoQ,Owensboro Karen Restaurant,KY,Owensboro,42301,2.0,5.0,7046 KY-56,bubbletea noodles thai,37.75314754544044,-87.246465509375
2,dx79w8oS-Q5ewYmUuCRYBA,K & L Asian Restaurant,KY,Bowling Green,42103,57.0,4.0,1640 Scottsville Rd,vietnamese asianfusion,36.9714136875846,-86.4332413673401
3,aav99RM-AOgbe9_nnyL46g,Boba Lounge and Cafe,KY,Bowling Green,42101,2.0,5.0,1542 US 31 W Bypass,asianfusion bubbletea,36.980046,-86.4466093
4,IblSVD4XKbInQiYdoRj3iQ,Boba Lounge and cafe,KY,Bowling Green,42101,48.0,4.0,1542 US 31 W Bypass,bubbletea vietnamese,36.980045,-86.446608
5,V3X6cgLTVnXVMRjcM0-21A,Zogam Khai Restaurant,KY,Bowling Green,42101,36.0,4.5,111 Old Morgantown Rd,thai asianfusion,36.98872141821915,-86.45726252149584
8,ru6DzLpo-5cDR6duH9DzNw,Roll Over Rolled Ice Cream,KY,Morehead,40351,1.0,1.0,168 E Main St,icecream bubbletea,38.18325,-83.43379
0,rKl7olLcY7NWqVZeF3tJwA,Bulldog Ice hole,KY,Louisa,41230,1.0,5.0,,shavedice donuts foodstands,38.11267,-82.60729
0,W4z-WL6HlEKPOgfhcbjvKw,Hindman Sno Hut,KY,Hindman,41822,1.0,5.0,820 KY-160,shavedice,37.33145833,-82.96931917
8,MoYS5hbNPa1Mm6xyy-mQug,Paradise Ice,OH,Milford,45150,26.0,5.0,1313 State Rt 131,shavedice,39.17497,-84.22057
23,HKyJvIjLATxvZFPaiGlzpA,Cinci Ice,OH,Milford,45150,1.0,5.0,837 US-50,shavedice,39.163836,-84.259327
2,nMbmcvx9FSKDMrkXXls86Q,Boba Cha,OH,Cincinnati,45202,166.0,5.0,1606 Main St,bubbletea,39.11295,-84.51223
6,Q71dBguMiZlL4jkANPqrBA,Milk Jar Cafe,OH,Cincinnati,45209,185.0,4.5,3880 Paxton Ave,icecream coffee bubbletea,39.14726,-84.42734
14,Nf67iVqAWr4iC50dUCLqNw,Boba House,OH,Milford,45150,2.0,5.0,501 Chamber Dr,bubbletea fooddeliveryservices,39.15769,-84.27531
16,Z_CE18B9PnfveiJ8jbJ8FA,Tea 'n' Bowl,OH,Cincinnati,45219,252.0,4.0,211 W Mcmillan St,bubbletea asianfusion szechuan,39.127723,-84.519864
17,qke3cL0PShBrJHyL4BDEsg,Kung Fu Tea,OH,Cincinnati,45236,54.0,3.5,7875 Montgomery Rd,bubbletea coffee juicebars,39.202336,-84.377147
20,niFQcQRGvhsU17QCeOXxnw,Boba Tea Time,OH,Milford,45150,6.0,4.5,205 Main St,bubbletea coffee juicebars,39.17409563463792,-84.295948
23,yP0pPyYqDish-4SbNrnS3g,Chatime,OH,Cincinnati,45219,40.0,3.5,204 W McMillan St,bubbletea coffee juicebars,39.12815,-84.51957
30,bG8loiQE3xBzrQ-O0zOjdA,Owl Tea,OH,Cincinnati,45219,2.0,3.5,204 W McMillan St,bubbletea coffee juicebars,39.1281065616012,-84.51961991748786
31,-QbzMXb8F3wC5sG1ArMU9w,Rokaru Ramen,OH,Blue Ash,45242,47.0,4.5,9405 Kenwood Rd,noodles ramen chicken_wings,39.227491597189506,-84.37806045448657
38,DJvajs6N5i3Xr7ExNxgFmw,Poke Hut,OH,Cincinnati,45202,238.0,4.5,1509 Race St,poke bubbletea asianfusion,39.11176,-84.51756
39,3DESvVBHlsGarqJ0nvDgNQ,Maki Express Ramen House,OH,Cincinnati,45219,208.0,4.0,209 W McMillan St,ramen,39.12777,-84.5198
40,YSTacCSB_XYt0Tx6ifUm_g,Bangkok St,OH,Cincinnati,45236,88.0,4.0,7687 Montgomery Rd,thai,39.19691,-84.38693
42,Os5iXZdc4mP9MJkdzMKxmg,Kung Fu Tea,OH,Cincinnati,45219,18.0,3.5,228 W McMillan St,bubbletea coffee juicebars,39.12809,-84.52043
43,GSb2WdNWSQdegRGu-ch8WQ,FUSIAN,OH,Cincinnati,45202,240.0,4.0,600 Vine St,sushi japanese,39.10287,-84.51295
44,8nfNnMn6exDNXS2z2jfKWQ,Pho Lang Thang,OH,Cincinnati,45202,642.0,4.0,1828 Race St,vietnamese,39.116361,-84.5183507
45,cmHb2UnNSLUExB-Md8FIyg,Green Papaya,OH,Cincinnati,45209,340.0,4.0,2942 Wasson Rd,thai sushi,39.14459,-84.43391
47,AvTT4GA_tUmK-n_kUVPxMQ,Saigon Subs and Rolls,OH,Cincinnati,45202,90.0,4.5,151 West 4th St,vietnamese,39.0993208249493,-84.5153464767474
48,JiV9rc-_l8YfJCozVzww9A,Bolly Bears,OH,Cincinnati,45202,14.0,3.5,1801 Race St,indpak asianfusion cookingschools,39.1153984,-84.5184402
49,Mc98LPJSQbE-vGkLcTcBuQ,Asiana Thai & Sushi,OH,Cincinnati,45209,435.0,4.5,3922 Edwards Rd,thai sushi asianfusion,39.15072,-84.44194
0,E2Vgixf9ICqyUPbANwZpQw,Fortune Noodle House,OH,Cincinnati,45219,296.0,4.0,349 Calhoun St,chinese noodles soup,39.12837,-84.52052
1,oSRIdD7BAcqeS0b6okHUYQ,King Wok,OH,Cincinnati,45219,76.0,3.0,203 W McMillan St,chinese,39.12764,-84.51952
2,1T-0aO-C9jfedIVjqMiNlg,Brunch,OH,Cincinnati,45202,1.0,4.0,1801 Race St,newamerican,39.1154,-84.51844
4,sS3mEd_ZSHEBkEQVEGPkFw,Norwood Nutrition,OH,Cincinnati,45212,2.0,4.0,3919 Montgomery Rd,juicebars bubbletea acaibowls,39.15096,-84.46403
1,fThxr0VwcS3-JThDIbWgIQ,Tra Sua,KY,Corbin,40701,2.0,3.5,916 Master St,bubbletea,36.95354,-84.0851949861
0,xDQFNQzS4tCvp_ao7lVA2Q,Sweet P's Snowball Shack,TN,Clinton,37716,6.0,5.0,930 N Charles G Seivers Blvd,shavedice icecream,36.1122799627237,-84.1231963138333
1,MBfwxDMq3DGKtavcSVmW7Q,Beach Hut Shaved Ice,TN,Kingsport,37660,2.0,5.0,1689 E Stone Dr,shavedice,36.5472272,-82.51720499999999
2,hljUDzU_GA_s_xjEkJQcbA,Allen's Sweet Paradise,TN,Limestone,37681,1.0,5.0,,foodtrucks juicebars shavedice,36.23114,-82.62955
0,LXB4A0gMor--XBwZoJhzoA,KALM Bistro,TN,Johnson City,37615,141.0,4.5,5205 Bobby Hicks Hwy,vietnamese,36.413283070931,-82.4721796333535
1,6VXsRBK2KwWnp7uMbNC-CQ,China Luck,TN,Johnson City,37615,16.0,3.5,5205 Bobby Hicks Hwy,chinese buffets,36.413306,-82.472434
2,BCyBU5uXJS3qW9SBo861qA,Edo's Sushi Bar and Grill,TN,Kingsport,37660,26.0,3.5,818 Johnathan Way,sushi japanese,36.55946,-82.58466
2,X6bZ3UJjipeaX_KhsRd6Ag,Sam's Snoball Paradise,TN,Johnson City,37601,17.0,4.5,809 South Roan St,icecream shavedice,36.3146,-82.34803
3,IOp3ajk-ItHL46Jm3w6RsQ,Tastes Buds,TN,Bristol,37620,3.0,3.5,1731 Edgemont Ave,shavedice bubbletea icecream,36.574596,-82.186172
3,G7zFiFdrndr54ie4XQ3sNw,The Roots Vietnamese Restaurant & Coffee,TN,Johnson City,37604,89.0,4.5,600 N State Of Franklin Rd,coffee vietnamese chicken_wings,36.31574547230372,-82.38897672760939
1,_ZINfTwww5Msdm3T_ISueA,Daylight Donuts,TN,Johnson City,37604,41.0,4.5,1735 W State Of Franklin Rd,donuts bakeries breakfast_brunch,36.30088,-82.37738
0,lyJjEnDFoutnmyhOTjDuJA,123 Cafe,KY,Pikeville,41501,10.0,2.5,244 Cassidy Blvd,chinese bubbletea icecream,37.5061594665847,-82.5368615779099
1,ZcPAGU-MNOb6CfPh7l7rpg,The Wooden Spoon Co.,TN,Knoxville,37921,2.0,5.0,,shavedice desserts foodtrucks,35.96975,-83.93645
2,Aw2LgIoGnoYi1pm2rmfVJQ,Little Jimmies Italian Ice,TN,Knoxville,37920,1.0,5.0,,shavedice,35.9642919486827,-83.9190767705441
1,o9CAhsuIVfdNLDBFmtR-pQ,Hello Tea House,TN,Knoxville,37902,5.0,5.0,722 S Gay St,bubbletea desserts creperies,35.96282,-83.91652
2,cID1PVw0WJlvxSMDfYiu0Q,Tealicious,TN,Knoxville,37932,27.0,4.5,10720 Hardin Valley Rd,bubbletea coffee,35.94697117,-84.16053167
3,vNSdhhSJkpmIJocCMBu7ig,Asian River,TN,Knoxville,37912,19.0,4.0,6714 Central Ave Pike,sushi thai asianfusion,36.026863606694306,-83.99221655738398
2,aFN715Cwdp4sOCztc00l3w,Hawaiian Shave Ice Trailside,OH,Loveland,45140,12.0,5.0,230 Railroad Ave,shavedice,39.2696151733398,-84.257194519043
5,DPdFl_exuIJkoz9PmR9CVg,Hawaiian Five-OH,OH,West Chester,45069,1.0,5.0,6855 Tylersville Rd,foodtrucks shavedice,39.357117,-84.396227
6,PxiEaUJgjyh8e7JRt8_BaQ,12 Degrees Italian Ice,OH,Maineville,45039,21.0,5.0,34 Grandin Rd,desserts icecream,39.3469248259205,-84.2193656611758
10,ouyWLDCfrR64UY7KWHuaaA,The Cone,OH,West Chester,45069,116.0,4.5,6855 Tylersville Rd,icecream desserts shavedice,39.357151367254474,-84.3962730846868
11,ZgUDIKt1wPSRrreoHV2-Cw,Dolsot Bistro,OH,Mason,45040,125.0,4.5,7876 Mason Montgomery Rd,korean,39.324695,-84.311496
14,pd1OUKeSfKqIMI3ARggptA,Dai Trang Bistro,OH,West Chester,45069,166.0,4.0,4970 Union Centre Pavillion Dr,vietnamese filipino asianfusion,39.341631,-84.457383
18,C-PcdiqjbMrS1Szg5YE3ew,Paris Banh Mi Cafe & Bakery,OH,West Chester,45069,36.0,4.5,7659 Tylersville Rd,bakeries coffee desserts,39.35318992706297,-84.36899989843369
1,v-TMELux174RuMKPC9_eoA,Milk Jar Mason,OH,Mason,45040,6.0,4.5,5057 Deerfield Blvd,bubbletea icecream coffee,39.307055039191695,-84.31577754319733
3,yQ1rq33y_zDyd5Hjhw1L9A,Milk Jar Station,OH,West Chester,45069,37.0,5.0,7743 D Tylerville Rd,bubbletea,39.351997,-84.367034
6,vbHdNHxHlGOS0_cumGnw_w,Bread House Bakery,OH,Sharonville,45241,83.0,4.5,11974 Lebanon Rd,bubbletea bakeries,39.2933283685367,-84.3931491531164
8,-BKzrhdl3tv7e9uyFleXgw,BobaTea,OH,Cincinnati,45218,5.0,3.5,20 Eswin St,bubbletea juicebars shavedsnow,39.26975,-84.52227
9,e6K4GYiyDvFtGR6ahi90Ag,Kung Fu Tea,OH,Mason,45040,11.0,3.5,7892 Mason-Montgomery Rd #15,bubbletea coffee juicebars,39.3246334,-84.3121248
18,JEykkK5YCLqMdwoTGiLYEA,Noodle & Hot Pot,OH,Cincinnati,45249,92.0,4.5,4750 Fields Ertel Rd,noodles hotpot,39.2926549,-84.3115951
21,KtW0iY0A6KRscfn745oLXQ,Queens Bakery,OH,Cincinnati,45249,26.0,4.0,4770 Fields Ertel Rd,cafes bubbletea customcakes,39.293682,-84.311375
23,qtw77cSvDlAxtGkKr147zQ,Pho 96,OH,West Chester,45069,188.0,4.0,7844 Kingland Dr,vietnamese,39.351968,-84.36793
25,P09H2rRxGtlIXwaFIdxLsg,Tasty Pot,OH,Cincinnati,45241,70.0,4.5,12075 Lebanon Rd,hotpot taiwanese bubbletea,39.293585,-84.394145
26,VXZPRbwAo5P9RKa9pYEz9A,iPho Vietnamese Cuisine,OH,Cincinnati,45249,130.0,4.0,11929 Montgomery Rd,bubbletea vietnamese noodles,39.28735,-84.30809
32,z3zrupctJVC6luFJAQo5GA,Thai Koon Kitchen,OH,West Chester,45069,210.0,4.0,9114 W Chester Towne Ctr,thai noodles,39.3260098,-84.4305251
39,QdZPQTXFO90ZgioTxEJn_g,Pho Kimmy,OH,Sharonville,45241,292.0,4.0,11974 Lebanon Rd,vietnamese bubbletea,39.2933594576508,-84.3929819082056
45,gYu5dcurNncsSaqLBiobAg,Thai Terrace,OH,Mason,45040,22.0,4.0,101 E Main St,thai,39.360184,-84.308851
1,g5A44d481HXpKpX4GmK-pg,Boba Hut,OH,Gallipolis,45631,3.0,3.5,161 Upper River Rd,coffee bubbletea pretzels,38.82823,-82.16452
2,-uOqKFBwuZybjIOOLHQCxQ,Bombshells Burgers & BBQ,WV,Huntington,25701,59.0,4.0,2134 5th Street Rd,pizza burgers tacos,38.3902,-82.45349
1,34lPXjgEt_yWNjezogsa2A,"Mmmm, Dealer of Tropical Sno Products",WV,Danville,25053,1.0,5.0,7301 Price Branch Rd,coffee desserts shavedice,38.07714,-81.83085
0,HmKBPll3E8yL3sOFiVVLnw,High Five Cakes,OH,Chillicothe,45601,13.0,5.0,81 N Paint St,desserts cakeshop bakeries,39.33517,-82.98221
1,QXo29tHoRuiqbLLxz6l_-A,Pho Vinh Long,WV,Charleston,25303,109.0,4.0,601 D St,vietnamese bubbletea,38.36775,-81.69628
2,ayFLKGe-Q_pi0hNEYnF9gg,Yen's Sandwiches,WV,South Charleston,25303,98.0,4.5,606 D St,vietnamese,38.3679485321045,-81.6959606856108
3,4P8pv-nSh9p3PIqZHtJnUw,Carnival Eats,WV,Charleston,25303,9.0,2.5,16 Riverwalk Plaza S,desserts juicebars bubbletea,38.3657583,-81.7096871
0,AoI7a57INGffx47zPVcxFA,Rainbow Sno,KY,Murray,42071,1.0,5.0,1207 Chestnut St,shavedice juicebars,36.6167159333346,-88.3166731685084
0,dk1ZQ3hPnmIF5m27Ey0MGQ,Etcetera Coffeehouse,KY,Paducah,42001,70.0,4.5,320 N 6th St,coffee bubbletea,37.0884475708008,-88.6018447875977
1,jN42gY9TA0LdSasQcn89OA,Cafe N' Me,MO,Cape Girardeau,63701,38.0,3.5,820 N Sprigg St,thai asianfusion wine_bars,37.315214,-89.524814
1,k2fOP_wO7POmY38ENQOwcg,Ty's Summer Sno,MO,Jackson,63755,3.0,3.5,506 W Main,shavedice,37.3836584,-89.67247929999999
1,eJkFc8UOpKe5EgjuBfATVw,Bubble Crush Tea Studio,MO,Cape Girardeau,63703,2.0,4.5,2143 Independence St,bubbletea,37.30614,-89.5502
2,uNLs1Qn1mZYxwtsgMkzH3Q,Blend Tea & Crepe Lounge,IL,Carbondale,62901,52.0,4.5,719 S University Ave,cafes,37.719927,-89.2174856364727
1,GtYvAemUGCcM5xCKrb4FsA,Top Flight Hot Dogs,KY,Oak Grove,42262,9.0,5.0,15139 Fort Campbell Blvd,hotdog,36.66175,-87.44278
1,BvBLyAhRgguMWs7B3-RG0g,Nora’s Bubble Tea,TN,Clarksville,37042,1.0,5.0,2201 Fort Campbell Blvd,bubbletea,36.60749370343582,-87.42610983186647
2,G4wnphv8ljBFmeu2d8Khdw,Soho Chinese & Japanese Restaurant,TN,Clarksville,37042,133.0,3.0,1492 Tiny Town Rd,sushi chinese japanese,36.6254827,-87.3703779
2,iJe4XtDf_zhRNA6B85TifQ,PHO KING,TN,Clarksville,37040,58.0,4.0,210 Needmore Rd,vietnamese seafood japanese,36.582785,-87.302049
4,jc-luCCM03VrwJiwESb5Nw,Hibachi Express,TN,Clarksville,37040,35.0,4.0,3862 Trenton Rd,sushi japanese hotdogs,36.62327,-87.31872
5,TuhROQL9LIJYWjieGyYUwA,Call It Pho,TN,Clarksville,37040,109.0,3.5,2718 Wilma Rudolph Blvd,vietnamese,36.584256,-87.299453
6,laDAwp2YSfWEwUJAFB6nJQ,Sora,TN,Clarksville,37040,157.0,4.0,110 W Dunbar Cave Rd,sushi thai chinese,36.5524926988769,-87.3232653737068
7,hd40RPzUKlzNytp4d8Xmdg,Kisoro,TN,Clarksville,37042,121.0,4.0,1761 Tiny Town Rd,japanese sushi steak,36.625665,-87.3193947
0,1txCzesLGASqsCQLFQNpIg,Mr.Bubble,IN,Evansville,47715,14.0,4.0,503 N Green River Rd,bubbletea juicebars shavedice,37.9815300496546,-87.4917315691709
1,uQrTDr250ZDyLH3ZO7yilw,Yang's Shabu Shabu,IN,Evansville,47715,36.0,4.5,4700 Vogel Rd,chinese,37.9882,-87.49376
2,07P1lX4Imwd_ngMsD8uDGw,Poke River,IN,Evansville,47715,34.0,5.0,6240 E Virginia St,japanese hawaiian bubbletea,37.981964,-87.475327
3,M8Z0heZRLFXsZvSvsak5Og,D-Ice,IN,Evansville,47715,3.0,4.0,800 N River Rd,icecream bubbletea,37.985059,-87.494826
5,bJL5JCBFC2uuD1EbK_cTmg,Thai Papaya Cuisine,IN,Evansville,47715,145.0,4.5,1434 Tutor Ln,thai,37.99011,-87.47575
6,mxEhV8RcB7PbVJ5yYTgCeQ,China Experience,IN,Evansville,47715,7.0,2.5,800 N Green River Rd,chinese,37.984427,-87.495665
0,BmmTPH9bQU00Z0nBDb9jxw,Tita Boba,TN,Clarksville,37040,4.0,5.0,100 Main St,bubbletea,36.52839,-87.36049
2,PtOhcrCqaOz4Pnd2RGg3mQ,Ezone,TN,Dickson,37055,2.0,5.0,101 N Mulberry St,bubbletea icecream,36.0761697943888,-87.3892376067335
0,atsReHJJTbzErMphF-3lMA,Pelican's SnoBalls: Bowling Green,KY,Bowling Green,42104,11.0,3.5,5844 Scottsville Rd,shavedice shavedsnow desserts,36.9159104,-86.4067885
3,Wz8UA-498eJM-Qjr3Kh2Dw,Bluegrass Brad's,KY,Scottsville,42164,1.0,5.0,1804 Old Gallatin Rd,shavedice icecream,36.73665,-86.21136
3,vUXdOFiIKnYHRf8kx006vQ,Best Donuts,KY,Franklin,42134,14.0,4.0,201 W Cedar St,donuts breakfast_brunch bubbletea,36.7222504,-86.5792755
4,dfBbIfw_Mh8UOfaWAeXNeA,Pelican’s Snoballs,TN,Gallatin,37066,5.0,4.0,817 S Water Ave,shavedice,36.37622,-86.4414
4,nzGFDFGLWYMuQ6NtSbG-pw,Nashville Shaved Ices,TN,Mount Juliet,37122,1.0,5.0,11205 Lebanon Rd,foodtrucks shavedice icecream,36.2328199,-86.5138599
5,6JDz0YuBr6isXuosONr2yg,Cotton & Snow,TN,Nashville,37214,41.0,4.0,2444 Music Valley Dr,icecream shavedice,36.221392,-86.69564
7,9J_bnHSByp5TwxhfNKEaow,Pelican's Snoballs,TN,Mt. Juliet,37122,2.0,5.0,11853 Lebanon Rd,shavedice,36.23189774362356,-86.52453254697379
3,VGgIzajcL-4Bg0utzNR3Aw,Blue Monkey Shaved Ice,TN,Nashville,37204,21.0,4.5,2611 12th Ave S,foodtrucks shavedice,36.1232963,-86.790152
5,TJQtdJZtThrQb2wz55XP6Q,The Sno Shack,TN,Cookeville,38501,3.0,4.5,410 E Spring St,shavedice,36.162045,-85.498526
6,EEYl4Na1gn2yz3IhZ1mScg,Retro Sno,TN,Nashville,37209,50.0,4.5,806 51st Ave N,foodtrucks shavedice,36.15728,-86.84845
9,umR6HgRVWYHcXzsxCQ92Ag,Sips,TN,Hermitage,37076,72.0,5.0,4130 Lebanon Pike,shavedice coffee juicebars,36.2007959,-86.618692
11,5vrq_YbbY0HE3NrJvaIYcw,Kona Ice Lil' Music City,TN,Nashville,37201,2.0,4.5,,foodtrucks shavedice icecream,36.0728366615121,-86.9621511079346
12,R-PW9OTuSLPLyWA6YsVK9Q,Cotton & Snow,TN,Nashville,37203,15.0,4.0,5055 Broadway Place,shavedice coffee icecream,36.161341569443735,-86.77924999999999
13,IWRClXjIBarIbY7WUWV-ug,Locust,TN,Nashville,37204,79.0,4.5,2305 12th Ave S,shavedice japanese noodles,36.127384,-86.789372
14,IE-5GIHlAINr0zO4lrJ_Lg,I Dream of Weenie,TN,Nashville,37206,217.0,4.5,113 S 11th St,foodstands hotdog,36.1765165966812,-86.7499537146306
15,UYO_d_iqHp4trXNxVOVR1w,Bastion,TN,Nashville,37203,210.0,4.5,434 Houston St,cocktailbars newamerican,36.1432,-86.76693
16,7CBsFEzEny_Ro833RS6Acg,Farmer's Market Deli & Grill,TN,Nashville,37243,9.0,3.5,900 Rosa L Parks Blvd,tradamerican farmersmarket,36.169445,-86.78794
17,XzzGAAk_E3FJ9bdri71oCA,IT'Z A Philly Thing,TN,Nashville,37221,63.0,4.5,7609 Hwy 70 S,foodtrucks cheesesteaks shavedice,36.076449025540484,-86.94748366534496
18,COUrys3dxus7M56NH06zZg,WIN Bubble Tea - Nolensville,TN,Nashville,37211,54.0,4.0,3929 Nolensville Pike,bubbletea shavedice,36.08518833,-86.73049833
19,1SQdqp3oEtDe4aQ1fGNJ5g,Assembly Food Hall,TN,Nashville,37203,93.0,4.0,5055 Broadway Place,food_court venues publicmarkets,36.16054725615423,-86.77963757773803
20,A_lsaliw6jk7DQV6rTfY_A,Sunda - Nashville,TN,Nashville,37203,428.0,4.0,592 12th Ave S,asianfusion sushi filipino,36.1516171,-86.7840928
5,GqwhaekFVSLesyxXpH8klA,International Tea & Coffee,TN,White House,37188,2.0,5.0,132 Hwy 76,bubbletea coffee,36.46922,-86.65531
2,vYYqTWv0v3diVgsR4UGjjg,The Sno Shack,TN,Livingston,38570,1.0,1.0,101 S Court Sq,shavedice,36.383049,-85.3225937
0,KgmzLieJpwsuLbAh5Zr6LA,WIN Bubble Tea - Madison,TN,Nashville-Davidson metropolitan government (balance),37115,1.0,5.0,2271 Gallatin Pike N,coffee bubbletea,36.3072618,-86.6845878
5,T9koPt8ECKxSZ4-uCpKA7A,Crepe & Creme,TN,Cookeville,38501,17.0,4.0,644 N Walnut Ave,icecream bubbletea creperies,36.17159,-85.50536
6,jfvNWChH6Q7qynCG8bWRPw,Yin Yang Tea,TN,Nashville,37208,77.0,4.5,83 Van Buren St,bubbletea,36.1824943,-86.784755
9,1zCYF2wUZLcOr0JDdM9zbQ,Win Bubble Tea - Madison,TN,Madison,37115,2.0,3.0,2271 Gallatin Pike N,bubbletea,36.3072618,-86.6845878
10,YC5VPyejP_5ZpvERE283DQ,Bubble Love,TN,Nashville,37208,50.0,3.0,900 Rosa L Parks Blvd,bubbletea,36.17111,-86.78779
11,8ywbOBjzW0GgXlD0tUxCVQ,Crave,TN,Hendersonville,37075,32.0,3.0,300 Indian Lake Blvd,desserts icecream,36.329738,-86.591487
12,GAbSLpzFLeFwjWI-c8RfNQ,Phó Lee,TN,Mt. Juliet,37122,44.0,4.5,1710 N Mt Juliet Rd,vietnamese thai panasian,36.193828,-86.517942
13,911_YbTsUrh_-tRchNkzJw,Eating Thai,TN,Hendersonville,37075,114.0,4.5,115 Walton Ferry Rd,thai,36.302917,-86.618901
14,vdhIVMh9QRG37-SpC7VvKg,Yummy Pho Bac,TN,Mt. Juliet,37122,78.0,4.0,2037 N Mt Juliet Rd,thai vietnamese,36.198433,-86.518608
15,q7h9Feqfh3AEJTzAwru07Q,Steamboys,TN,Hermitage,37076,111.0,4.5,3907 Lebanon Pike,chinese,36.1950544,-86.6218285
16,XJCLrciP5Fhb-Zz_1dT2eA,La Chine China Bistro,TN,Hendersonville,37075,52.0,4.0,118 Saundersville Rd,chinese asianfusion,36.3260221280067,-86.5923801082075
17,P6iHMvttUL4HJ0fXbb_gow,Billy Goat Coffee Café,TN,Mt. Juliet,37122,127.0,4.0,3690 N Mt Juliet Rd,coffee cafes,36.2215539,-86.515419
18,qAyZXMjWo5mW21Ql53iThA,Chada Thai Sushi & Pho,TN,Mt Juliet,37122,104.0,4.0,600 S Mt Juliet Rd,thai sushi,36.16339,-86.51555
19,3FelB_85LZ_jbIWfEZl1GA,Saigon Basil,TN,Mount Juliet,37122,88.0,4.5,151 Adams Ln,vietnamese thai chinese,36.1696828217968,-86.5174392610788
20,JQz2Zybnodhpl6_zHZc1ew,Simply Thai & Sushi,TN,Old Hickory,37138,143.0,4.0,3418 Old Hickory Blvd,thai gluten_free vegetarian,36.242061,-86.63372
21,nlNAluD3re_KnCcQHuZc2A,Steam Boys,TN,Nashville,37208,310.0,4.0,1200 2nd Ave N,chinese,36.1770609,-86.7845561
22,uL3qjBUpIqTPvVRnFC7Ung,Sweet Moo's,TN,Nashville,37214,6.0,1.5,433 Opry Mills Dr,icecream foodstands,36.203296015735084,-86.69244677775959
23,I81Ua5IltIBphFKnHmKwlg,Far East Nashville,TN,Nashville,37206,251.0,4.0,1008 Fatherland St,vietnamese beerbar tapasmallplates,36.17392,-86.75091
24,AWscUqDFoXF03qIApherGw,Otaku Ramen ,TN,Nashville,37206,23.0,3.5,604 Gallatin Ave,ramen bubbletea,36.18289,-86.74917
3,U27iAyTZ56_UjavbY5SRiw,Lakeside Sno,TN,Byrdstown,38549,4.0,5.0,111 Frisco Ln,shavedice icecream foodstands,36.542289,-85.16071
2,4gZnYLShzTipWxEX2tnOew,Sweet Boba Cafe,TN,Cookeville,38501,9.0,4.0,650 S Jefferson Ave,coffee bubbletea shavedsnow,36.14729,-85.50031
22,zqEmarWiEUQ5jl9R4t8CnQ,Plaza Mariachi,TN,Nashville,37211,120.0,4.5,3955 Nolensville Pk,culturalcenter food_court theater,36.0843658715857,-86.730331189412
23,nxdtFZh00Bdzf_OUNYdhYg,Thai Papaya Restaurant,TN,Antioch,37211,143.0,3.5,321 Harding Pl,vietnamese sushi thai,36.0865818,-86.6928543
26,2Yrf_aECZVHgTBVyw1r2kA,Ginger Thai,TN,Nashville,37211,259.0,4.0,2861 Logan St,thai,36.1117462,-86.7418924
17,xLL41_oIa0ouS7iySgmIsg,Karen Thai & Sushi,TN,Smyrna,37167,64.0,4.5,291 Sam Ridley Pkwy E,sushi thai asianfusion,35.99718,-86.49784
18,x_WAibr5lddS-QQqzN5ztw,C R Noodle House Thai & Lao Restaurant,TN,La Vergne,37086,65.0,4.0,5270 Murfreesboro Rd,thai noodles laotian,36.01741,-86.56737
5,bWFZ_VkmkY2oA4NlWXPVBg,WIN Bubble Tea - Hickory Hollow,TN,Antioch,37013,10.0,4.5,5253 Hickory Hollow Pkwy,bubbletea desserts coffee,36.047976,-86.657306
10,nP1HqTxrDQD-psxUCLrpkQ,Chill Spot,TN,Brentwood,37027,160.0,4.0,330 Franklin Rd,bubbletea wraps newamerican,36.026493274237296,-86.78971285805996
16,RdHc7cLUUAFgdUM3eRdrGw,Yin Yang Tea,TN,Nashville,37209,5.0,4.0,265 White Bridge Pike,bubbletea,36.14342,-86.85823
18,8wRT3Bt0LUtXeh1-dqTs0Q,Funtime Ramen & Tea Bar,TN,Nashville,37212,63.0,4.0,1703 Portland Ave,ramen juicebars tapasmallplates,36.132658,-86.796351
20,rb8_ulLxFtcvGVbz7AglLQ,Sweet Dots,TN,Nashville,37203,5.0,4.0,2217 Elliston Pl,bubbletea,36.151283736951285,-86.80405031598897
25,_3hT6D26_1uGR_W1RcmUaA,WIN Bubble Tea - White Bridge,TN,Nashville,37205,28.0,4.0,99 White Bridge Pike,bubbletea coffee cafes,36.131648,-86.858137
27,jJ4zZY2cZj6VRY5pUL6lIg,Baker Boss Cafe,TN,Nashville,37211,61.0,4.5,5694 Nolensville Pike,bubbletea vietnamese,36.0469533703489,-86.7104372754693
31,tZCa7lmhBDvyObpxBwI69Q,Banh Mi and Roll Plus,TN,Nashville,37212,45.0,4.5,1808 20th Ave S,vietnamese,36.13636033049449,-86.79947249784716
32,VGzkEiZz7gqK_SYW86GlaA,Meet Noodles,TN,Nashville,37212,330.0,4.5,2121 Belcourt Ave,noodles chinese,36.1365574157958,-86.8027609214187
37,w520vYWEpEYBf90rSr9NVA,The Smiling Elephant,TN,Nashville,37204,613.0,4.0,2213 8th Ave S,thai chinese seafood,36.12933,-86.77861
39,EaVe0Pn7v2wt4b_jGYr5lw,Hai's Sushi & Pho,TN,Nashville,37204,110.0,4.0,2617 8th Ave S,sushi vietnamese japanese,36.119208,-86.777097
40,JPoLb8jZYc5e7WjI2coVkQ,"Love, Peace & Pho",TN,Nashville,37204,422.0,3.5,2112 8th Ave S,vietnamese,36.13149,-86.77847
42,6kAXOzE7fqaBZINQV_-_mg,Kien Giang,TN,Nashville,37209,331.0,4.0,5845 Charlotte Pike,vietnamese,36.148333,-86.862353
43,K0mA7srJ-1aFZhSUzMWM_g,Nomnivore! Sushi Et Cetera,TN,Nashville,37203,21.0,3.0,2057 Scarritt Pl,sushi,36.1458780165479,-86.7985175
44,PU0k0ylp9ZIjTAadluXXdg,Satay Thai,TN,Nashville,37203,123.0,3.5,2412 Elliston Pl,thai,36.1481145,-86.8079785
45,cXmYgauFIBwqo3UMwkagDA,Pho Ann,TN,Nashville,37205,145.0,4.5,4516 Harding Pike,vietnamese,36.1242619,-86.8488552
46,C5lUI7qJ8NnmawAFVPZg8A,China Dragon,TN,Nashville,37203,105.0,3.0,2914 W End Ave,chinese,36.1442382,-86.8137944
47,xxx_0Ol7lbK0hVzv7x0-Yg,Lucky Bamboo China Bistro,TN,Nashville,37209,533.0,3.5,5855 Charlotte Pike,szechuan hotpot dimsum,36.147085,-86.863277
13,kuVsa7ewdSkzK96pJMkUtQ,WIN Bubble Tea - Bellevue,TN,Bellevue,37221,7.0,4.5,7648 Hwy 70 S,bubbletea,36.080141505912685,-86.95312624328287
41,iTEqQMrPa88swEV-ZR85XA,Hoang Tofu,TN,Nashville,37209,78.0,4.5,6333 Charlotte Pike,vietnamese sandwiches noodles,36.14461,-86.87229
48,9Elafazm4QcFRL5VCspPrw,Pho T&N,TN,Nashville,37209,93.0,4.5,3745 Annex Ave,vietnamese,36.1412121,-86.8838496
6,ooUI-JC2tu0J-vavmOHZYQ,VN Pho & Deli,TN,Nashville,37209,447.0,4.5,5906 Charlotte Pike,vietnamese sandwiches coffee,36.14921,-86.86406
1,E4uZNDhfQKFqfZyp1XlhgA,St. Joe Shaved Ice,IN,Evansville,47720,1.0,5.0,2640 N St Joseph Ave,shavedice,38.0016132,-87.6001449
