,id,name,state,city,zip code,review count,rating,address,categories,latitude,longitude
0,86B5TkUi1Qg_9TjBdh45HQ,Frosty's Pop Shop,AZ,Prescott Valley,86314,8.0,5.0,8164 E State Rte 69,shavedice,34.586702,-112.323079
1,cgumqPeKMzs4XqAyY27WMg,Momo's Kitchen,AZ,Sedona,86336,199.0,5.0,301 N State Rte 89A,korean foodtrucks,34.87109090347417,-111.76045227275995
2,0T1-iPbml449ESH3BmdLpg,La Botana Loka,AZ,Prescott Valley,86314,14.0,4.5,8449 E Spouse Dr,mexican shavedice bubbletea,34.60945,-112.31656
3,E8MmErCrrlvRfFx4_7WFKQ,Aloha Hawaiian BBQ,AZ,Flagstaff,86001,292.0,3.5,16 E Rt 66,hawaiian,35.197591,-111.64834
4,kOg8NdeMdyUrCz2qFkBW1Q,Miguelito Dulceria & Raspados,AZ,Flagstaff,86001,3.0,1.5,1051 S Milton Rd,shavedice intlgrocery,35.190394,-111.661709
5,YeyaYfsxhwtuC4NH-pEnlA,Canyon Breeze Restaurant,AZ,Sedona,86336,239.0,2.5,300 N Hwy 89A,icecream pizza mexican,34.870649,-111.759696
6,0VuvZc7Y2bBh2AM1sI3kOA,Colt 804 Grill,AZ,Cottonwood,86326,610.0,4.5,804 N Main St,tradamerican bars bbq,34.74601,-112.02757
0,0bi7N_sZLm0f1kuBuehl0w,Sono Kitchen & Boba,AZ,Sedona,86336,116.0,4.0,285 Jordan Rd,bubbletea asianfusion juicebars,34.87,-111.76125
2,kjopejyakY8FSmQq498E6w,Sweet Day Tea and Coffee,AZ,Flagstaff,86001,31.0,3.0,1441 S Milton Rd,coffee bubbletea desserts,35.1863328768329,-111.662046723068
3,-S5wV2t43XnLQ958YAA5PA,Sauced Potstickers,AZ,Prescott Valley,86314,149.0,4.5,8617 E Florentine Rd,chinese bubbletea,34.586297647392186,-112.3147215423289
4,0fhoqLglAgQM_diDyEsIUg,The Boba Bliss,AZ,Prescott Valley,86314,3.0,3.5,7025 Florentine Rd,juicebars bubbletea,34.588534874278395,-112.34158938804275
5,aYbCZ0EIn_6HmpZ99opmUA,Chopstix Vietnamese Kitchen,AZ,Flagstaff,86001,169.0,4.0,601 E Piccadilly Dr,vietnamese bubbletea soup,35.191289,-111.643179
6,MS9i9Dv3FRQMZH13oXEERA,Kokiyo,AZ,Flagstaff,86001,196.0,4.5,116 S San Francisco St,korean japanese asianfusion,35.194774,-111.649037
7,SiOZJIne9fsGKHCg0q34mw,Thai Express,AZ,Prescott,86303,3.0,2.5,3250 Gateway Blvd,thai bubbletea,34.546965,-112.409145
2,k-a0e_umzascJHLcb7lLAg,Delgadillo's Snow Cap Drive-In,AZ,Seligman,86337,177.0,4.5,301 W Chino Ave,burgers icecream hotdog,35.3258331,-112.8729968
1,UaxBOZ5BgC9vWMs8UBOmwA,Mahalo Made,AZ,Phoenix,85014,32.0,4.5,1215 E Missouri Ave,shavedice,33.51621,-112.05543
2,WpzRURptZ2FIxBmJMl4MXA,KamanaWana Hawaiian Treats,AZ,Phoenix,85023,302.0,4.5,13825 N 19th Ave,juicebars shavedice acaibowls,33.6120371499425,-112.099178971094
4,5ViysgPio0TAs7LAa1nT_w,Tropical Sno,AZ,Phoenix,85032,53.0,4.5,16835 N 40th St,icecream desserts shavedice,33.6404014192334,-111.995933088426
5,JK0GkhqsHZJM1Ye_lQCcmg,Tropical Sno,AZ,Glendale,85304,47.0,4.5,6630 W Cactus Rd,desserts,33.596616058315,-112.200465952277
6,aJh31cYPJTMffdASkiMrdw,Happy Honu Shave Ice,AZ,Peoria,85373,23.0,4.5,,shavedice foodtrucks desserts,33.64418,-112.28016
7,ecf26TgLNn6ViNPGRtr4Uw,H2O and More,AZ,Surprise,85374,11.0,4.5,15508 W Bell Rd,shavedice waterstores,33.64027,-112.394645
8,wkmyYAEOLAXz3J66Fqu3Kw,Desert Snow,AZ,Peoria,85383,5.0,5.0,29799 N Lake Pleasant Pkwy,shavedice popcorn,33.7527333,-112.25333
9,aYyddTjTzPYHq17eS4hTzg,Bahama Buck's,AZ,Phoenix,85032,50.0,4.0,3121 E Greenway Rd,shavedice,33.62601,-112.01528
10,kL-ewcgP_Qbakdf1afIqIA,Sumo Snow,AZ,Surprise,85388,280.0,4.5,16487 W Bell Rd,bubbletea desserts juicebars,33.6386351,-112.4133177
11,hEB8FaS1EvWds03l7QGXyw,Neptunes Waters,AZ,Glendale,85310,26.0,5.0,23425 N 39th Dr,shavedice icecream waterstores,33.6991851807646,-112.141780257225
12,JIpVBlSdY9WgNZK1I17H2g,FlyBoyz Snowballz,AZ,Phoenix,85301,2.0,5.0,4832 N 59th Ave,shavedice,33.50883,-112.18672833
13,22sPntmWV-xqWdotZgSp8A,Glendale Water 'n Ice,AZ,Glendale,85304,20.0,4.5,13629 N 59th Ave,shavedice icecream waterstores,33.609221958817,-112.185121600525
14,JY9MHa3PdjIYp_D7E4GAIw,Wow Wow Hawaiian Lemonade,AZ,Scottsdale,85254,279.0,4.5,6501 E Greenway Pkwy,juicebars breakfast_brunch coffee,33.624605,-111.941474
15,5UCUIK-O6m7tSpi02B6F5g,Oasis Raspados,AZ,Phoenix,85032,30.0,4.0,3202 E Greenway Rd,shavedice icecream mexican,33.627641,-112.01161
16,LDOMdbQvEa8PL7TZCFExOQ,Dessert In Desert,AZ,Scottsdale,85255,228.0,5.0,18511 N Scottsdale Rd,desserts icecream shavedsnow,33.652297,-111.924765
17,HbzO-ZpnoR1hkOaygZPKYA,Rita's Italian Ice,AZ,Phoenix,85032,88.0,4.0,4727 E Bell Rd,shavedice icecream desserts,33.6382395728549,-111.978357133591
19,EsJ_iCNSHu_8N--XsK9Rjg,Raspados Solaris,AZ,Phoenix,85020,152.0,5.0,9204 N 7th St,desserts shavedice icecream,33.5700759,-112.0656616
20,loeW2G8tSIp1cLD3zB1NoQ,Urban Boba Tea House,AZ,Phoenix,85085,252.0,4.0,2470 W Happy Valley Rd,bubbletea coffee,33.7146952488641,-112.112520669301
21,47EzONubwoxiV29NGo-Mzw,Bubble Cups,AZ,Glendale,85308,172.0,4.0,6661 W Bell Rd,bubbletea juicebars coffee,33.6371731776542,-112.201407500003
22,lliQjBAUuy8RHoG7D6mBUg,Scooptopia,AZ,Phoenix,85012,182.0,5.0,4700 N Central Ave,icecream bubbletea shavedice,33.506043,-112.074506
23,Q3vsiXluRag8dOwPzDs_8g,Daisy's Cravings,AZ,Glendale,85302,7.0,4.0,4707 W Olive Ave,shavedice icecream juicebars,33.56700167,-112.160612
24,2lpJJZ9ooU1RvcW7COH6og,Cuties Lemonade & More,AZ,Phoenix,85053,7.0,4.0,4229 W Bell Rd,juicebars foodtrucks shavedice,33.6391451,-112.1499477
25,chygQNZlBucpYtL6gIC8-w,El Mix Raspados,AZ,El Mirage,85335,13.0,5.0,12550 W Thunderbird Rd,desserts mexican markets,33.60943,-112.32946
26,y48ZoyTeQW3_tMggyr5Axw,Tambayan at Joann’s,AZ,Phoenix,85013,56.0,5.0,720 W Highland Ave,filipino desserts bbq,33.506070419927376,-112.08373263618036
27,NEinRS0q-WZeSSVoTI7avQ,The Water Connection,AZ,Phoenix,85018,49.0,4.0,3929 E Camelback Rd,shavedice waterstores,33.509376,-111.996333
28,_HGz-BfLYJlShdz_eg3BOw,Windy City Dogs,AZ,El Mirage,85335,66.0,4.5,10100 N El Mirage Rd,hotdog hotdogs shavedice,33.57486543281815,-112.32559208452848
29,xhyzmAnZp2snpBklfcr3Sw,Sizzle Korean Barbeque,AZ,Phoenix,85050,636.0,4.0,21001 N Tatum Blvd,korean bbq asianfusion,33.6760477680625,-111.97204025298
30,KE3jpynolXq36VmhH6Zn7w,Rita's Italian Ice - Custard- Happiness,AZ,Glendale,85308,67.0,4.0,5940 C W Union Hills Dr,icecream desserts,33.654599,-112.188573
31,RuWcOn20A0bgySjr0HWZkA,V.Nam Pho,AZ,Surprise,85374,219.0,4.5,15332 W Bell Rd,vietnamese,33.6391289,-112.390736
32,P3M-rP6CBR0XEHiZee3RnQ,Alebrije Neveria,AZ,Phoenix,85021,33.0,4.5,10171 N 19th Ave,icecream shavedice desserts,33.57819,-112.09884
33,3YTcSTDdb-nb-Q2upkVOLA,Johnny  Dog,AZ,Phoenix,85041,2.0,3.0,Reach11 Sports Park,foodstands shavedice hotdog,33.6264251125816,-112.056868603314
34,iZMdwe0xebE3rF0x3LOr4w,Banh Mi Bistro Vietnamese Eatery,AZ,Phoenix,85023,590.0,4.5,2340 W Bell Rd,vietnamese noodles sandwiches,33.6406782416876,-112.110540077578
35,LW5f9ojFfRCqIYlqpyx1cA,Arrowhead Ranch Water & Ice,AZ,Glendale,85308,30.0,4.5,20280 N 59th Ave,shavedice waterstores,33.6703898748887,-112.188346758485
36,thLX_k20SPJ0KyusGTBIHw,Diego Pops,AZ,Scottsdale,85251,2079.0,4.0,4338 N Scottsdale Rd,mexican cocktailbars,33.499382019043,-111.926490783691
37,EpPOZAG0u7qHP-jv5HjFUg,Koi Poke,AZ,Scottsdale,85255,399.0,5.0,18221 N Pima Rd,poke hawaiian sushi,33.65186937706283,-111.88611490078465
38,nZZaLSXkCBYRri9ZfVOgyw,Casa Filipina Bakeshop & Restaurant,AZ,Phoenix,85053,278.0,4.0,3531 W Thunderbird Rd,bakeries filipino desserts,33.6092740857473,-112.135082780426
39,KUq5PFdHvbvVj6ubJ311rg,Water Plus Ice,AZ,Phoenix,85020,8.0,4.0,7000 N 16th St,juicebars,33.5389289855957,-112.048080444336
40,6zk3QLl5wSc5bFtHrqvZyw,Water Mart,AZ,Phoenix,85028,9.0,4.5,10855 N Tatum Blvd,waterdelivery icecream shavedice,33.5849782,-111.9776851
41,vn5Ebwy-IdtJ6PQE6y7vaA,Halo-Halo Kitchen,AZ,Phoenix,85051,256.0,3.5,3553 W Dunlap Ave,filipino karaoke,33.5674351,-112.1358199
42,WxOkVhAc5a4gmNA2gXIuNw,Cara's  Kettle Corn,AZ,Phoenix,85024,3.0,5.0,908 E Wescott Dr,streetvendors shavedice popcorn,33.6585206636221,-112.060811948945
43,cO3m54wXVDJW8ryy_2wpBQ,Antojitos Mi Pueblo Restaurant,AZ,Phoenix,85021,25.0,4.5,505 W Dunlap Ave,shavedice icecream mexican,33.567189641974714,-112.08112468765722
44,RvG07zPC9O_g9GXA5Lt9gQ,My Tea,AZ,Phoenix,85012,175.0,4.0,4750 N Central Ave,bubbletea juicebars shavedsnow,33.506863,-112.074149
45,nFVqjh-JCOuV2Uci1ZfJ_Q,Leo's Island BBQ,AZ,Peoria,85382,632.0,4.5,7665 W Bell Rd,hawaiian bbq seafood,33.636959,-112.224057
46,4CdzgVNA-nFZtCgM8wMiDw,Chavelas Water & Ice-Cream Eatery,AZ,Glendale,85301,15.0,4.5,5630 W Camelback Rd,icecream burgers shavedice,33.50998,-112.18007
47,WzxEswO59pWGodBe6k-0Cg,El Imperio Del Sabor,AZ,Glendale,85301,5.0,3.5,5802 W Camelback Rd,mexican,33.5096949,-112.1842059
48,CQDJ2y9sLxc0HfwNO5R3Ew,Pho Avina,AZ,Glendale,85306,404.0,4.0,4920 W Thunderbird Rd,vietnamese soup bubbletea,33.611367,-112.16568
49,fT6Uwl6abRQfiNgxre_qbg,Cherryblossom Noodle Cafe,AZ,Phoenix,85014,1308.0,4.0,914 E Camelback Rd,sushi noodles ramen,33.5098020415682,-112.061086646033
0,7BPZTyrureyPA32rnHFUNQ,Desert H20 To Go,AZ,Phoenix,85027,13.0,3.5,18631 N 19th Ave,shavedice icecream,33.65574370270156,-112.0988897986887
1,-PABBD9nMgAYZHSShqGsjg,Bomboba,AZ,Peoria,85345,343.0,3.5,7521 W Cactus Rd,bubbletea juicebars icecream,33.594428,-112.220875
2,n4HJ0fTMwMEGx07tzhN7Gw,El Kiosco Mexican Snacks,AZ,Phoenix,85020,13.0,4.5,8929 N Central Ave,shavedice mexican,33.56708,-112.07334
3,ZcJG3Sny3jiOLfvPQynNbA,la Fruta Loca,AZ,El Mirage,85335,7.0,3.5,12010 W Thunderbird Rd,shavedice,33.60907,-112.31874
4,O8sBSjxL8hQbA41lKtcoJg,BoSa Donuts,AZ,Phoenix,85028,102.0,4.0,10876 N 32nd St,donuts breakfast_brunch,33.585651,-112.0132849
5,emSTCpU-JIOw2-KfqverpQ,Neveria Chay'os,AZ,Phoenix,85051,21.0,4.0,3445 W Glendale Ave,juicebars desserts shavedice,33.538058,-112.133464
6,C0EXdaVIuFf0smZj3Qj5Qg,Brimley's Water & Ice,AZ,Phoenix,85051,18.0,4.5,3415 W Glendale Ave,waterstores shavedice icecream,33.537203,-112.132754
7,DymZ5vpm7vkSsR__-4sflw,Roka Akor - Scottsdale,AZ,Scottsdale,85253,1070.0,4.0,7299 N Scottsdale Rd,japanese sushi steak,33.54274247101847,-111.92508912270185
8,wGgpovXSEy8ZqEps2UkSZw,El Glaciar de Arizona,AZ,Phoenix,85019,2.0,4.0,3650 W Camelback Rd,desserts shavedice shavedsnow,33.50996,-112.13822
9,06urv9mZcsRbmY_lOzdoNA,Rigos Water n' Ice,AZ,Phoenix,85032,4.0,4.0,3202 E Greenway Rd,waterstores shavedice juicebars,33.627394816076844,-112.01239941822487
10,LnXRLBNEPw2BjRTqdij0hw,Water Mart,AZ,Scottsdale,85251,9.0,3.5,4408 N Miller Rd,shavedice waterstores icecream,33.501381848063346,-111.91903859056731
11,I9fDzGfSNtrBIS4fWLscgQ,Flaming Pig,AZ,Phoenix,85015,81.0,4.0,1534 W Camelback Rd,filipino bbq soup,33.50977882217892,-112.09263749420643
12,YL09OY1Pqu-Ju9npofGYPA,Nobu Scottsdale,AZ,Scottsdale,85251,259.0,4.0,7014 E Camelback Rd,sushi japanese asianfusion,33.504405359225274,-111.93157753014749
13,8Y5p2IQMLX6QjGPzxanexg,"Ohya Sushi, Korean Kitchen & Bar",AZ,Glendale,85306,628.0,3.5,4920 W Thunderbird Rd,korean sushi bars,33.6116508042702,-112.165567972652
14,KyUFj09bfowyddCuOTP4mg,Little Saigon,AZ,Glendale,85301,573.0,4.5,7016 N 57th Ave,vietnamese,33.539105039664264,-112.18143537286828
15,hMVLNbMU_CfSSNNrAYxBHg,Osteria Mia,AZ,Phoenix,85085,226.0,4.0,2530 W Happy Valley Rd,italian wine_bars pizza,33.715515,-112.113764
16,mqAIwd3U9I32qwOq3o_Fmw,Aqua Zona Water and More,AZ,Glendale,85301,8.0,3.0,7980 N 51st Ave,shavedice waterstores icecream,33.55179,-112.16942
17,3MutZJ4mfM3Ds450rbpMiw,Hand Cut Burgers & Chophouse,AZ,Scottsdale,85251,665.0,4.0,7135 E Camelback Rd,burgers steak cocktailbars,33.501293,-111.928447
18,oNWEtQqf-YOfEa69H2XmLQ,Zion Latin Delights,AZ,Phoenix,85019,1.0,5.0,3650 W Camelbak Rd #4,desserts shavedice icecream,33.50996,-112.13822
19,i0sp8DNw3FolMn-uGIkVyw,Dazzo's Dog House,AZ,Glendale,85301,187.0,4.0,6143 W Glendale Ave,hotdog,33.538177,-112.192619
20,cvu61K0_g7ZIpaEPCiaNcA,Seoul BBQ & Sushi,AZ,Phoenix,85029,541.0,4.0,11025 N Black Canyon Hwy,korean sushi bbq,33.587091,-112.115786
21,MlDrGjD4356IReuGd5j6ww,Pho Saigon Pearl,AZ,Glendale,85306,103.0,4.0,5843 W Thunderbird Rd,vietnamese bars,33.6106051,-112.1855372
22,p64mw9sYIPtazkwXK8yhWw,La Pasadita Hot Dogs,AZ,Phoenix,85019,27.0,4.0,3601 W Camelback Rd,hotdog mexican,33.5092716,-112.1363882
23,Jj8ubiwwuCR-rrhrrjcryw,Da Vang Restaurant,AZ,Phoenix,85015,776.0,4.0,4538 N 19th Ave,vietnamese,33.5038147,-112.1000349
3,buCHvDJAfGRBJwPi2nDbxA,Koko Boba Tea House,AZ,Scottsdale,85254,12.0,4.5,6339 E Greenway Rd,bubbletea juicebars coffee,33.62466,-111.94352
4,3jfVDQDLFwgquYgxYQPfEA,Dingle Berries Coffee Tea & Juice,AZ,Phoenix,85032,108.0,5.0,3624 E Bell Rd,coffee juicebars bubbletea,33.641147,-112.003766
6,uFCEU_OtDoF2_7NZ8jYBEw,Milk Run,AZ,Phoenix,85015,559.0,4.5,1702 W Camelback Rd,coffee bubbletea icecream,33.51013166256469,-112.09600387304674
7,qxdVMa8OMTGun1rASvykPQ,Teamania,AZ,Glendale,85308,119.0,4.5,20280 N 59th Ave,bubbletea,33.67040017,-112.188006
8,pDQfWCqc-i4CHnBpquJARQ,Bubble Bee,AZ,Scottsdale,85260,124.0,3.5,15147 N Scottsdale Rd,bubbletea,33.6235809493021,-111.924310103059
10,lnJAEPihmksCPRY5P8ZSOA,Tastea,AZ,Glendale,85305,207.0,4.5,9184 W Northern Ave,bubbletea juicebars tea,33.5525,-112.256889
11,XFSyia6RVCCmcqYNSub9JQ,Sharetea,AZ,Phoenix,85050,145.0,4.0,21001 North Tatum Blvd,bubbletea coffee juicebars,33.675946,-111.972247
12,72qsXmMGrUZ7MsnONWWRDw,Boba Day,AZ,Scottsdale,85254,151.0,4.5,4839 E Greenway Rd,juicebars bubbletea coffee,33.6259,-111.97671
13,gW-LWcIT34bqM6yn26xTuQ,Bobaholic Milk Tea Lounge,AZ,Phoenix,85017,83.0,4.0,6135 N 35th Ave,bubbletea,33.52600005397647,-112.1304854831689
15,Q993AJfp4KNXrlmYTacrUQ,Aloha Tea & Coffee,AZ,Glendale,85303,125.0,4.5,6766 W Glendale Ave,coffee,33.53903617,-112.2049055
16,Igc8x8fFwISqw_uXcqnQCQ,KoKo Boba Tea House,AZ,Scottsdale,85258,85.0,4.0,9393 N 90th St,bubbletea juicebars coffee,33.5700427458527,-111.88703135574559
18,Z9C6I8TrHRPey5KSAX1TmA,Koala Tea,AZ,Surprise,85388,68.0,4.0,16630 W Greenway Rd,bubbletea icecream juicebars,33.625687,-112.416553
19,NctCjAM_13akCfvulWmA1A,Cafe Mollie,AZ,Phoenix,85016,41.0,4.5,6031 N 16th St,coffee bubbletea desserts,33.5248781,-112.0467288
20,vLOlA3y9GwCyZ8CS0FAswA,Sip ‘N Go,AZ,Litchfield Park,85340,8.0,5.0,5115 N Dysart Rd,desserts juicebars bubbletea,33.509664,-112.339201
21,7Pjuyrj1xwRskC8RbUMdpg,Tastea Boba,AZ,Phoenix,85022,108.0,3.5,743 E Bell Rd,vietnamese coffee juicebars,33.6392,-112.06355167
22,BLvcA14BVJYSPjaVnNUKFg,Scoop and Joy,AZ,Scottsdale,85258,494.0,4.5,10135 E. Via Linda,coffee icecream bubbletea,33.57441,-111.86301
24,5ha7zzcghc3TpS7hfXCfUg,Ti-Li Boba,AZ,Glendale,85302,26.0,4.5,5814 W Olive Ave,bubbletea juicebars,33.56887,-112.183866
25,oUJXPurI_LFTZhRCZcRNcg,Zero Degrees,AZ,Glendale,85308,505.0,3.5,7480 W Bell Rd,hotdogs bubbletea coffee,33.6384549,-112.2197482
27,1GVphPSuVyS6AKhwIVYAaQ,NoRa Asian Fresh,AZ,Phoenix,85032,6.0,4.5,4015 E Bell Rd,asianfusion bubbletea,33.64041,-111.99532
28,U5qwBnjmf54Q4pW8Zajt7A,YobaHut,AZ,Phoenix,85017,77.0,4.0,3446 W Camelback Rd,icecream bubbletea waffles,33.511009,-112.132512
29,BA2tYMpTHR3i7X-6qtcWaw,Tea Light Cafe,AZ,Phoenix,85054,436.0,4.0,7000 E Mayo Blvd,vietnamese,33.6580898332657,-111.93295545159
30,Vm9yvFpok8hZpSK8PDMLqw,Rewind - Ice Cream + Boba Tea,AZ,Scottsdale,85258,292.0,4.5,9210 E Via De Ventura,desserts bubbletea icecream,33.5540472,-111.8817616
31,UtlNRoqB_n-u9WoXIgnIUA,Boba Tea Company,AZ,Scottsdale,85251,148.0,3.0,7014 E Camelback Rd,bubbletea,33.503737857008495,-111.92886981844751
32,ajI-NWPHNswiDDTDEtliqg,Blendz Boba Tea Lounge,AZ,Glendale,85305,166.0,3.0,9380 W Westgate Blvd,desserts coffee bubbletea,33.534884,-112.260592
34,-lJaNPDQzhqtZabOj5-6Cg,Churroholic & Hiccups,AZ,Peoria,85305,272.0,3.5,9340 W Northern Ave,desserts coffee icecream,33.552847,-112.260115
35,GLNXA7xov23J7Nd9wRunEQ,Boba Tea Company,AZ,Glendale,85308,34.0,2.5,7700 W Arrowhead Towne Ctr,bubbletea,33.64006,-112.22501
36,TShoU62Hm-4wH2EzwkJbrg,Saigon Nites Vietnamese Cuisine,AZ,Scottsdale,85260,328.0,3.5,15689 N Hayden Rd,vietnamese,33.62814071359242,-111.89147625276799
39,gQMAcDm8kv8ev7x2BshMwg,Pho Thanh,AZ,Phoenix,85015,1013.0,4.0,1702 W Camelback Rd,vietnamese,33.51022987640245,-112.0958230164735
41,IPKc85O4RdV3dC8Smff_SQ,Rainbow Donuts,AZ,Glendale,85302,59.0,4.0,4729 W Olive Ave,donuts coffee bubbletea,33.5673438692391,-112.160723032161
42,rAitZ52DojtzlKROkG2Nsg,EN Boba & Tea,AZ,Phoenix,85301,17.0,2.5,6036 N 67th Ave,bubbletea,33.525390108963634,-112.20358444397405
44,p_V8gH43zZx0Gh_EA__hdg,Bosa Donuts,AZ,Phoenix,85051,90.0,3.5,9025 N 43rd Ave,donuts coffee sandwiches,33.56859,-112.15114
0,Gh0X6OfV85ADPKpWR0NAtg,Paradise Ice,AZ,Lake Havasu City,86403,2.0,5.0,1799 Kiowa Ave,shavedice,34.505204,-114.351527
1,x1o4zkpXHG_lhY9xefu9Iw,Megan and Erik's Water and Ice,AZ,Lake Havasu City,86406,24.0,4.5,3269 Maricopa Ave,shavedice icecream juicebars,34.45897,-114.27879
2,5-NJLCt7Q97eKuoX46TuGg,Heather's Water And Ice,AZ,Lake Havasu City,86403,64.0,4.5,34 Lake Havasu Ave N,juicebars candy shavedice,34.47554,-114.34418
3,nLvuV51IGh1hDXzLFS6fvQ,Burgers By The Bridge,AZ,Lake Havasu City,86403,238.0,4.0,401 Englishvillage,tradamerican burgers,34.472465,-114.346729
4,Buw1qKvWFb-0TzCDScLyHw,Jumpstart'R,AZ,Parker,85344,21.0,4.5,520 Riverside Dr,coffee juicebars desserts,34.1523389326431,-114.285076747329
0,rA9Gz2tLUP245AfKsnI4-Q,Samurai Noodle House,AZ,Bullhead City,86429,53.0,4.0,1047 AZ-95,ramen,35.1500947768314,-114.5682637766
1,p78Src4wD6FYZqD4j2ULLA,The Sweet Spot,CA,Needles,92363,10.0,5.0,1401 Needles Hwy,shavedice,34.848325400396,-114.61054444313
0,KNVIKi9K-pGV1X5vmh2I0A,Unique Eatery,NV,Laughlin,89029,7.0,4.5,1955 S Casino Dr,filipino pizza bubbletea,35.1623080522904,-114.576078057289
0,5929kAKqJ54Rnk26MQtGdQ,Shiver River Shave Ice,AZ,Bullhead City,86429,86.0,5.0,1190 Hwy 95,shavedice icecream sandwiches,35.14329,-114.56876
2,jA1CyMVFTsXt92p8QwG6OQ,The Hop Cafe Express,NV,Laughlin,89029,11.0,2.0,1955 S Casino Dr,burgers shavedice gourmet,35.16234,-114.57604
2,-53NmYtwNpQiuExO1LDUGg,Hawaiian Brain Freeze,NV,Las Vegas,89123,1.0,5.0,240 S Water St,shavedice,36.0305113415082,-114.981202354482
3,NFA0Y5L6iPfzKVWfqO42LA,Purple Penguin Snowcone Shack,NV,Henderson,89015,11.0,4.5,129 S Water St,shavedice icecream,36.03320333,-114.98321833
4,kzGqNedrNnZrDYuJ1Pt-zQ,Snow Vegas Shave Ice,NV,Henderson,89015,5.0,5.0,401 W Lake Mead Pkwy,shavedice,36.035457,-114.995392
6,7m_AVIRE8eovXufAWxnVLw,Un Poko Krazy ,NV,Henderson,89012,13.0,5.0,1590 W Horizon Ridge Pkwy,shavedice,36.01547034762147,-115.05664302737864
7,7xn6RDKmCanq2C8Fn-FNgg,Chilly Jilly'z,NV,Boulder City,89005,491.0,4.5,1680 Boulder City Pkwy,icecream breakfast_brunch tradamerican,35.969097,-114.859
8,McadPiPkXio3lqqQVbtlDQ,Kona Ice Henderson,NV,Henderson,89002,5.0,4.0,,shavedice,35.9920768737793,-114.927169799805
9,zPlrh8BZdz7frAXq2YZyeg,Sugar Lips Icery,NV,Henderson,89002,1.0,5.0,40 E Horizon Ridge Pkwy,shavedice,36.009773,-114.990196
10,KW5edXlPGeZ0cx7MiJyamw,Hi-Coffee Cafe,NV,Henderson,89012,406.0,4.5,90 S Stephanie St,coffee desserts juicebars,36.0254348939207,-115.046733468268
11,MQAh7G93keNYlFKTus2CDQ,La Real De Michoacan,NV,Henderson,89014,121.0,4.5,1039 Whitney Ranch Dr,icecream juicebars tacos,36.0799333,-115.0535585
12,gWeYW0E5Tfmmj_9fugfLNw,Thelma's Filipino Restaurant,NV,Henderson,89014,418.0,3.5,1205 W Sunset Rd,filipino seafood noodles,36.06315,-115.03828
13,xwIJGDiwUz5aorokYKfxIQ,Poke Express,NV,Henderson,89012,408.0,4.5,19 S Stephanie St,poke hawaiian,36.027973410812,-115.048700384796
14,cZAOfOIp_nhL0AsBOxaj3g,"The Human Bean Henderson, E. Lake Mead Pkwy",NV,Henderson,89015,67.0,4.0,71 E Lake Mead Pkwy,coffee,36.03787,-114.98396
15,pLjCXF7nPTN28hHKEkkbOA,Skimos Coffee Shop,NV,Henderson,89014,427.0,4.5,1533 W Sunset Rd,coffee,36.0634951,-115.0490549
16,SqdaY4rEgFh51SbWrj3Wqw,Purple Penguin Snowcone Shack,NV,Henderson,89002,20.0,4.5,401 E Horizon Ridge Pkwy,shavedice,35.997587,-114.988669
2,1TNA6yrRwXyP9q8XG3m0mQ,Noon's Boba Cafe,NV,Henderson,89014,185.0,4.0,1650 W Warm Springs Rd,bubbletea coffee thai,36.0564049,-115.0563245
3,uQdBrm3NDKuxQIh1jISagw,Boba King,NV,Henderson,89015,109.0,4.0,591 College Dr,bubbletea coffee juicebars,36.0134676,-114.9634715
4,CO-p2eB7nLq1JbDrxrz7pw,No 1 Boba Tea - Galleria,NV,Henderson,89014,167.0,4.0,605 Mall Ring Cir,tea bubbletea juicebars,36.0647583762523,-115.040933699849
5,-ojXTESf4-FssKhOUkZffw,Anime Boba Cafe,NV,Henderson,89014,51.0,3.5,1680 W Sunset Rd,bubbletea ramen hotdogs,36.06424,-115.05906
6,HF-ZfqjoDja-pWQMHS2JsA,Daily Spark Coffee,NV,Henderson,89012,107.0,4.5,43 S Stephanie St,coffee bubbletea breakfast_brunch,36.027475,-115.049327
7,seaGvlm3wzjT7ru6xfPelA,No 1 Boba Tea Social,NV,Henderson,89015,30.0,4.5,133 S Water St,bubbletea juicebars tea,36.03310795717751,-114.98279712608083
8,1zMzkxYgVqJbKGTMQorarA,Coo Coo's Café,NV,Henderson,89015,191.0,4.0,19 W Pacific Ave,coffee waffles sandwiches,36.033139,-114.985448
9,KduMkA9Hq0Nz_7MGj1siKA,Tom Yum Thai Kitchen,NV,Henderson,89014,105.0,4.0,1300 W Sunset Rd,thai food_court bubbletea,36.0677967567076,-115.041365912186
0,Bfv_44cJ08Oit6Lf_bfE0g,Bahama Buck's,UT,Saint George,84790,21.0,4.5,2091 E Riverside Dr,juicebars acaibowls shavedice,37.10003168524725,-113.5378298
1,OsMORjMV-fkLW940bWudrQ,The Splash Pad,NV,Mesquite,89027,7.0,3.5,272 W Mesquite Blvd,shavedice juicebars desserts,36.80376,-114.071826
2,dkHvZlNbDXHP4LHKf3264g,Famous Yeti Shave Ice,UT,St. George,84790,6.0,4.5,2928 South Mall Dr,shavedice,37.095296,-113.524427
3,o0s3LOhhCroJ9wCaxsK08A,Zeppe's Italian Ice and Frozen Custard,UT,St. George,84790,63.0,4.5,1013 E 700th S,desserts icecream gluten_free,37.0965048,-113.5618992
4,96DXiPP8qUrxB1tiEuEoGw,Hokulia Shave Ice,UT,St. George,84770,3.0,3.0,20 N Bluff St,shavedice,37.109699427607,-113.593356901862
5,RY-udmCi7qGKuVsE2wIa4A,Judd's Store,UT,Saint George,84770,86.0,4.5,62 W Tabernacle St,candy cafes icecream,37.10836,-113.58446
6,jSc2f5ki6FIfyi3EnFuICA,Swig,UT,St. George,84770,46.0,3.5,287 W St George Blvd,desserts juicebars bubbletea,37.10963,-113.58916
7,DxT_2ihNINxSFI3WHP56Sg,Honolulu Grill,UT,St. George,84770,312.0,4.0,706 E 700th S,hawaiian bbq poke,37.09601,-113.568331
8,6hVj42KG6tPuK3S74eMrBw,Swig,UT,St. George,84770,115.0,3.5,989 E Tabernacle St,juicebars desserts bubbletea,37.10858283,-113.56249266
0,oJq-m0GiuYkJub-wbkUAKg,The Orange Peel,UT,St. George,84770,103.0,3.5,42 S River Rd,juicebars bubbletea coffee,37.108073,-113.556434
2,maGjWDcW0753-h7L6uXUPQ,Swig,UT,St. George,84790,24.0,4.0,553 S Mall Dr,juicebars desserts bubbletea,37.10059,-113.53758
4,fihLuvPVQhddzz796x--MQ,Thai Sapa,UT,Springdale,84767,698.0,3.5,198 Zion Park Blvd,vietnamese thai,37.19811,-112.991746
5,FUiv5dajt3qTh5fXanQvZA,Swig,UT,Santa Clara,84765,3.0,3.5,3510 Pioneer Pkwy,desserts juicebars bubbletea,37.14822,-113.65963
5,hzHWkla5ylWnb3eDrXaZHw,Fluff Ice,NV,Las Vegas,89110,66.0,4.5,325 N Nellis Blvd,shavedice icecream catering,36.1680223786047,-115.062520523862
9,jdR254Bwy-zSY3BDf-ww6g,Kona Ice of Sunrise Manor,NV,Las Vegas,89156,2.0,5.0,6895 E Lake Mead Blvd,shavedice,36.194185,-115.025484
10,rqQduvhMHt4u7Rrk7CwsqA,Miss Panda,NV,Henderson,89014,196.0,4.0,4500 E Sunset Rd,desserts coffee shavedice,36.071998148074854,-115.07638076099455
14,GLZKsllwFaSAq5Tu7zKouw,Shiver Shack,NV,Las Vegas,89142,1.0,4.0,,shavedice foodtrucks,36.15107,-115.04429
15,mpnc72o08Y2nYCT-XYTNvA,La flor de michoacan ice cream,NV,Las Vegas,89121,14.0,4.5,2495 E Tropicana Ave,icecream desserts,36.0992064,-115.1161321
17,aFBaFbyRXY1qVb6EOo_-rw,Raspados Los Pinguinos,NV,Las Vegas,89101,2.0,4.0,2416 Stewart Ave,foodtrucks shavedice mexican,36.1664162,-115.1163559
19,DzKl51tivGJMLiNsQqf38w,Island Sushi and Grill,NV,Las Vegas,89123,1330.0,4.0,9400 S Eastern Ave,sushi hawaiian poke,36.018327742005795,-115.11804712980663
20,eermcgahb47b3AX3MH_GWw,Los Pinguinos,NV,Las Vegas,89110,2.0,4.5,,icecream foodtrucks mexican,36.173900604248,-115.05298614502
24,SVUxmYs6_TvX5kWv0ok-MA,No. 1 Boba Tea Eastern,NV,Las Vegas,89183,384.0,4.0,9711 S Eastern Ave,coffee juicebars bubbletea,36.012458,-115.11973
25,Vn-Xqc1qkF1Vh2Z-wHkBVw,Bagels And Subs,NV,Las Vegas,89104,25.0,4.5,4225 E Sahara Ave,sandwiches shavedice bagels,36.143775,-115.082142
26,DPZrdAzdnTr7HiiDJyHybw,La Neveria,NV,Las Vegas,89121,75.0,3.5,2482 E Desert Inn Rd,icecream juicebars,36.1307967121968,-115.116670191548
27,UwXOqtr0LCoWsGXP96fOuQ,Fiesta Filipina Cuisine,NV,Henderson,89183,234.0,3.5,2980 St Rose Pkwy,filipino hotdogs,36.0054036506,-115.117831742
28,TUpyKJFqL_ySZMo54pT-Sw,La Flor De Michoacan Restaurant,NV,Las Vegas,89156,57.0,3.5,6055 E Lake Mead Blvd,juicebars icecream mexican,36.195653,-115.040996
2,1aVbXH_4uQCTQU7HfGmyow,Brew Tea Bar,NV,Las Vegas,89123,742.0,5.0,9480 S Eastern Ave,coffee bubbletea,36.01728657886,-115.117185069941
9,cnN4EEJa9UHskl4Fct1-wQ,No. 1 Boba Tea Nellis,NV,Las Vegas,89110,113.0,3.5,735 N Nellis Blvd,bubbletea coffee juicebars,36.1759616,-115.0623849
10,twCxou_ewoFgBVfId5uYJQ,Tiger Sugar,NV,Las Vegas,89123,34.0,4.0,9530 S Eastern Ave,bubbletea,36.01525,-115.11854
12,OJdaNlXZiLFV9yJ-hBo87w,Boba King,NV,Las Vegas,89110,11.0,4.5,111 N Nellis Blvd,bubbletea juicebars coffee,36.1621,-115.06241
14,YyEBAeD8xX-xe4SrP5e5og,Boba King,NV,Las Vegas,89169,22.0,4.5,2675 S Eastern Ave,coffee bubbletea juicebars,36.141221,-115.119524
15,QvHrxyr9gk_aYJhT983GCw,Pho Hoa and Jazen Tea,NV,Henderson,89052,136.0,4.0,10624 S Eastern Ave,vietnamese bubbletea asianfusion,35.99813488190146,-115.10225636133517
17,5JjGTaZkHbbjBrzBODcsAQ,Daisho Sushi,NV,Las Vegas,89123,457.0,4.0,7435 S Eastern Ave,sushi japanese,36.0561,-115.11995
18,q4tjIVtx1pYPH1YDmYAsUQ,Tengoku,NV,Henderson,89074,211.0,4.5,2603 Windmill Pkwy,japanese sushi bubbletea,36.042062,-115.101424
20,QDF7w0casJ78PcPmtMDISw,Thai Room,NV,Las Vegas,89121,265.0,4.0,3355 E Tropicana Ave,thai,36.0990600585938,-115.102493286133
21,NQhPS0MUKJgBUB6PTLlmzA,Pho Bosa Bistro,NV,Henderson,89052,927.0,4.0,10890 South Eastern Ave,vietnamese soup sandwiches,35.99538,-115.10017
22,xjlMlnxWqMd3FGODA_z1NA,China A Go Go,NV,Las Vegas,89142,176.0,3.5,5841 E Charleston Blvd,chinese,36.15801,-115.04612
0,AA4lxVlnFnmQL5g0jgLDTg,Bubble Shave Ice,NV,Las Vegas,89102,189.0,5.0,4810 Spring Mountain Rd,shavedice desserts bubbletea,36.12653,-115.20626
1,8sUyA-PT_6lITvQmr02SjA,Sul & Beans,NV,Las Vegas,89102,258.0,4.5,4284 Spring Mountain Rd,desserts coffee shavedice,36.127982,-115.198092
2,OyTSs71uXNDeC14zsPA5jw,The Lab Real Hawaiian Shave Ice,NV,Las Vegas,89119,59.0,4.5,,icecream shavedice hawaiian,36.0765176,-115.1533426
3,RbRMY6NeFEUdaIplSKQ7ZQ,Waikomo Shave Ice LV,NV,Las Vegas ,89118,28.0,5.0,,shavedice desserts foodtrucks,36.077252807866046,-115.21394955269481
4,FQCKnbmIPlg2NNq4KBSBzg,Bahama Buck's,NV,North Las Vegas,89081,196.0,4.5,6315 Losee Rd,shavedice juicebars acaibowls,36.27485,-115.11801
5,rYBQpEiJck-Q_ClE9vH2og,Meowee Wowee Vegas,NV,Las Vegas,89123,9.0,5.0,,shavedice foodtrucks,36.03524990769691,-115.14874268777216
8,Kj_qx2Qs8GKHG4dzexbJzA,Snow Vegas Shave Ice,NV,Las Vegas,89129,55.0,4.5,7300 W Cheyenne Ave,shavedice,36.218658,-115.251889
9,haIL5shdQAywujDdZVHbJg,Kona Ice of Centennial Hills,NV,Las Vegas,89131,4.0,5.0,8205 Weeping Springs Ave,shavedice foodtrucks,36.3141837,-115.2746367
11,1fGlqOJ0pTfCaEJbMVQIKA,Paradice,NV,Las Vegas,89136,20.0,5.0,,icecream shavedice foodtrucks,36.27215,-115.22485
13,TOi1mdNvRbtdT1Dk3F9Yxg,Polar Snow Las Vegas,NV,North Las Vegas,89032,44.0,4.0,1412 W Craig Rd,shavedice desserts streetvendors,36.2400322605598,-115.161711215973
14,y61xPS0NXp6X8N6F6OQtQg,Chanko Shabu & Izakaya,NV,Las Vegas,89146,336.0,4.5,5808 Spring Mountain Rd,hotpot izakaya,36.12613,-115.22129
15,FcRbMYsLnCHO25IFHOGu9A,Hawaiian Brain Freeze,NV,North Las Vegas,89032,1.0,5.0,628 W Craig Rd,shavedice foodstands,36.2445265133477,-115.152749873522
16,cMFiEOcWRg_fbj8fn2X18g,Bowlz Las Vegas,NV,Las Vegas,89146,22.0,5.0,6475 W Charleston Blvd,poke hawaiian seafood,36.15859,-115.23677
19,QXfz4nVB84UwjXwxddRf1g,Surfside Shave Ice,NV,Las Vegas,89106,4.0,5.0,875 S Grand Central Pkwy,shavedice desserts foodtrucks,36.1632637,-115.1588763
21,M43Cg2g-LLoMKK1YwE3RFw,Sweet Eats,NV,Las Vegas,89109,17.0,4.0,3000 S Las Vegas Blvd,desserts,36.13365,-115.16804
24,HJh47HQiP75ePRGg_RawaA,2 Scoops of Aloha LV,NV,Las Vegas,89119,184.0,4.0,5030 Paradise Rd,hawaiian breakfast_brunch hotdog,36.098538,-115.148451
25,iGK44TIfaj0kb8W3CUvQsw,Shaggys Shave Ice,NV,Las Vegas,89131,11.0,4.5,,shavedice foodtrucks,36.29656,-115.26995
26,4tavcWXLEBC3gaoeL0f0FQ,Dylan’s Family Ice Cream,NV,North Las Vegas,89081,234.0,4.5,5960 Losee Rd,icecream shavedice,36.2683899,-115.11597
27,0FbFqMBLRGRRdZlGJeXjug,Purple Penguin Snowcone Shack,NV,Las Vegas,89141,40.0,4.5,10490 S Decatur Blvd,shavedice icecream,35.99912,-115.207
28,C9ZdOcfG0uy81fz1iUolgQ,Kona Ice,NV,Las Vegas,89101,4.0,5.0,,shavedice foodtrucks fooddeliveryservices,36.16961,-115.13299
29,E_7RIDFNQfxREnI_E5h0uA,Matcha Cafe Maiko,NV,Las Vegas,89146,627.0,4.5,3400 S Jones Blvd,desserts icecream coffee,36.1280814926341,-115.224562026459
31,owxcYAUca_6K6BAUX4V48w,D'Pinoy Joint,NV,Las Vegas,89123,354.0,3.5,7680 S Las Vegas Blvd,filipino,36.0503005981445,-115.171104431152
32,9PIC380tmNYpIC3z5cvcNA,Is Sweet,NV,Las Vegas,89146,973.0,4.5,5288 Spring Mountain Rd,coffee desserts bubbletea,36.1265291,-115.2132639
33,eFcpMAgG5OLzgElmnO2DUQ,Sweet Boba,NV,Las Vegas,89103,363.0,4.5,4983 W Flamingo Rd,coffee bakeries bubbletea,36.11498,-115.2097115
34,2foXRnIW_tgSa4e5JJJLTw,Breakin' the Ice Shaved Ice,NV,Las Vegas,89131,2.0,5.0,,shavedice,36.2965621948242,-115.269950866699
35,rPINtPPoDDf_12EvjmeFoQ,Purple Penguin Snowcone Shack,NV,Las Vegas,89183,17.0,4.5,390 E Silverado Ranch Blvd,shavedice,36.014541,-115.154956
36,oUX2bYbqjqST-urKbOHG6w,Loftti Cafe,NV,Las Vegas,89139,363.0,4.0,7729 S Rainbow Blvd,coffee juicebars shavedice,36.0479702,-115.2433749
38,2Q9Mgkc7iFHuKoD_z7kJkQ,Lokuras,NV,Las Vegas,89103,110.0,4.0,3685 S Decatur Blvd,icecream mexican,36.122741,-115.208699
39,-95mbLJsa0CxXhpaNL4LvA,Scoop LV,NV,Las Vegas,89139,955.0,4.0,7377 S Jones Blvd,bubbletea icecream vegan,36.055251,-115.225806
41,wpnLPAnkMEb1NpC3xiD_qg,Aloha Specialties,NV,Las Vegas,89101,849.0,4.0,12 E Ogden Ave,hawaiian japanese asianfusion,36.1731486966639,-115.144943265676
42,wC6WpYzJW1SrvSiMFtz5hQ,CJ’s Italian Ice & Custard,NV,North Las Vegas,89084,26.0,4.0,6885 North Aliante Pkwy,icecream desserts shavedice,36.285582,-115.179021
43,x03s5F8_tPIiM6mmzstRgw,Tre Amici's Italian Ice,NV,Las Vegas,89129,3.0,5.0,,streetvendors icecream shavedice,36.22967529296875,-115.29373168945312
44,RixnVQV24bc3p92mSntaVA,Creamberry,NV,Las Vegas,89139,822.0,4.0,7965 S Rainbow Blvd,desserts icecream acaibowls,36.0437499120486,-115.243998814204
45,Wq9yflrKX79xKiY__BvCoQ,Magnolia Ice Cream and Treats,NV,Las Vegas,89119,196.0,4.5,3890 S Maryland Pkwy,icecream desserts shavedice,36.118245,-115.135727
46,cYlBEKmLkVXFtGWmtB4G4A,Sweethoney Dessert,NV,Las Vegas,89102,483.0,4.0,4284 Spring Mountain Rd,desserts,36.128057,-115.197513
47,X-8PBiSJXKQblMOcWFthcQ,Best Friend by Roy Choi,NV,Las Vegas,89109,1192.0,4.0,3770 S Las Vegas Blvd,korean,36.10433,-115.17602
48,IKnyf12tCV1-TzsRwa7T0Q,Servin 702 Shaved Ice,NV,Las Vegas,89102,3.0,5.0,,shavedice foodtrucks,36.1442604064941,-115.184638977051
0,fbyYmI6VkWFBhYTreIqyTQ,Bbear Cafe,NV,Las Vegas,89146,106.0,4.5,6850 Spring Mountain Rd,bubbletea vegan gluten_free,36.1265854,-115.241774
2,D_24gRsnae7guxJE8gLgtw,Cafe 86,NV,Las Vegas,89118,614.0,4.0,5697 S Jones Blvd,desserts coffee filipino,36.085705011061265,-115.22591413433081
3,LpnUwiqSQBretb7CiCG9cg,Halo Halo Filipino Kitchen,NV,Las Vegas,89109,43.0,3.0,3377 S Las Vegas Blvd,filipino desserts breakfast_brunch,36.1221671,-115.16897425985701
4,umXvdus9LbC6oxtLdXelFQ,Sweets Raku,NV,Las Vegas,89146,1519.0,4.5,5040 W Spring Mountain Rd,desserts wine_bars japanese,36.1264269462614,-115.209914042348
5,pNZlkFg3ilPxnkwC0fODjg,Sweet Talk,NV,Las Vegas,89146,240.0,4.5,5130 Spring Mountain Rd 107,desserts bubbletea pancakes,36.12666,-115.21078
6,qDxzLG96jUuH0F8NmX1rJg,Oming's Kitchen,NV,Las Vegas,89139,294.0,4.0,5180 Blue Diamond Rd,filipino bbq,36.030912,-115.211853
7,IUPkcr2VORvper0Q8aJkTg,Treasure Ice Land,NV,Las Vegas,89103,5.0,5.0,,foodtrucks icecream shavedice,36.1111793518066,-115.211029052734
9,h3aPmSCIKa6-yHoJ-NG_1Q,Suzuya Patisserie,NV,Las Vegas,89113,828.0,4.5,7365 S Buffalo Dr,desserts coffee bakeries,36.053957,-115.261455
10,mU3vlAVzTxgmZUu6F4XixA,Momofuku,NV,Las Vegas,89109,3086.0,4.0,3708 Las Vegas Blvd S,newamerican asianfusion,36.109963,-115.175367
11,4aCun88uZMOsAoymY5Li3w,Icy Juicy,NV,Las Vegas,89146,508.0,3.5,3400 S Jones Blvd,taiwanese bubbletea desserts,36.1266569491286,-115.224281938696
12,gTw6PENNGl68ZPUpYWP50A,Soyo Korean Barstaurant,NV,Las Vegas,89139,1121.0,4.0,7775 S Rainbow Blvd,korean bbq bars,36.0468023772524,-115.244170725345
14,AuJ_wBFUiQEhUrsl7k6TPg,Agua El Manantial,NV,Las Vegas,89106,29.0,4.5,1052 N Rancho Dr,icecream shavedice,36.1836164546878,-115.17963149577
16,7SBtCKKeHbdB6-dIIkcZXw,2nd Annual Asian Food Festival,NV,Las Vegas,89139,7.0,3.0,3333 Blue Diamond Rd,festivals asianfusion indpak,36.04039,-115.1833572
18,4Pl-ziYL2oerGyIPlwVdmA,Chuchote Thai Bistro & Desserts,NV,Las Vegas,89102,485.0,4.5,4105 W Sahara Ave,thai desserts,36.144038,-115.196123
19,9hl0YYKm-V1HF9StbfWHOw,Volcano Cafe,NV,Las Vegas,89102,33.0,4.0,4215 Spring Mountain Rd,cafes,36.125372,-115.196384
23,s5rKEK_AdQSyMhUmZDB9PQ,Lee’s Hawaiian Kitchen ,NV,Las Vegas,89146,116.0,4.0,6475 W Charleston Blvd,hawaiian breakfast_brunch,36.158693,-115.2367199
25,44kd3YdkhXj5XiSPs5XNjQ,FireRock Steakhouse,NV,Las Vegas,89149,1399.0,3.5,5990 Centennial Center Blvd,seafood steak breakfast_brunch,36.271768,-115.263175
27,egpDg61SdYbKWvCpPM7Nbg,Lappert's Ice Cream Shop,NV,Las Vegas,89101,253.0,4.0,12 Ogden Ave,desserts icecream,36.1731567812239,-115.145197072262
28,aSHTlWB56c3bWOsRDIj_Hg,Agua El Manantial,NV,Las Vegas,89104,21.0,4.0,1852 E Charleston Blvd,juicebars icecream shavedice,36.1586664,-115.1237086
29,IZivKqtHyz4-ts8KsnvMrA,Kung Fu Tea,NV,Las Vegas,89146,1478.0,4.5,5030 Spring Mountain Rd,bubbletea coffee juicebars,36.127036,-115.209668
30,xqbvqZHNyj2qExHdizzd0w,D' Pinoy Joint,NV,Las Vegas,89103,356.0,3.5,6820 W Flamingo Rd,filipino,36.114964,-115.240881
31,SbXZSQW2u_IjW--sNVQPng,Famous Foods Street Eats,NV,Las Vegas,89109,138.0,3.0,3000 S Las Vegas Blvd,food_court,36.13399527992725,-115.16768983293615
32,JTWJy52ugV0FcsKmQq2gSA,BobaTeaLicious,NV,Las Vegas,89139,112.0,4.0,4085 Blue Diamond Rd,bubbletea,36.0381766,-115.1942192
34,Gt0ln_Gg4G8yRnrjrZ1jhA,Snappy Burger,NV,Las Vegas,89107,236.0,4.0,101 N Decatur Blvd,burgers,36.174968,-115.206438079476
35,bcJmbFHVAkLFqhJbUTdbyQ,Crown Bakery,NV,Las Vegas,89102,461.0,4.5,4355 Spring Mountain Rd,bakeries coffee desserts,36.125897,-115.198185
36,1ZJz840L496LAmQdeDv0WA,Pinches Tacos,NV,Las Vegas,89101,567.0,4.0,707 E Fremont St,mexican,36.167751,-115.138161
37,3OxQiVUgZBAoELGRCgkEZw,Tea Way Plus,NV,Las Vegas,89146,206.0,4.5,5300 Spring Mountain Rd,bubbletea coffee juicebars,36.12670116893142,-115.21393752944645
38,XsSgv3vBOyOBXn3Co8EVIg,Q Bistro,NV,Las Vegas,89146,1026.0,4.5,3400 S Jones Blvd,korean chicken_wings bbq,36.127181,-115.224115077689
40,0CB7YB1qRSWLQvMbHw3Fmw,Easy Life Boba Tea,NV,Las Vegas,89117,441.0,4.0,8560 W Desert Inn Rd,coffee juicebars bubbletea,36.1300289,-115.2777727
41,GAaypX35PSHNYTeekj6-7Q,Jo's Malasadas Cafe and Bakery,NV,Las Vegas,89103,159.0,4.0,6370 W Flamingo Rd,bakeries breakfast_brunch coffee,36.115164,-115.231827
42,TNuKK8cSEm6i1nGKCQvL5Q,La bonita de michoacan,NV,Las Vegas,89107,19.0,3.5,240 North Jones Blvd,shavedice icecream creperies,36.17573,-115.222636
43,IWN2heYitkg-D4UdqfxcMA,HEXX kitchen + bar,NV,Las Vegas,89109,4200.0,4.0,3655 Las Vegas Blvd S,cocktailbars breakfast_brunch steak,36.112279,-115.172397
44,B-9IuVXitKKwXj0fXUxczQ,Carnitas King,NV,Las Vegas,89139,263.0,4.5,6030 W Windmill Ln,tacos,36.0422449,-115.2253698
46,sqRX-XLlhx4rs2c1TpBf8A,Raku,NV,Las Vegas,89146,1815.0,4.5,5030 Spring Mountain Rd,japanese,36.127033,-115.210028
48,HaWU8ICNtjIkCN_ZNrx1hw,Illumilatte Brew Society,NV,Las Vegas,89118,447.0,4.0,6825 W Russell Rd,coffee,36.0845009114553,-115.241361430814
49,Fv4EXwV30rwGD2NzN1ekgA,Gorilla Sushi,NV,Las Vegas,89119,1444.0,4.0,1801 E Tropicana Ave,sushi japanese asianfusion,36.10002,-115.12727
0,Er5XAY2UFGGqBHdqpeCFkA,Zenshin Asian Restaurant,NV,Las Vegas,89183,660.0,4.0,9777 S Las Vegas Blvd,sushi japanese asianfusion,36.0114211,-115.1752012
1,Z0kPVmXzo2rLEJwdothOWw,Goldilocks,NV,Las Vegas,89109,220.0,3.0,2797 S Maryland Pkwy,bakeries filipino,36.1378396,-115.137199
2,lfvuSEh8qCLi9gGc1l1GnQ,Samurai Japanese BBQ and Grill,NV,Las Vegas,89103,208.0,5.0,3650 S Decatur Blvd,japanese bbq seafood,36.12359,-115.20752
3,rqWIntPaV8TpJvgT6H9UNw,Kung Fu Tea,NV,Las Vegas,89139,385.0,3.5,7345 S Rainbow Blvd,bubbletea coffee juicebars,36.0550296116791,-115.244054623925
4,88fJESC9MG9PvRd3jfJ7Ww,Smiles Asian Taste,NV,Las Vegas,89118,2.0,5.0,5333 Arville St,asianfusion juicebars sushi,36.092955,-115.199734
5,HPLB1Tr8ZB5UkD-2umKPdA,Fat Choy,NV,Las Vegas,89104,804.0,4.0,595 E Sahara Ave,newamerican asianfusion,36.14324,-115.14687
6,fQt4D34vcJNtEf8Q4zte3w,TAO Asian Bistro,NV,Las Vegas,89109,1992.0,4.0,3377 Las Vegas Blvd S,asianfusion lounges,36.122661866564314,-115.17009129388688
7,5Lcit9Zt6TF9bmKoFMhF0g,Noodle Pot,NV,Las Vegas,89102,521.0,4.0,4215 Spring Mountain Rd,chinese taiwanese noodles,36.1253970859389,-115.196422914017
8,JjjlhlQ2LEaQMuAug4fDIA,Taiwan Deli,NV,Las Vegas,89102,423.0,3.5,4300 Spring Mountain Rd,taiwanese chinese noodles,36.1273983193297,-115.197930131198
9,1UvrUFk3BXAmueL1KQaKPQ,Fiesta Filipina Cuisine,NV,Las Vegas,89113,159.0,3.5,8565 W Warm Springs Rd,filipino bbq seafood,36.0539051380815,-115.27813450217624
10,UPIYuRaZvknINOd1w8kqRQ,Monta Japanese Noodle House,NV,Las Vegas,89146,3160.0,4.0,5030 Spring Mountain Rd,ramen noodles,36.1263223,-115.2099104
11,P6O50VeFlBIJpP0QPYsXbQ,Restaurant Guy Savoy,NV,Las Vegas,89109,403.0,4.5,3570 S Las Vegas Blvd,french wine_bars desserts,36.115187,-115.174991
12,1ZnVfS-qP19upP_fwOhZsA,Big Wong Restaurant,NV,Las Vegas,89146,1155.0,4.0,5040 Spring Mountain Rd,chinese noodles soup,36.126663,-115.20992
13,SEMvJDVnDB4NoPW6tXXO_Q,Goong Korean BBQ Restaurant,NV,Las Vegas,89139,988.0,4.5,7729 S Rainbow Blvd,korean bbq,36.047906,-115.244141
14,ym5FOqL6tGbgynzwKMHZuw,Crab Corner,NV,Las Vegas,89118,1194.0,4.0,6485 S Rainbow Blvd,seafood sportsbars,36.0708818595186,-115.243270865732
15,GMrwDXRlAZU2zj5nH6l4vQ,Pho Thanh Huong,NV,Las Vegas,89119,719.0,4.0,1131 E Tropicana Ave,vietnamese sandwiches noodles,36.10011911967741,-115.13877705343702
16,Sncj77Bg77OGYxW48_9_tA,Banana Leaf Café,NV,Las Vegas,89102,163.0,4.0,4276 Spring Mountain Rd,malaysian seafood noodles,36.127814,-115.1971299
17,IImZFNzX4cP84rFsyb-9mQ,Noodle Shop,NV,Las Vegas,89109,580.0,2.5,3950 S Las Vegas Blvd,asianfusion thai szechuan,36.0919409454273,-115.175378778412
18,X5uxdU9GHoUAqo2wmbg3OQ,Island Malaysian Cuisine,NV,Las Vegas,89146,388.0,4.0,5115 Spring Mountain Rd,malaysian halal,36.125592,-115.211199
19,kafUXRNfQm3e_U14S2WbmA,Monzú Italian Oven + Bar,NV,Las Vegas,89103,660.0,4.5,6020 W Flamingo Rd,pizza italian,36.11511,-115.2236
20,RESDUcs7fIiihp38-d6_6g,Bacchanal Buffet,NV,Las Vegas,89109,12105.0,4.0,3570 S Las Vegas Blvd,buffets,36.11593124685352,-115.17624386669488
21,uHUcYpGlcdlu5m7oiZGY6w,Max's Restaurant,NV,Las Vegas,89119,582.0,3.5,1290 E Flamingo Rd,filipino chickenshop,36.114859,-115.136639
22,VX11x_q9O3mkYzPDU_heOA,Googgle Man’s Char Kuey Teow,NV,Las Vegas,89109,54.0,3.5,3000 S Las Vegas Blvd,noodles malaysian,36.13365,-115.16804
23,7hWNnAj4VwK6FAUBN8E8lg,Edo Gastro Tapas And Wine,NV,Las Vegas,89146,632.0,4.5,3400 S Jones Blvd,tapasmallplates spanish,36.128102281745534,-115.2245322705526
24,6bU4NFkXbdbvnQBDa9-nfQ,Fiesta Filipina Cuisine,NV,Las Vegas,89146,151.0,3.0,3310 S Jones Blvd,filipino,36.1283794,-115.2247451
25,6Tq13q3Ib17gSgP0zki3EA,Las Gorditas,NV,Las Vegas,89107,53.0,4.0,840 N Decatur Blvd,mexican,36.1798039294796,-115.204895949022
26,TCWMgOiV0PxQkWE1SyBIWQ,Nobu Las Vegas at Virgin Hotel,NV,Las Vegas,89169,1135.0,4.0,4455 Paradise Rd,japanese sushi asianfusion,36.1092969,-115.1541030819725
27,4uISbaUPJLVECBHIi3tpxA,Wazuzu,NV,Las Vegas,89109,753.0,4.0,3131 Las Vegas Blvd S,asianfusion sushi,36.128554,-115.165381
28,uu5AtMrz_94e8kk4Gixg9Q,Jollibee,NV,Las Vegas,89119,295.0,3.5,3890 S Maryland Pkwy,hotdogs chickenshop,36.1181399,-115.13593
29,mvyVz0gm3gdPVGg3M-o75g,é by José Andrés,NV,Las Vegas,89109,402.0,4.5,3708 Las Vegas Blvd S,spanish,36.11031706597399,-115.17432512944777
30,Ef5P6C2yHAv08FPif5Rdtg,8oz Korean Steak House,NV,Las Vegas,89102,595.0,4.5,4545 Spring Mountain Rd,korean bbq steak,36.125636,-115.202488
31,pyqnGlIfP9Zw8LLxBjyAiA,Nobu Caesars Palace Las Vegas,NV,Las Vegas,89109,1516.0,4.0,3570 S Las Vegas Blvd,japanese sushi seafood,36.1168495022185,-115.175309215939
32,-RJ216TTIghZshCkUlD1WQ,Sushi Takashi,NV,Las Vegas,89146,575.0,4.5,5300 W Spring Mountain Rd,japanese sushi tapasmallplates,36.1265,-115.21387
33,ZpMoI5EECS6Rm7KigN1gPg,Jasmine,NV,Las Vegas,89109,423.0,3.5,3600 S Las Vegas Blvd,chinese bars,36.1126313900105,-115.175064445091
34,XnJeadLrlj9AZB8qSdIR2Q,Joel Robuchon,NV,Las Vegas,89109,1056.0,4.5,3799 Las Vegas Blvd S,french,36.1026579890308,-115.170503606151
35,YuiM5VKscO8rS1EX7f19_g,Fleur,NV,Las Vegas,89119,1175.0,3.5,3950 S Las Vegas Blvd,french,36.0912534111632,-115.176881115168
36,rtlsfmdufArhk-47sWIf2w,Le Cirque,NV,Las Vegas,89109,868.0,4.5,3600 S Las Vegas Blvd,french,36.113440208855,-115.175275766836
37,ydcNlRMKs93AQpOhVkSrGQ,Fukuburger Truck,NV,Las Vegas,89146,350.0,4.0,,burgers foodtrucks,36.1425895690918,-115.225662231445
38,EZQESVzkOPs7LwCHVC3Szg,Mizumi,NV,Las Vegas,89109,630.0,4.0,3131 Las Vegas Blvd S,japanese bars sushi,36.1269589651026,-115.167224770847
39,GJ_bXUPv672YwNg4TneJog,China Poblano,NV,Las Vegas,89109,2198.0,3.5,3708 Las Vegas Blvd S,chinese mexican,36.1099462,-115.1753911
40,N7yuiiu8jhQ-Fl9Npflreg,Lemongrass,NV,Las Vegas,89158,1374.0,3.5,3730 Las Vegas Blvd S,thai,36.1068637979888,-115.177398832065
41,yfxDa8RFOvJPQh0rNtakHA,Pho Kim Long,NV,Las Vegas,89102,3761.0,3.5,4029 Spring Mountain Rd,vietnamese chinese,36.1262919,-115.1940957
42,UpW3jyJ3_kTG7oDSflwnMA,Archi's Thai Kitchen,NV,Las Vegas,89103,527.0,4.0,6360 W Flamingo Rd,thai,36.11481,-115.23096
43,nTc-Qj_-ABZrpM9YSpJ6jA,Chowking,NV,Las Vegas,89119,160.0,2.5,3890 S Maryland Pkwy,filipino hotdogs,36.1182761,-115.13563127498318
44,XgsIf7s2zM-cC29WUD-NZQ,Makino Sushi & Seafood Buffet,NV,Las Vegas,89103,917.0,3.5,3965 S Decatur Blvd,sushi japanese buffets,36.118631992061,-115.20845875971
45,jfmyj519pg2flxGEQ2xdPg,Joyful House Chinese Cuisine,NV,Las Vegas,89102,618.0,3.5,4601 Spring Mountain Rd,chinese seafood,36.1259553166171,-115.203431297022
0,S6a6ToHB-JT3VUCgap-jQg,Tea Maison,NV,Las Vegas,89183,9.0,4.5,9770 S Maryland Pkwy,bubbletea juicebars coffee,36.0113,-115.13663
1,IhNASEZ3XnBHmuuVnWdIwA,Brew Tea Bar,NV,Las Vegas,89139,2274.0,5.0,7380 S Rainbow Blvd,tea bubbletea desserts,36.05421,-115.2422
2,mcX6UmNQ4J7Jxr6W36cJ1A,Cactus Bubble Tea,NV,Las Vegas,89123,7.0,5.0,7686 S Las Vegas Blvd,bubbletea,36.0499799,-115.1711706
3,sIPW1erclEtd8CwnYHEqUQ,The Alley,NV,Las Vegas,89109,209.0,4.5,3325 S Las Vegas Blvd,bubbletea tea,36.12358,-115.1687
4,OaksCsORs2tUGxSJWhydJg,Itea Boba & Dessert,NV,Las Vegas,89119,362.0,4.5,1350 East Flamingo Rd,desserts bubbletea tea,36.1157001611222,-115.135253342808
6,6T39H2dGUnrM91WqvR0VcQ,Mr Tea,NV,Las Vegas,89103,571.0,4.5,6120 W Tropicana Ave,bubbletea juicebars,36.101969491057254,-115.22552596159257
8,TqZgEObAI-LM9MqDTJf2Pw,No. 1 Boba Tea Aliante,NV,North Las Vegas,89084,176.0,4.5,6584 N Decatur Blvd,bubbletea juicebars tea,36.2797555,-115.2062651
9,u-3exVNGKE0iJ7nnxS3BbA,Cloud Tea,NV,Las Vegas,89147,388.0,4.5,4045 S Buffalo Dr,coffee juicebars bubbletea,36.1153027020489,-115.262627894562
10,ZrS5rhJ4OvXQG_38wPEWlA,Chewy Boba Company,NV,Las Vegas,89119,371.0,4.5,4632 S Maryland Pkwy,desserts coffee bubbletea,36.1049744,-115.1359993
11,0oj8SnvUYuAQWmRQ7w5R8w,Boba Master,NV,Las Vegas,89149,90.0,4.5,5655 Centennial Ctr Blvd,bubbletea desserts,36.2645041,-115.25744328650583
12,2ssrT0VdB_Jl1YeYq_fYaw,Boba King,NV,North Las Vegas,89031,139.0,4.5,3030 W Ann Rd,bubbletea juicebars tea,36.2617149,-115.1819928
13,S3gVMHlrQoJPzM984vCeBg,Aware Coffee & Tea Lounge,NV,Las Vegas,89149,448.0,4.5,5590 Painted Mirage Rd,coffee bubbletea donuts,36.2626307452163,-115.256070010364
14,xf3gmeHRbV9Tv6K0btk9ig,Hello Misfits,NV,Paradise,89119,39.0,5.0,4550 S Maryland Pkwy,asianfusion bubbletea tacos,36.1068,-115.13718
15,k4x0RCPlZ5Y-Ml3dON7fPw,Mr. Chi Boba Tea Vegas,NV,Las Vegas,89141,110.0,4.5,4550 W Cactus Ave,bubbletea coffee juicebars,35.99870021376869,-115.20214563592874
17,lGiUZcTvuMdx28YMvqZ2vw,Fresh Boba Tea,NV,Las Vegas,89145,165.0,4.5,1033 South Rainbow Blvd,desserts bubbletea juicebars,36.159572497718514,-115.24512880503441
19,-RrQyMbeKD6XVaixjovj0w,Chewy Boba Company,NV,Las Vegas,89119,7.0,4.5,6605 S Las Vegas Blvd,bubbletea,36.06851112946129,-115.1776302730392
21,RYcTD8wt7jo1JjQLG7ydhQ,Yomie’s Rice X Yogurt,NV,Las Vegas,89146,3.0,5.0,5845 Spring Mountain Rd,juicebars icecream bubbletea,36.12493560863045,-115.2214991
22,3BckNoBhbdjfctxmw2gHkw,Tiger Sugar,NV,Las Vegas,89109,14.0,4.5,3000 Las Vegas Blvd S,bubbletea desserts,36.13365,-115.16804
23,906qsOYOdCxUHhJm5T5YrQ,No. 1 Boba Tea Chinatown,NV,Las Vegas,89102,467.0,4.0,4255 Spring Mountain Rd,juicebars bubbletea coffee,36.125504,-115.197114
24,Gzk0BuJ_CLU_TuWn_gSyyQ,7 Leaves Cafe,NV,Las Vegas,89102,424.0,4.5,3959 Spring Mountain Rd,coffee bubbletea macarons,36.1261026914527,-115.192596204579
26,GSaU7xmPP-Arq7uY5kbA_g,Sweetea,NV,Las Vegas,89183,176.0,4.5,9775 S Maryland Pkwy,bubbletea coffee,36.011544161668,-115.138069774778
28,PU5DcQoqxGIPMQQ2dIWJhA,TK’s Boba & Creamery,NV,Las Vegas,89123,226.0,4.5,500 E Windmill Ln,icecream bubbletea coffee,36.04297467574304,-115.15139001216433
29,ABc7HWhNAUVDn4865ErWtw,7 Leaves Cafe,NV,Las Vegas,89113,27.0,4.5,6225 S Durango Dr,macarons bubbletea coffee,36.07528746117479,-115.2797358925917
30,3Wsiml5HJbN2KHTgxT0lew,Ume Tea Shop,NV,Las Vegas,89103,263.0,4.0,4850 W Flamingo Rd,bubbletea desserts cafes,36.11654,-115.20677
31,Lc8oYvfBH-hhd7osgvj_YQ,Boba King,NV,Las Vegas,89131,42.0,4.5,8414 Farm Rd,bubbletea coffee juicebars,36.3011411537804,-115.279582925141
32,CPbuMjID8g4FyfY0WpvPlA,Boba Foxy Bubble Tea Shop,NV,Las Vegas,89147,22.0,4.5,8665 W Flamingo Rd,bubbletea waffles juicebars,36.11453074867274,-115.2808546704846
36,8yT30fkYWU8T4d_SzDQ_tQ,Boba King,NV,Las Vegas,89129,79.0,4.5,7660 W Cheyenne Ave,bubbletea coffee korean,36.219185,-115.26247
37,oyh1CYVHDiAyDtF-ug8y3w,Pineapple Park,NV,Las Vegas,89141,335.0,4.0,10550 Southern Highlands Pkwy,icecream creperies bubbletea,35.9973988,-115.2073647
38,7fI68JNfI7eppULdDdiLXg,VOVA,NV,Las Vegas,89148,57.0,4.5,8680 W Warm Springs Rd,coffee bubbletea juicebars,36.05608,-115.28092
45,qtwE2OPRlJy4P5N9_JFnrA,Brew Tea Bar,NV,Las Vegas,89119,144.0,5.0,4700 S Maryland Pkwy,bubbletea tea coffee,36.10365855951634,-115.13630325337446
46,BKD3s9uBEG0KGATDxN6gDQ,Taikoo,NV,Las Vegas,89123,4.0,3.0,7400 S Las Vegas Blvd,juicebars bubbletea,36.05483103800339,-115.16907930282171
47,dbLAhlo4ubzaEwrx8Sy9FA,La Luna Tea and Dessert Bar,NV,Las Vegas,89139,413.0,4.5,7960 South Rainbow Blvd,coffee breakfast_brunch desserts,36.043459,-115.241878
0,TEpHybMZew9kKadvseEbEQ,Kung Fu Tea,NV,Las Vegas,89109,147.0,3.5,3200 S Las Vegas Blvd,coffee bubbletea juicebars,36.1273869,-115.1689487
1,wl31Y12nicmMYjJlUR7VmQ,Tea Maison,NV,Las Vegas,89102,421.0,4.0,4284 Spring Mountain Rd,juicebars bubbletea coffee,36.128061731496,-115.197677581879
2,kbFDh-nLwWw7ScKzP0fSzg,Tiger Sugar,NV,Las Vegas,89146,370.0,4.0,5150 Spring Mountain Rd,coffee bubbletea desserts,36.126557,-115.211974
3,jh0-RBH-KBbkknJUIdbjtA,Feng Cha Teahouse,NV,Las Vegas,89146,70.0,4.5,5845 Spring Mountain Rd,bubbletea coffee,36.124933167626715,-115.22150044110987
4,gDlmVaMyxWdcWPxvfY8JsA,Sharetea,NV,Las Vegas,89141,125.0,4.0,10420 S Decatur Blvd,coffee juicebars bubbletea,36.00013,-115.20658
5,g-ZseseezHTpF5eMfLrLgQ,LaPostté,NV,Las Vegas,89146,341.0,4.5,5410 W Spring Mountain Rd,coffee desserts bubbletea,36.1263221,-115.215033
7,zL6GK1pPgXgKjuRqA6v8VQ,No. 1 Boba Tea Lake Mead,NV,Las Vegas,89128,172.0,4.0,7500 W Lake Mead Blvd,bubbletea tea juicebars,36.19724928007725,-115.25814647345082
8,EO2LIIpXIsaP30Sf3ZKTNg,Sharetea,NV,Las Vegas,89102,243.0,4.0,4258 Spring Mountain Rd,bubbletea coffee juicebars,36.126725265395194,-115.19721454883494
9,hqtZ2NmUlrNtHp7xW2BWoA,Waffles Cafe,NV,North Las Vegas,89084,513.0,4.0,6885 Aliante Pkwy,juicebars breakfast_brunch cafes,36.285657,-115.178948
11,UqnxB_d45DolK2s23mE_Bw,No. 1 Boba Tea - Container Park,NV,Las Vegas,89101,37.0,4.5,707 Fremont St,bubbletea coffee juicebars,36.167916,-115.138142
12,dGuSGNLb3wzQobtlB2TmbA,7 Leaves Cafe,NV,Las Vegas,89139,127.0,4.5,7795 S Rainbow Blvd,coffee macarons bubbletea,36.0471191,-115.2438964
13,1bdwB6hxMUnSKF8bCsmuZA,Tea of Joy,NV,Las Vegas,89102,446.0,4.0,4240 Spring Mountain Rd,bubbletea juicebars tea,36.1269184024119,-115.196837930055
14,px_BoTnajsldEWCHioDczA,Happy Lemon,NV,Las Vegas,89146,200.0,4.0,5980 Spring Mountain Rd,bubbletea juicebars tea,36.1260745,-115.2231985
18,AoDNHIy7Q0D-6lj3r8sPKQ,Boba Haus,NV,Las Vegas,89102,6.0,2.0,333 W St Louis Ave,bubbletea coffee,36.148342223308504,-115.1611912250519
19,cMAv53bpH7b32IYgQwCXLA,Zero Degrees,NV,Las Vegas,89103,684.0,3.5,4001 S Decatur Blvd,bubbletea coffee,36.115998,-115.209538
20,IL7DQljJfWDtpmKTKDt6qQ,Tea Drops Boba Supplies LV,NV,Las Vegas,89102,36.0,4.5,4568 Spring Mountain,coffee bubbletea,36.1264349,-115.202718
22,nc_ajSM_WarRmIoEnTyX4Q,Yummy Corner,NV,Las Vegas,89183,27.0,4.5,467 E Silverado Ranch Blvd,bubbletea asianfusion acaibowls,36.011854,-115.153061
27,1yWINuTOUBQj8ELqRNDOWA,Gelato Bar,NV,Las Vegas,89102,786.0,4.5,3849 Spring Mountain Rd,gelato desserts,36.1265013,-115.1912003
28,ReyjVKUEVKZHmlrBxu_h2A,Full House BBQ,NV,Las Vegas,89183,704.0,4.0,9890 S Maryland Pkwy,bbq filipino,36.0101541893882,-115.135888513963
29,uHfxJdDltVP-X2aVvxe9oA,Din Tai Fung,NV,Las Vegas,89158,851.0,4.0,3730 S Las Vegas Blvd,taiwanese chinese,36.1069381,-115.17817149631078
30,B9xHlRZMg962thC0B9jMjg,Sweet Heart Dessert House,NV,Las Vegas,89146,183.0,4.0,5808 Spring Mountain Rd,desserts bubbletea icecream,36.1259869866905,-115.22141538453573
31,yxMTnVHasOpTUzGiom6wYA,Boba King,NV,North Las Vegas,89032,34.0,3.5,1829 W Craig Rd,bubbletea coffee juicebars,36.238899,-115.168601
32,qw9SyduMZ53KB6GlBQqvZQ,Bosa Boba Cafe,NV,Las Vegas,89103,95.0,4.5,3711 S Valley View,bubbletea sandwiches vietnamese,36.122345,-115.190769
34,oJLbZhiyXSExHnU7LQQj2w,Cups and Bowls,NV,Las Vegas,89129,107.0,4.5,4450 N Tenaya Way,japacurry bubbletea poke,36.241794,-115.250117
35,H14CD1HeOfaY2SEryR5WXg,The Sweet Spot,NV,Las Vegas,89102,107.0,4.5,4215 Spring Mountain Rd,coffee creperies gelato,36.1262407,-115.196477
36,VzUo-RURV3VnfNItAYM8yg,Boba Hut,NV,Las Vegas,89118,435.0,4.0,5597 S Rainbow Blvd,chinese asianfusion hawaiian,36.0873031616211,-115.243499755859
37,ujIk06NGRF6K_-KfrUqwEA,Tbaar,NV,Las Vegas,89146,48.0,4.0,5130 Spring Mountain Rd,juicebars bubbletea desserts,36.12666,-115.21078
38,lUG28HvixZUYlyGHJAlyew,Mochinut,NV,Las Vegas,89102,193.0,3.5,4355 Spring Mountain Rd,donuts hotdog bubbletea,36.125928,-115.197929
39,q6WNhaXjmhngOdxN4qDGRg,BAMBU,NV,Las Vegas,89102,212.0,3.5,4069 Spring Mountain Rd,bubbletea juicebars vietnamese,36.1262851,-115.1944136
41,3d_7QNBInh-3D-sR17EF_w,T-Swirl Crepe,NV,Las Vegas,89146,174.0,4.5,5845 Spring Mountain Rd,desserts creperies bubbletea,36.124973076315946,-115.22150983109076
42,7jgyxiA4e-rikpoOHrPW6g,1 Hawaiian Barbecue,NV,North Las Vegas,89081,165.0,3.5,5870 N Losee Rd,hawaiian bbq sandwiches,36.266812,-115.11654237853858
44,xZf9YyebimnlRtYXpHN71w,Tasty Corner,NV,Las Vegas,89130,84.0,4.0,4588 N Rancho Dr,bubbletea seafood ramen,36.24331,-115.23523
45,K9Zm2rrQocTL8HZFnzl_-Q,Cafe No Fur,NV,Las Vegas,89103,336.0,3.5,3500 S Edmond St,bubbletea vegan newamerican,36.12537673301297,-115.21195414727609
47,iRwT2pBa87Y54q8nqfNAzw,Da Lat,NV,Las Vegas,89103,643.0,4.0,4553 W Flamingo Rd,vietnamese,36.1150660797156,-115.20311975244
49,mhDG_wtuyTDr-c0rgfEMpQ,Ru Yi Chinese Cuisine,NV,Las Vegas,89109,122.0,3.5,3743 S Las Vegas Blvd,chinese noodles seafood,36.1065483093262,-115.172050476074
5,5A9XLq-oNiua4fVrsRCaXg,Panda Express,NV,Las Vegas,89109,23.0,3.0,3200 S Las Vegas Blvd #3145,chinese hotdogs bubbletea,36.127627,-115.168758
6,nW27OMU438BjZF64lj97sQ,Pho 90,NV,Las Vegas,89102,383.0,4.0,4355 W Spring Mountain Rd,vietnamese soup noodles,36.1260081177604,-115.198455009155
7,Y7swVZkYN021qBBy9ItjXA,Meowee Wowee Hawaiian Shave Ice Cafe,NV,Las Vegas,89147,105.0,5.0,4555 S Fort Apache Rd,shavedice desserts sandwiches,36.10649,-115.29786
15,Gve_iuZL4C4KjKskKQ_vtg,La Paleta,NV,Las Vegas,89148,38.0,5.0,5651 S Grand Canyon Dr,icecream mexican,36.08604,-115.30733
18,jpYJDGkYbiubGk6EsU4Dmg,Oso Ono Shave Ice,NV,Las Vegas,89149,35.0,5.0,,foodtrucks shavedice,36.27760696411133,-115.2877426147461
24,U-r7H4pMxljipUmRWesLFA,Lokuras,NV,Las Vegas,89149,25.0,4.5,9859 W Deer Springs Way,juicebars shavedice icecream,36.284368023911206,-115.31196691095829
10,erqbux7McLCiT4qbomm0mg,Las Vegas Snowie and Kettle corn,NV,Las Vegas,89144,4.0,5.0,,foodstands,36.18471,-115.32056
12,LLXnVco3HAKeReG8uu6oew,Vegas Dessert Box,NV,Las Vegas,89149,32.0,4.5,6890 N Hualapai Way,desserts shavedice foodtrucks,36.285086,-115.314538
42,FFVAGNz3fQ7Mdsupm5uzMw,Infused Tea Lounge,NV,Las Vegas,89148,415.0,4.5,5105 S Ft Apache,coffee bubbletea juicebars,36.09532,-115.29799
23,rIeXMt92PLNjZbemWKRXcA,Mr. ChopStix,NV,Las Vegas,89148,410.0,4.0,6135 S Fort Apache Rd,chinese,36.0770707,-115.2978205
33,d2lJMty1JNpXM-QttNf75w,Anima by EDO,NV,Las Vegas,89148,72.0,4.5,9205 W Russell Rd,tapasmallplates italian,36.0846315020195,-115.2930234291461
24,vFJTnAws6AMXRyhKQqJg7g,Honolulu Boba Co,NV,Las Vegas,89147,29.0,4.5,9516 W Flamingo Rd,bubbletea,36.11583642234999,-115.2996399
28,pRrFmrhyxlURE2WvQ_Nxjg,No 1 Boba Tea,NV,Las Vegas,89149,34.0,4.5,6640 N Durango Dr,bubbletea juicebars tea,36.281228,-115.286704
34,ZK4LvZ2n3uD5kR6tp6hsZQ,Chill Haus,NV,Las Vegas,89149,251.0,4.0,6446 N Durango Dr,icecream bubbletea coffee,36.27784,-115.28665
36,V-aCFCkkRyakP6SeIfG9-A,Taste Tea,NV,Las Vegas,89147,369.0,4.5,10120 W Flamingo Rd,coffee bubbletea,36.116613,-115.313639
45,ARzu3m9Gf55S2eHKi-oO3g,Sharetea,NV,Las Vegas,89135,39.0,3.5,10300 W Charleston Blvd,bubbletea coffee juicebars,36.160570723640134,-115.320883856553
10,k5rV_nKkYQHX0ebB3qV2kQ,No. 1 Boba Tea Flamingo,NV,Las Vegas,89147,219.0,4.5,9340 W Flamingo Rd,juicebars bubbletea tea,36.1150549,-115.2950892
24,JCWVuG4B4hvYoRg3EHA88w,Zero Degrees,NV,Summerlin,89147,224.0,4.0,3585 S Fort Apache Rd,bubbletea hotdogs coffee,36.1254649999871,-115.297105669773
40,Gh8L5vvZC7v8KtICjNYugw,9th Island Grill,NV,Las Vegas,89117,178.0,4.0,9410 W Sahara Ave,bubbletea ramen hawaiian,36.14654,-115.30082
4,XNQ373Lq0JedfJOfGiShCw,Ajiyas Sushi Bento,NV,Las Vegas,89147,20.0,5.0,4160 S Fort Apache Rd,japanese sushi bubbletea,36.11376,-115.29691
11,1aEk5vowhhTa-C3EqxdEFw,Soru Ramen Sushi and Boba Milk Tea,NV,Las Vegas,89135,320.0,4.0,10217 W Charleston Blv,ramen bubbletea sushi,36.15853831190123,-115.31703581593422
13,HMSDOjt_KCyknzjQ9aI5Jw,Tomo Noodles and Dumplings,NV,Las Vegas,89117,328.0,4.0,9410 W Sahara Ave,ramen noodles,36.146936,-115.301037
15,NaZVUOzqk5b-l0mlki-9Og,Chun Fai Chinese Eatery,NV,Las Vegas,89148,269.0,3.5,6565 S Fort Apache Rd,chinese bubbletea soup,36.0689682903359,-115.298683821699
20,uTn8bL6sabHD2916u5mvkA,Panda Express,NV,Las Vegas,89135,66.0,2.5,11010 Lavender Hill Drive  Suite #100,chinese hotdogs bubbletea,36.1459162454678,-115.333510378131
0,-80_cLgvSa6cItb4OgS_eA,Cha’ahh,NM,Gallup,87301,1.0,5.0,221 W Historic Hwy 66,bubbletea,35.52765,-108.74359
0,NVaRIiBmHZ49vmpRQAOT9Q,Navajo Fry Bread Cart,UT,Teec Nos Pos,86514,7.0,4.0,4 Corners Rd,hotdog shavedice bakeries,36.998315340218,-109.044434353709
0,4XbIqLgjijQw3xsY5GYXfw,O Sweet,NM,Albuquerque,87106,19.0,4.5,2116 Central Ave SE,icecream bubbletea desserts,35.0806911,-106.6228421
1,PR9knuRI_HvQ1CZz4F6ClQ,Bahama Buck's,NM,Albuquerque,87122,59.0,4.0,8810 Holly Ave,shavedice juicebars acaibowls,35.1748373426562,-106.546353069312
2,ohuFbfWP2k3xtARUBnGuHQ,Dakine Hawaiian Ice & Purified Water,NM,Albuquerque,87107,41.0,4.5,4007 Carlisle Blvd NE,shavedice waterstores,35.1265953418831,-106.604536771774
3,05cuex9pWpIsDsbsTILJFw,Palateria Limon,NM,Santa Fe,87507,3.0,3.0,4434 Airport Rd,shavedice juicebars icecream,35.637878,-106.026848
4,zzmjC3jfg3MY_8T0oGmrSQ,Pop-Pop's Italian Ice,NM,Albuquerque,87113,24.0,4.0,1005 Osuna Rd NE,shavedice foodtrucks,35.153847,-106.609275
5,FQL4j6HB_T0mCsCStxBqMA,TeaSu Drinks & Desserts,NM,Albuquerque,87110,48.0,4.5,5010 Cutler Ave NE,bubbletea shavedice,35.10513,-106.589
6,gvXUWVqp_kOkpQN0OmDLMw,Viva Fresca,NM,Albuquerque,87104,6.0,4.0,1909 Bellamah Ave NW,shavedice italian,35.10128807922119,-106.66732393205166
7,eeqG_FLl048NZXzQzyIPKg,TeddyLu Concessions,NM,Albuquerque,87114,1.0,5.0,,foodtrucks shavedice,35.20118713378906,-106.67943572998047
8,5jqYJKZIsDEZJ7foNPRzmg,Bahama Buck's,NM,Albuquerque,87114,62.0,3.5,10131 Coors Rd Nw L-03,juicebars shavedice acaibowls,35.2002894,-106.6519564
9,Hgam4uXpeMGksKiiywU35g,Bahama Buck's,NM,Albuquerque,87109,44.0,4.0,4411 San Mateo Blvd NE,shavedice juicebars desserts,35.132153,-106.587045
10,FaK3rkVcOAgiHdCki0foeA,Bing Tea,NM,Albuquerque,87113,20.0,5.0,,desserts foodtrucks bubbletea,35.18356974468164,-106.59230410056873
11,bC4pq7mUe_eCT5FWER4H1A,Aj’z Wingz & Things,NM,Albuquerque,87114,1.0,5.0,10000 Coors Bypass NW,shavedice chicken_wings,35.19824811311212,-106.65694710227478
12,fuGwbf2OowYCU21W253TqA,Paleteria La Michoacana de Paquime,NM,Albuquerque,87108,64.0,4.5,6501 Central Ave NW,desserts mexican,35.08066,-106.70946
13,M-cMNdEFOWvaD5pZfpQXlQ,Sawmill Market,NM,Albuquerque,87104,222.0,4.0,1909 Bellamah Ave,food_court,35.101456,-106.667269
0,HGwNz3frwIzaBNDgKB-0bQ,Hi BoBa,NM,Albuquerque,87110,119.0,4.5,5504 Menaul Blvd NE,bubbletea,35.1087599,-106.58254
1,WG_GP3_EU_EKThKMbNDjkw,Windmill Tea House,NM,Albuquerque,87111,24.0,5.0,11200 Montgonery Blvd Ne,bubbletea,35.12951288529061,-106.51507591519098
2,KFE9k47Ib9FAG8FxiffVYQ,Starry Moon,NM,Albuquerque,87113,88.0,4.5,8001 Wyoming Blvd NE,desserts coffee bubbletea,35.174981,-106.560889
3,qBzb6TaUEOErDX6LZVv9Ww,Rustic Bubble Tea Cafe,NM,Albuquerque,87123,158.0,4.5,840 Juan Tabo Blvd,bubbletea coffee juicebars,35.085849,-106.513716
4,sNh1eReWDxRgP8qUxHJPfA,Kawaii Boba Cafe,NM,Albuquerque,87120,66.0,4.5,3200 La Orilla Rd NW,bubbletea cafes,35.15963609999525,-106.68099348712211
7,7WJdScM5s1qM1BX0ZZHJbQ,Kung Fu Tea,NM,Albuquerque,87120,76.0,4.5,5600 Coors Blvd NW,bubbletea coffee juicebars,35.1460077398377,-106.68784200636
8,rDw6ZYmJ8zubgI6KO1r-cg,Boba Tea Company,NM,Albuquerque,87122,30.0,4.0,8550 Holly Ave NE,bubbletea,35.175465,-106.544803
10,wTeRoF3YCQHi4M1NH-tL1w,Sweet Cup Espresso & Boba Bar,NM,Albuquerque,87111,100.0,4.0,3517 Wyoming Blvd NE,coffee bubbletea desserts,35.12322,-106.5514199
11,Tk7GjAC1rLYfDw9xsDg8iQ,Sharetea,NM,Albuquerque,87109,28.0,4.0,6125 Montgomery Blvd Ne,bubbletea coffee juicebars,35.131166,-106.578101
12,f9N9JInqx5Awv-9t2zUp6Q,Leona Banh Mi,NM,Albuquerque,87120,126.0,4.5,3250 Coors Blvd NW,vietnamese bubbletea juicebars,35.11970707573963,-106.7009907345143
13,wMmgF7sJEvF_IphZNPz0WA,Ma’s Tea House,NM,Albuquerque,87114,8.0,3.5,6510 Paradise Blvd NW,bubbletea coffee juicebars,35.19169,-106.72515
14,yazrroTDb-r7bn_qfap-Qg,Hi Boba,NM,Rio Rancho,87124,5.0,5.0,2003 Southern Blvd SE,coffee bubbletea juicebars,35.243155014417816,-106.69634410786212
15,up_ONM-MLFRbfnZ0Tp_K0Q,Poki Poki Cevicheria,NM,Albuquerque,87106,339.0,4.5,3422 Central Ave SE,latin asianfusion poke,35.079782,-106.6060083
16,KwMnJehPb4JTInyQyE7s8A,Boba Tea Company,NM,Albuquerque,87114,30.0,3.5,10000 Coors Blvd Bypass NW,coffee bubbletea juicebars,35.197998,-106.656688
17,tfddMufvtZksdL3gJ5jsMw,LeBistro Vietnamese Restaurant,NM,Albuquerque,87110,229.0,4.0,1313 San Pedro NE,vietnamese,35.09062,-106.57789
18,jCTKq9C_Ox_6-nILdkIFUg,Boba Tea Company,NM,Albuquerque,87106,70.0,3.0,3339 Central Ave NE,coffee bubbletea,35.0804769717024,-106.608229627247
19,KzFBT3xJPLKs9gHspEe0Tg,Boba Tea Company,NM,Albuquerque,87110,19.0,3.0,6600 Menaul Blvd NE,coffee bubbletea juicebars,35.1071069,-106.572767
20,ioDk-DnG2lLEvmVgsNU76A,Nana’s Tea House,NM,Albuquerque,87109,16.0,4.5,6300 San Mateo Blvd NE,bubbletea coffee,35.14950765717563,-106.58378606547815
21,CKejbrsMqDcZ-4kOikqvEA,Iron Cafe,NM,Albuquerque,87105,59.0,4.0,2108 Central Ave SE,bubbletea dimsum noodles,35.08068,-106.6235
22,hrh-6Q9pTKvGhLSHq3iEHw,V Wang Cafe,NM,Albuquerque,87106,26.0,2.5,106 Buena Vista Dr SE,chinese bubbletea noodles,35.080578,-106.62378
23,x2htWzkTACyQN9VzkmqhfA,Wing Tyme,NM,Albuquerque,87114,31.0,4.0,6541 Paradise Blvd NW,chicken_wings bubbletea,35.193396,-106.726249
24,i5Mvq3Yzd75Vf6xtPSz0iw,Poki Poki Cevicheria,NM,Albuquerque,87111,346.0,4.5,3517 Wyoming Blvd NE,poke hawaiian asianfusion,35.1232895,-106.551279
12,azYGagV9TGDy5XeDue_wfA,Que Suave Cafe,NM,Socorro,87801,7.0,4.0,915 California St,coffee shavedice juicebars,34.0680286541497,-106.893203146756
5,iS90RLiioqeEoXjwGUOftQ,Coda Bakery,NM,Albuquerque,87108,464.0,4.5,230-C Louisiana Blvd SE,sandwiches bakeries juicebars,35.0739902339678,-106.568084813195
10,e2ZAwTHQUTFeF1Am_N-fhw,Xin Xin Cafe & Boba,NM,Albuquerque,87123,2.0,4.0,417 Tramway Blvd NE,coffee bubbletea,35.073434031977015,-106.49696208872173
24,_CeK_IgGBvbIYNQAjfwmbQ,Boba Splash,NM,Albuquerque,87121,2.0,2.5,1100 Coors Blvd SW,bubbletea coffee juicebars,35.06575500952667,-106.70953709453805
0,-krLpA6uGZDDYVdcz7F4yg,Oasis Ice Cream Shop,NM,Santa Fe,87501,25.0,5.0,418 Cerrilos Rd,icecream mexican shavedice,35.6839405439389,-105.943641811609
6,Z7uRcF5Mgum9V8RdB0BNhg,Raspados Lokos,NM,Española,87532,2.0,5.0,745 N Riverside Dr,desserts shavedice juicebars,36.001482,-106.062482
0,ubfUY6lsLaQGmYIWyY1fIQ,Dumpling Tea & Dim Sum,NM,Santa Fe,87501,192.0,4.0,66 E San Francisco St,chinese,35.68707,-105.9389
2,2Ua7Jg0iK7yY263x2gFY4A,Sushi8 Sweet House,NM,Santa Fe ,87501,7.0,3.0,66 East San Francisco St,coffee bubbletea,35.68676,-105.938922
0,aq7Gp0RteQW6MircTybHSA,Manila Sunrise Store and Gourmet,NM,Farmington,87401,9.0,4.5,3030 E Main St,filipino convenience,36.747778,-108.163437
1,n6O2nlikqGVNolkh4oPB1g,Tea Tok,NM,Farmington,87401,6.0,4.5,531 Ｅmain St,tea bubbletea,36.730285,-108.197819
2,vC1V8n8vA6xx3dm8jpTJvw,Honolulu TeaTok,NM,Farmington,87402,3.0,4.5,5150 E Main St,hawaiian tea bubbletea,36.76922,-108.14485
2,K_URdpjgFazZiO8o9pI3XA,East by Southwest,CO,Durango,81301,258.0,3.5,160 E College Dr,sushi japanese asianfusion,37.26973,-107.88075
0,Lz98Ib5HfXvoVb7Y8lkdFA,The Art of Snacks,NM,Raton,87740,11.0,4.0,1117 S 2nd St,shavedice desserts tradamerican,36.8868004,-104.4398806
0,O9kfi95hUfFuktnX1aqzig,A & B Drive In,NM,Truth or Consequencs,87901,53.0,4.0,211 N Broadway St,burgers,33.128866,-107.251832
0,RnEmNrbpmRRhTsScbSlHOQ,La Michoacana,NM,Deming,88030,6.0,4.5,920 W Spruce St,icecream shavedice,32.266238794486,-107.769439619078
1,Op-_CejBJFYonHXamFzkFA,Zeebs,NM,Las Cruces,88007,64.0,4.5,1970 N Valley Dr,burgers hotdogs,32.3241328230894,-106.801436490726
0,G7MPgwY0oipgLFBsTPt4rQ,Lotus Boba Tea,NM,Las Cruces,88001,12.0,4.5,540 Walton Blvd,bubbletea,32.315,-106.752353
1,0_kqCOSX80t6fwXTV06ZfA,Zero Degrees,NM,Las Cruces,88001,49.0,3.5,1305 E University Ave,juicebars bubbletea asianfusion,32.28519,-106.7526
2,cVWHmHjJguJ7jCc40ZGNAA,Boba Cafe,NM,Las Cruces,88001,66.0,3.5,1900 S Espina St,cafes,32.290488056254,-106.76062314976
3,xpQRi4Km7NChxboN2s0Prg,Boba Tea Company,NM,Las Cruces,88011,12.0,3.5,700 S Telshor Blvd,bubbletea,32.310614,-106.743186
4,LYSEbWxSOofKuzng3-z45g,Asian Buffet,NM,Las Cruces,88001,19.0,2.5,2340 E Griggs Ave,buffets asianfusion,32.31552,-106.75501
2,GzlCsEG89rT9aIs8ODp3QA,Bahama Buck's,TX,El Paso,79934,24.0,4.5,10771 Gateway S Blvd,shavedice juicebars acaibowls,31.926179257735438,-106.43737866009833
5,2O9gBtbRGYFQ6wZtE_ZEiA,Yogo Berry,TX,El Paso,79835,2.0,3.5,7051 S Desert Blvd,juicebars icecream bubbletea,31.912144,-106.58544
0,U6oXXcYdz5u2h-5jas2oDQ,Birdwell's Vintage Vibes,NM,Silver City,88061,5.0,5.0,808 N Bullard St,coffee bubbletea juicebars,32.772609338969,-108.27597081860284
1,VSO314IQB5DhHbEWrqqvFw,Thirsty Drink,NM,Silver City,88061,3.0,3.5,108 E College,bubbletea coffee juicebars,32.77437383,-108.27548967
1,giyJbN1Dvdb2ZEHuexskKQ,Blue Collar Shaved Ice,TX,El Paso,79912,7.0,5.0,750 Sunland Park Dr,foodtrucks shavedice desserts,31.8144216,-106.5440443
2,1k1xYaucVDAKjktbFd5ZBQ,Ono Shave Ice Cafe,TX,El Paso,79936,9.0,5.0,1891 N Lee Trevino Dr,shavedice bubbletea coffee,31.767595,-106.320195
3,M5G8oQW3EwULRDvM5OtLLg,Okashi Taiyaki,TX,El Paso,79912,4.0,4.5,810 East Redd Rd,desserts icecream,31.860491793640993,-106.55173286086921
4,XdM0VP8jvcGQ1rDY5WSFfg,Tropical Ice Cream Shop,TX,El Paso,79936,3.0,5.0,11680 Pebble Hills Blvd,icecream juicebars shavedice,31.781736,-106.285816
5,mgRY9ju5AH9nXsZewtfPLA,Chuco Cones,TX,Canutillo,79835,1.0,5.0,6740 Doniphan Dr,desserts shavedice,31.90371,-106.59918
6,RvRLx_Vsw-vqr0HoDdIajw,Coco Bongos,TX,El Paso,79936,2.0,5.0,11660 Montwood Dr,hotdog juicebars shavedice,31.76666,-106.28615
7,7rsroTwPneXsU0qiAVix4g,Halo-Halo Filipino Food,TX,El Paso,79938,80.0,4.5,12135 Montwood,filipino,31.761363,-106.270847
8,Zh5937e7ujZ4fWWZQ0674Q,Sno Biz,TX,El Paso,79907,1.0,5.0,700 N Zaragoza Rd,shavedice,31.70317,-106.31877
9,yoiABYAbaedPokkAiNBrww,Bahama Buck's,TX,El Paso,79936,48.0,4.5,1718 N Zaragosa Rd,juicebars shavedice acaibowls,31.7499274,-106.279935
10,iM1FuieeZo0YlI2CUDgcJg,Weird’o Beardo Jerky And Snacks,TX,El Paso,79935,3.0,5.0,10978 Montwood Dr,candy desserts chocolate,31.768513508006368,-106.3203966
11,eRO71XtLsM2NyeKoWxpYKQ,Formula,TX,El Paso,79932,8.0,4.5,,foodtrucks desserts bubbletea,31.859130859375,-106.58602142334
12,RaVDEefaQHnwAJ_YpSNksg,El Tropico,TX,Socorro,79927,3.0,5.0,10755 N Loop Dr,shavedice icecream,31.652798,-106.267622
13,JRdEnifrGteILMPLhrln6A,El Chavo Elotes,TX,El Paso,79912,7.0,3.0,6950 N Mesa St,mexican foodstands,31.8357122193452,-106.549289379749
14,06HuigYGSZvUyjWgeZih6Q,Social Ice,TX,El Paso,79936,55.0,4.5,10978 Montwood Dr,desserts icecream foodtrucks,31.768425,-106.320381
15,5HyqpR_l9dTeLkUB1u60Eg,Teapioca Lounge,TX,El Paso,79912,79.0,4.5,140 Montecillo Dr,coffee shavedice bubbletea,31.8084931,-106.514245
16,0YIKPdayScNLErbLTKOYEA,Ooh lala Snacks,TX,Paso,79925,3.0,3.5,8401 Gateway Blvd,shavedice candy,31.77465,-106.38071
17,NRJHLNCIONI-YhQUMaDuKQ,Festival Snacks,TX,El Paso,79912,6.0,3.5,7025 N Mesa St,icecream desserts,31.834894,-106.551958
19,-IwFv3uKASEnLzCUqLhVfQ,Diego's Ice,TX,El Paso,79936,3.0,2.5,1700 N Zaragoza Rd 2,desserts shavedice creperies,31.752611,-106.277341
20,GY5hyYNPyqlARLDZ2ljvew,Tropical Sno,TX,Socorro,79927,1.0,5.0,10005 Alameda Ave,shavedice,31.66203904250199,-106.2961739061702
21,yF_mKejxEEsJglsep59_YA,Bahama Buck's,TX,El Paso,79912,21.0,4.0,436 Redd Rd,juicebars shavedice acaibowls,31.8633551,-106.5717418
22,o4qacZvi0BOefSFj2ylZcw,Pho Tre Bien Bistro,TX,El Paso,79902,100.0,3.0,3737 N Mesa St,vietnamese,31.7871973555932,-106.506661305575
23,T3--ciPM62KG8kSn8HdUvg,Bahama Buck's,TX,El Paso,79938,14.0,4.0,12380 Edgemere Blvd,shavedice juicebars acaibowls,31.7918387337243,-106.260622378041
24,k_mBv8C86Gy2AJthOcbAMQ,Abby’s Snacks & Pastries,TX,El Paso,79938,1.0,5.0,14260 Montana Ave,desserts shavedice bakeries,31.816451529445633,-106.18927482567202
25,tbjEeZxk9MSoWLy4P6SSDg,Teapioca Lounge - Zaragoza Shops,TX,El Paso,79938,12.0,3.0,2601 N Zaragoza Rd,bubbletea juicebars coffee,31.77913180469413,-106.24950001350507
3,FWPWiCAr6ElqxnhB2fW3Nw,Maggies Shaved Ice,NM,Cloudcroft,88317,3.0,4.5,204 Burro Ave,shavedice,32.95851,-105.74514
1,iwMV42PzpRkUJ3gNVva11w,Boba Mi Amor,TX,El Paso,79912,13.0,4.0,7226 N Mesa St,bubbletea desserts icecream,31.8370975,-106.55673
2,aTOsws9u2CmTAH_TxhUwvA,Tokyo Tea & More,TX,El Paso,79904,11.0,4.5,6100 Dyer St,bubbletea,31.833365,-106.444838
3,Pe2xLYMADiuW6nqXdxfg4A,Boba Kicks,TX,El Paso,79902,10.0,4.5,2900 N Mesa St,shoes bubbletea,31.77897844123577,-106.5041855847427
4,O9yxDAu45u5Tmul_J-C8Tw,Habit@T Boba Tea Express,TX,El Paso,79925,45.0,3.0,6101 Gateway W Blvd,bubbletea coffee tea,31.7837794849391,-106.411644313245
5,xBTJVCdocp8LZ4_77zrUJA,Yogo Berry,TX,El Paso,79912,12.0,3.0,931 N Resler Dr,icecream bubbletea juicebars,31.860987856167192,-106.55932779999559
6,WBQ5N87uAFlX2a7TSmNYSQ,Kinley's House Coffee & Tea,TX,El Paso,79902,180.0,4.0,2231 N Mesa St,coffee icecream creperies,31.77371,-106.50066
8,RjmsSNOvrs-toVogtcIUjQ,Tea Top,TX,El Paso,79912,2.0,4.5,5380 N Mesa St,bubbletea,31.81802,-106.51477
10,HkSJRFiCmJRI8PzU8TrGCw,Donuts N Boba,TX,El Paso,79924,16.0,5.0,9601 McCombs St,bubbletea donuts,31.884987,-106.406878
11,nPxst2t1LH6bHLAubki6cg,Yogoberry,TX,El Paso,79925,11.0,4.5,8900 Viscount Blvd,desserts icecream,31.7734724913826,-106.37205702278
12,6ujHqUf2TAr3Ud9Ot0y0Pw,Kung Fu Tea,TX,El Paso,79925,1.0,5.0,8889 Gateway W Blvd,bubbletea coffee juicebars,31.77024,-106.37136
13,fsacY1ZWs7LeIxNqJHgcpw,Boba Tea,TX,El Paso,79925,3.0,2.0,8401 Gateway Blvd W A01E,bubbletea,31.775341,-106.379126
14,r8syHrMxktFYq13kZSfwnw,Jun’s Ramen & Sushi,TX,El Paso,79932,13.0,4.0,7933 N Mesa St,sushi ramen bubbletea,31.83929231767838,-106.57539278437052
15,PKKxjzL9gbeGGIDSKQBmHA,Yamaguchi Ramen,TX,El Paso,79902,67.0,4.5,3800 N Mesa St,poke sushi ramen,31.78708,-106.50581
16,YjVrrCdQHRn7VKBT9W1FhA,Umami Ramen House,TX,El Paso,79912,46.0,4.0,5380 N Mesa St,ramen chinese noodles,31.8181159513169,-106.514631137252
17,AMrYCKSCp_CxjryLCuLesw,Pho Tre Bien Express,TX,El Paso,79904,151.0,3.5,4309 Fred Wilson Ave,vietnamese,31.8261711001685,-106.43989130185
18,OgLjJvhybeZ-ke3jqyODYg,Saigon Taste,TX,El Paso,79912,157.0,3.5,6940 N Mesa St,vietnamese,31.83623456232115,-106.54860352088275
19,CA5pa5AshF9agZAJbtqycQ,Pho So,TX,El Paso,79925,65.0,3.0,9501 Gateway Blvd W,vietnamese,31.7628395070283,-106.360472101147
20,LTBx5uA8UQlcOs8mgmnCSA,Tea Cafe’,TX,El Paso,79905,2.0,4.5,6070 Gateway Blvd E,bubbletea vietnamese sandwiches,31.780180637487383,-106.41085749027955
21,jbSGwLT_3ZDOUTdggeBAgw,Panda Express,TX,El Paso,79924,45.0,2.0,9500 Dyer Street,chinese hotdogs bubbletea,31.88173,-106.41975
23,hvLbNkEfYflIIRS225t3EA,Pho Tre Bien,TX,El Paso,79915,385.0,4.0,6946 Gateway Blvd E,vietnamese seafood noodles,31.773097,-106.382309
24,c0DGTeYgOhzRWxaVpEoKuQ,Uphead,TX,El Paso,79902,1.0,1.0,2900 N Mesa St,shoes bubbletea accessories,31.7792922,-106.5043674
25,_Ym3BqWaUvzMiQGbc3Dc9Q,The Gochu Handcraft Korean BBQ Bowl,TX,El Paso,79924,37.0,4.5,9659 Dyer St,bbq korean sandwiches,31.8888855304293,-106.416041851044
26,m9ytCMt3oEh3ay0L7cYpQw,Pho Bistro,TX,El Paso,79925,57.0,3.5,1201 Airway Blvd,vietnamese,31.7819536925339,-106.395065970719
3,Y5p8nmAIZcYvw2FsmwqcUw,Boba Express,TX,El Paso,79936,1.0,5.0,11360 Montwood Dr,bubbletea coffee icecream,31.76835,-106.2997
13,ASyjBgQADIbqrgSChj3Z_A,Donuts N Boba,TX,El Paso,79936,1.0,5.0,2931 George Dieter Dr,bubbletea donuts juicebars,31.781580221638396,-106.3029236
15,cTjXOYnSXYzrSEBFneQHgQ,Ice & Pan,TX,El Paso,79938,66.0,4.5,2301 N Zaragoza Rd,desserts icecream,31.777145642360644,-106.25244673801369
22,4_g1ZFVEl5Dv0CaACyO-7g,Donuts N Boba2,TX,El Paso,79936,1.0,5.0,2931 George Dieter Dr,donuts bubbletea coffee,31.781562,-106.3029236
27,FFv_Y2I00R4qinOMVfYd2g,Viet Restaurant,TX,El Paso,79936,268.0,4.5,1700 N Zaragoza Rd,vietnamese,31.752779,-106.2765329
29,UG8LJAzM7zH94NOw09XohQ,Wicked Pho,TX,El Paso,79936,190.0,4.0,12102 Montwood Dr,vietnamese thai asianfusion,31.76073,-106.27342
38,lwggcQLfbHSZBCg5ajUXWg,Pho 24,TX,El Paso,79936,50.0,4.5,1346 N Lee Trevino Dr,vietnamese,31.74252,-106.32159
40,oVo3zorBcun0_xiIqJvGvw,Yamaguchi Ramen,TX,El Paso,79936,52.0,3.5,2000 N Lee Trevino,ramen poke bubbletea,31.77087,-106.31881
40,K61kmhuZN-pWQQlm7e6xXg,Yogoberry,TX,El Paso,79907,1.0,1.0,615 N Zaragoza Rd,icecream bubbletea juicebars,31.705331,-106.320686
1,DtClX_XhODd4hpTEd8Bxcg,Lotus Boba Tea,NM,Alamogordo,88310,29.0,4.0,1101 Puerto Rico Ave,bubbletea juicebars icecream,32.9004783630371,-105.949226379395
26,l7WodxpQrOOwCcsGEkJUeQ,Panda Express,TX,Horizon City,79928,20.0,2.0,13910 Horizon Blvd. Bldg D,hotdogs chinese bubbletea,31.682174,-106.200525
0,9kupyoNlv32j-xl5dtIKHQ,Tropical Sno,NM,Portales,88130,3.0,5.0,115B E Railroad,shavedice,34.1885505704833,-103.338707573712
1,9-idGBJv7QU2bVSx7-1fQg,Bahama Buck's,NM,Clovis,88101,7.0,4.0,3204 N Prince St,desserts shavedice juicebars,34.43054,-103.196922
2,sLKYZMM9YKXekCDQcrexhg,Ice Express,TX,Muleshoe,79347,1.0,4.0,516 W American Blvd,shavedice,34.2290001,-102.7281494
0,vndTLrtg_38_dTEpG9W2cg,The Haven Coffee and Tea Lounge,NM,Clovis,88101,21.0,4.0,2901 N Prince St,coffee bubbletea juicebars,34.4275685,-103.1961828
1,AF-t1AmBFZEDkTlSn52dgw,Zero Degrees,NM,Roswell,88201,14.0,4.0,4504 North Main St,coffee bubbletea juicebars,33.4498798131182,-104.52431614984
1,mGAgYeBuAi9wE2SXgnBB9A,Fat Straw Drinks,NM,Artesia,88210,4.0,3.5,701 W Main St,coffee bubbletea juicebars,32.841755,-104.4049941
2,avQsIPpMM14S7iTqP7Lizg,Kith + Kin Roasting,NM,Artesia,88210,58.0,3.5,105 N 5th St,coffee sandwiches icecream,32.8423818,-104.4024549
0,ZW5pW1ryvXVS8tVYXEGPtQ,Sno To Go South,NM,Carlsbad,88220,11.0,3.5,1713 S Canal St,shavedice burgers mexican,32.403902,-104.224653
1,1V_Ds6obH5DSI-6fYO9EYA,Sno To Go,NM,Carlsbad,88220,3.0,3.5,801 N Pate St,burgers hotdogs newamerican,32.42893,-104.25434
0,Yg6VAVOK4tlawlAK0cUTMw,Heavenly Snow,TX,Andrews,79714,1.0,4.0,718 N Main St,shavedice,32.3257972887871,-102.548660896719
1,gfNzfqPhRMai76L21alAXQ,Snochinnos,NM,Hobbs,88240,2.0,4.0,224 E Navajo Dr,desserts shavedice sandwiches,32.7403349,-103.1338783
2,8RssRky1AcHQhXSaPGQQiw,The Pink Castle Java Cafe,TX,Seminole,79360,1.0,1.0,408 SW Ave G,shavedice icecream hotdog,32.71136383,-102.64942017
0,GxWMzAwSmVdzw5-Kl9xYAA,Hannah’s Asian Foods & Boba Tea,TX,Odessa,79764,3.0,4.0,,juicebars bubbletea foodtrucks,31.8731498718262,-102.389106750488
0,2A2lLD2orekNySYd58xVsw,Hula's Hawaiian Shave Ice,NM,Ruidoso,88345,3.0,4.5,2415 Sudderth Dr,shavedice,33.3311961056437,-105.67043549817
3,1IdWJ3cu4Blp1agwPzdrdQ,THE KRAFTY KUP,NM,Ruidoso,88345,3.0,3.5,350 Sudderth Dr,desserts coffee juicebars,33.32271,-105.63518
2,qN5m6AxgjiYfF091myO3Zw,Chill Out by Simple Sugars,NM,Ruidoso,88345,27.0,4.5,2312 Sudderth Dr,icecream juicebars bubbletea,33.3313001,-105.6688563
0,PnYl6b62XwK8Igy0OXc_pQ,Pho & Italian Restaurant,TX,Monahans,79756,17.0,4.5,117 W Sealy Ave,italian vietnamese bubbletea,31.5944449852307,-102.894008190526
0,xhYW3cNfYftua439-cJ2FQ,Mama's Sweet Ice,NV,Beatty,89003,4.0,5.0,,coffee shavedsnow foodtrucks,36.9108810424805,-116.758895874023
1,mogQugMndvSbu6HAr3d3xA,Timbisha Tacos,CA,Death Valley,92328,81.0,4.0,900 Indian Village Rd,tradamerican shavedice tacos,36.45203549017116,-116.8728364
3,H7UbuY7EHM7bOPGyU4KaJg,U.S. Snow Shave Ice,UT,St. George,84770,3.0,4.0,1930 W Sunset Blvd,shavedice,37.1233222433468,-113.6250600842101
0,x--NuhveW5OAVma0kFnYUQ,Sno Shack,CA,Bishop,93514,12.0,4.5,1190 N Main St,shavedice foodstands,37.3736423251775,-118.393884077668
3,_VEwJKLOEGQoKvVqC3kN-w,The Big Chill,UT,La Verkin,84745,18.0,5.0,495 N State St,shavedice,37.2051385,-113.2721584
11,r9JkyDbVH02Qbq3GRcb1qg,Fizzy Bees Cafe,UT,La Verkin,84745,1.0,4.0,160 S State St,shavedice foodstands sandwiches,37.1983,-113.27435
0,ywvjMAx9YQG212g5CG57qQ,Susie Scoops Ice Cream Donuts & Smoothies,NV,Incline Village,89451,120.0,4.0,899 Tahoe Blvd,icecream juicebars donuts,39.2493,-119.95296
1,CL4_LKcLRbGTPqnnjrY3cQ,Tahoe Pops,CA,South Lake Tahoe,96150,20.0,4.0,900 Ski Run Blvd,shavedice desserts icecream,38.94945470231686,-119.9592777
2,z5w0XHFy1D289rpliLfoaA,Kona Ice of Carson City,NV,Carson City,89701,3.0,5.0,,foodtrucks shavedice,39.161548614502,-119.756217956543
3,cEYGOsEVKYh164uwx0k16g,Reno/Sparks Snowie Bus,NV,Sparks,89431,1.0,4.0,,shavedice foodtrucks,39.54132,-119.76946
4,kf8HXRAZxtC7xVR0Tg-rhA,Num Num Boba,NV,Reno,89523,118.0,4.5,6300 Mae Anne Ave,coffee juicebars bubbletea,39.527494,-119.885938
5,6czqMScx8MRDirv7fxX7pw,Frankie's Fruit Bar,NV,Reno,89502,36.0,4.5,205 E Moana Ln,shavedice markets juicebars,39.4928018964633,-119.792997176173
6,v4vL6XCqJHkxTDTS8HmgKQ,Antojitos Colibri,NV,Reno,89502,75.0,4.5,880 S Wells Ave,juicebars icecream shavedice,39.5175849293382,-119.803131710758
7,vm_ao4mhMOLNoLxkXsV40w,Chicken In A Barrel BBQ- South Lake Tahoe,CA,South Lake Tahoe,96150,378.0,4.5,2100 Lake Tahoe Blvd,bbq burgers,38.915058,-120.000858
8,Nw31XH12PQjDmiZKI8YPZw,Human Bean of Minden,NV,Minden,89423,15.0,3.0,1654 Hwy 395,coffee,38.957031,-119.771883
9,GKvgIOXcqhddaGXa8zLPOw,Sweet Paradise Ice Cream Truck,NV,Reno,89502,4.0,3.5,,shavedice foodtrucks icecream,39.493568420410156,-119.77874755859375
10,dR-92EzMnET8acIoZ7jD_Q,"The Human Bean Carson City, Lincoln Hwy",NV,Carson City,89701,10.0,3.0,3300 Lincoln Hwy,coffee,39.177542799335455,-119.73162750204816
11,mcr1lAEdvGLMJhuPwI3I2A,101 Taiwanese Cuisine,NV,Reno,89503,1170.0,4.0,400 W 5th St,chinese taiwanese bubbletea,39.5298674133371,-119.820172809245
12,3CdKup6WUOQI3LmOH7PhdA,Raspados La perla Jalisco,NV,Reno,89502,29.0,4.5,469 E Plumb Ln,juicebars shavedice mexican,39.506157,-119.797141
13,cBp1fn2LXpSHe4VbTXLYEw,Bab Café - Reno,NV,Reno,89501,477.0,4.5,303 W 3rd St,korean chicken_wings,39.528196,-119.817163
14,-3xX_IfttKjPJ792BOBJ-Q,L&L Hawaiian Barbecue,NV,Reno,89523,242.0,3.0,5150 Mae Anne Ave,hawaiian bbq,39.531652,-119.867203
15,6tXfFVJJwfWOY9n7LK8dVw,Siu Asian Express,NV,Sparks,89431,93.0,4.0,754 N McCarran Blvd,bubbletea chinese coffee,39.54118,-119.731335
16,5bvUvt7qj-f23h2BCCDHUg,Calafuria,NV,Reno,89501,189.0,4.0,725 S Center St,italian venues popuprestaurants,39.51861,-119.80847
17,6SYG6M05gIwaj3doas6X9Q,Tealeaf Cafe,NV,Reno,89511,131.0,4.0,6775 Sierra Center Pkwy,bubbletea cafes,39.4652229024005,-119.781204331627
18,D_-w6oXNj_33E7-urbSLLQ,The Human Bean,NV,Reno,89511,154.0,4.5,8050 S Virginia St,coffee bagels juicebars,39.45434,-119.77756
19,w8C_pRQvdIXQ5VRWlW2M3w,The Human Bean,NV,Reno,89502,38.0,4.5,3380 Kietzke Ln,coffee bagels juicebars,39.4921888,-119.7886223686596
20,TtUjKI-C8wFeoEwTApPi-g,Carniceria La Chiquita Meat Market & Deli,NV,Reno,89502,78.0,4.0,4385 Neil Rd,mexican butcher,39.48453,-119.78063
0,IzcRdF79AOx9B9vRQyPxUQ,Bubble Tea Station Corner,NV,Carson City,89701,5.0,5.0,2073 E William St,bubbletea,39.17339713097634,-119.74444695746853
1,kXfVql_wkaS7agu6gpzEkw,Bubble Tea Station Cafe,NV,Sparks,89434,152.0,4.5,1495 E Prater Way,desserts bubbletea,39.541538904673,-119.716255009442
2,e1l1IlKpL7FJlM4ivnoO2g,Bubble Tea Station Cafe,NV,Reno,89502,162.0,4.0,999 S Virginia St,bubbletea coffee,39.5147817603956,-119.807910844269
4,JU4Ea-xwPCGOUG93TUrVmA,1 2 Tea,NV,VC Highlands,89521,45.0,4.5,199 Damonte Ranch Pkwy,bubbletea juicebars,39.421136,-119.755608
6,zPtVKJE4jlODsRhBX0wooQ,Kim’s TeaHouse,NV,Gardnerville,89410,10.0,4.5,1328 US Hwy 395 N,bubbletea sandwiches icecream,38.9347319,-119.7388655
7,XMLnoggQT4nddBWJ6PepVg,TeaZenTea - South Lake Tahoe,CA,South Lake Tahoe,96150,43.0,4.5,4125 Lake Tahoe Blvd,coffee juicebars bubbletea,38.958659151839385,-119.94283840422975
8,OuZROQE7Hce_Fr3AeAtcKQ,Tahoe Bear Tea House,CA,South Lake Tahoe,96150,52.0,4.0,3668 Lake Tahoe Blvd,bubbletea coffee juicebars,38.94875,-119.95677
9,6Zs_1sQFBUSA_K0c7x_Mpg,Num Num Boba,NV,Reno,89511,22.0,5.0,7689 S Virginia St,bubbletea juicebars,39.45643486724776,-119.7817824035883
10,GOiJ4IggzshvIdW7Az8VNg,Reno tea bar,NV,Sparks,89431,35.0,3.0,1330 Scheels Dr,coffee bubbletea juicebars,39.532352,-119.720392
11,CJGAvl-o4yW4oup2g7cXRA,TV Donuts,CA,South Lake Tahoe,96150,152.0,4.5,1036 Emerald Bay Rd,donuts coffee bubbletea,38.91242833,-120.00584833
13,qKvQzhukpomdY3ITSSJ5eg,"1, 2, Tea",NV,Reno,89509,200.0,4.0,655 Booth St,bubbletea,39.5155994981143,-119.827501883087
15,Kul4eM5SoI36a0jWk5Zu0A,Bubbletea Station,NV,Reno,89502,69.0,3.0,5000 Meadowood Mall,bubbletea,39.4738371503853,-119.782743206152
16,2E5fh57OvOQMWwxxEOkN8A,SIU Korean BBQ,NV,Sparks,89431,325.0,4.0,754 N McCarran Blvd,korean bbq asianfusion,39.541174,-119.731334
17,Ed3yyBJMOftPeqzIaQuCPA,ijji Noodle House & Poke Don,NV,Reno,89521,505.0,4.5,199 Damonte Ranch Pkwy,noodles vietnamese ramen,39.421137,-119.755609
18,lLDB5H7_Uqpc9hUd_A3Xaw,Biggest Little Boba Shop,NV,Reno,89501,40.0,3.5,135 Roff Way,bubbletea coffee,39.52528179999999,-119.8166111
19,vXhrovlPWEnPKCbZMcsZDA,Honey Bakery,NV,Reno,89503,246.0,4.5,403 Keystone Ave,bakeries desserts dimsum,39.5268129898252,-119.829493686192
20,M0NT6MBWg5-76wyQXMzJWg,Bluefin Poke,NV,Reno,89501,108.0,4.5,170 S Virginia St,poke sushi bubbletea,39.5238749925283,-119.811081394208
21,7uxbXQ8LQ45fPlgiLZWuhA,Cafe De Thai,NV,Reno,89501,397.0,3.0,760 S Virginia St,thai,39.51836,-119.808876
8,xYca_PTaOxhNm9ky7oExvg,The Human Bean,NV,Sparks,89431,16.0,4.0,800 Holman Way,coffee,39.54933017890383,-119.75283137934575
12,0oyytCn4-fwXVqQ1aTgnVA,Maui Jane's Hawaiian BBQ,NV,Reno,89502,52.0,3.0,2900 Clear Acre Ln,hawaiian bbq,39.557081,-119.790609
14,tpW26ob4-YTGLQr6xC7mbA,Java Ship Coffee,NV,Reno,89512,22.0,5.0,,foodtrucks coffee vegan,39.5552177429199,-119.801254272461
5,8u70WVawnsReBWNv7IXNSg,Ding Tea Reno,NV,Reno,89512,95.0,4.5,2900 Clear Acre Ln,bubbletea cafes juicebars,39.55748076973229,-119.7912168228914
17,A_5s3h2IJAKDbc27aSZKTA,China Lee,NV,Sparks,89434,19.0,2.5,2838 Vista Blvd,chinese,39.557289,-119.704983
20,IkZgPqgwKSuQFAf4s0Z21g,Sawasdee Thai Restaurant,NV,Sparks,89431,249.0,4.0,2855 N McCarran Blvd,thai,39.55527,-119.75334
0,rvDF5DUJOidaCRrOJ_Ksog,Habitat For Insanity,NV,Black Rock City,94124,2.0,5.0,315 F,pizza shavedice playgrounds,40.7769944249816,-119.196981713176
14,vetEEi-77Mlik9SogwlcFg,Nam Van Noodle Cafe,NV,Sparks,89436,230.0,4.0,113 Los Altos Pkwy,vietnamese chinese noodles,39.5824552154727,-119.741217815435
0,EF72WBCFKyLkThNMlWQWAA,Antojitos Doña Chona,NV,Winnemucca,89445,5.0,4.0,91 Melarkey St,shavedice juicebars,40.9749101201818,-117.737887098244
0,Zei83kZkMVd7jv2-eQSV5w,Cherubic Tea,NY,New York,10003,84.0,4.0,300 E 5th St,desserts coffee juicebars,40.72659,-73.98873
0,eypZYK6k9vDN6KwgNOvvyA,Los Alpes Ice Cream Parlor,CA,Huntington Park,90255,55.0,4.5,6410 Rugby Ave,icecream shavedice,33.9814275,-118.226377
1,4pfHXdV1cilbpT5uUlbTGw,Hana Ichimonme,CA,Los Angeles,90013,476.0,4.0,333 S Alameda St,ramen noodles shavedice,34.0445036,-118.238492
2,p6uK6gfm_Ly5popaZdiHmA,New Orleans Snoballs,CA,South Gate,90280,9.0,3.0,8714 Santa Fe Ave,shavedice,33.95771,-118.224822
3,lwSzwBAVpNof76ydUtHLeA,Chichi Dango,CA,Los Angeles,90021,19.0,4.0,746 Market Ct,streetvendors shavedice,34.035509971243,-118.239185814552
4,0yUBff88pBWnPnja_lRhAg,Happy Ice,CA,Compton,90059,8.0,4.0,2175 Rosecrans Ave,desserts icecream foodtours,33.903768,-118.255171
5,JZsXSvkKSRsh0B1EhmFXoQ,Crave it,CA,South Gate,90280,28.0,4.0,8330 Long Beach Blvd,desserts,33.96243,-118.22395
6,L2BYlJq64sg04LGqAQEH2w,Tiki Shack,CA,Los Angeles,90063,8.0,4.5,3787 E 3rd St,shavedice hotdog,34.03353,-118.18647
7,gTSycxVvTgySbLFLuUogkQ,Cascada Refrescante,CA,Los Angeles,90011,118.0,4.0,4312 S Central Ave,juicebars icecream,34.00559933,-118.25606333
8,PtAmYB_PsZcZv6H9Q_lYlw,Cravings,CA,South Gate,90280,72.0,4.5,5720 Imperial Hwy,desserts cafes,33.9291337567048,-118.169013373554
9,W72Vw4dDILjmFtSC0z2CCw,Mitsuru Cafe,CA,Los Angeles,90012,861.0,4.0,117 Japanese Village Plz Mall,japanese,34.0489503672593,-118.240031898022
10,ztQfTG9CGZNKr1WEoKxYZw,Nancy's Water,CA,Huntington Park,90255,9.0,4.5,7848 Pacific Blvd,juicebars icecream desserts,33.9672059565783,-118.225179165602
11,sfHvGqEAniR2mIe1rQaDBQ,It's Boba Time -  Gardena,CA,Gardena,90249,488.0,3.0,15482 S Western Ave,juicebars shavedice coffee,33.890392,-118.3090151
12,J07N7mIrV9Q0n4yKTw1w1w,Jayis Ice Cream,CA,Los Angeles,90044,16.0,5.0,1100 W Florence Ave,shavedice icecream desserts,33.97431,-118.29403
13,tymyFVVCzCzcIswI5OZhYQ,Bionicos Jesus y Erick,CA,Los Angeles,90003,6.0,4.0,6111 S Main St Los Angeles California 90003,shavedice desserts,33.98384,-118.27427
14,nMCeecupa8jfOq7-Dcs6Dg,Kato,CA,Los Angeles,90021,393.0,4.5,777 Alameda St,japanese taiwanese seafood,34.03072,-118.239
15,j_1L5_W4K7V2t4hZvxyEwA,Sisters Bionicos,CA,Huntington Park,90255,3.0,3.5,2700 East Gage Ave,shavedice juicebars icecream,33.9813456235388,-118.222477510571
16,bP7sKPM--JFlMVsXQ2ndmQ,Pinches Majes Antojitos,CA,Los Angeles,90003,2.0,5.0,5971 S Main St,icecream juicebars creperies,33.98548,-118.27429
17,WnEQZDZ86ozJjnAkw8tYRQ,Chinchikurin - Little Tokyo,CA,Los Angeles,90012,745.0,4.0,350 E 1st St,japanese,34.0493955,-118.2397527
18,snChlIg0N-4FiTrGfKfA1g,Eastside Ice,CA,Los Angeles,90022,7.0,5.0,760 S Ford Blvd,shavedice,34.0240064197328,-118.1707238572
19,nrMe8PS4f3Mud56ow-JqGA,Tropical Paradise,CA,Paramount,90723,63.0,4.5,15112 Paramount Blvd,juicebars shavedice waffles,33.89585,-118.1599451
20,T2ARzH7dYYFNHorr4oTQlQ,Raspados Don Manuel,CA,Los Angeles,90033,100.0,4.5,2848 E 4th St,shavedice icecream,34.0377515,-118.2056831
21,Hg3YYJFGFW7eLWzWZXdYTA,Fugetsu-Do,CA,Los Angeles,90012,991.0,4.5,315 E 1st St,candy bakeries desserts,34.05027,-118.24022
22,Cn46NiyjwAkwnc86UUi0RQ,Tony's Donut House,CA,Huntington Park,90255,218.0,3.5,3216 E Florence Ave,donuts sandwiches asianfusion,33.97235,-118.20984
23,jvfGcijEUCUIPCyT7XbGPA,El Adonai Bionicos Y Raspados,CA,Paramount,90723,1.0,5.0,7009 Somerset Blvd,shavedice,33.89652,-118.17727
24,-uxK5hNz5fpeNOgIZo8AKA,Suehiro Cafe,CA,Los Angeles,90012,1517.0,4.0,337 E 1st St,japanese,34.0499,-118.2397
25,fz_kIJtw8klnuoinC9tLdw,Lollicup Extra,CA,Los Angeles,90007,8.0,1.5,3015 S Figueroa St,desserts,34.02495043074713,-118.2786740245053
26,sUYXLb9ewIvAqHdQ3NL4oA,It's Boba Time - South Gate,CA,South Gate,90280,12.0,3.5,5802 Firestone Blvd,bubbletea shavedice acaibowls,33.9489,-118.165
27,BnhE5zN7_STBWLIyIr2esA,I Love Boba,CA,Los Angeles,90005,314.0,4.0,3512 W 8th St,coffee juicebars bubbletea,34.0572749480257,-118.307200807604
28,AibmCc78rkP-WZ7tuFkFJw,Hielo Con Sabor,CA,Cudahy,90201,4.0,5.0,8034 Atlantic Ave,shavedice juicebars icecream,33.9612406329947,-118.184759616852
29,J6pjqclpAE8x6FjM_1s8hg,Little Bean Cafe,CA,Los Angeles,90006,133.0,3.5,3250 W Olympic Blvd,coffee,34.05244,-118.30773
30,OBeJwAlxSnbn1Ipmgq2xow,Cafe Korobokgur,CA,Los Angeles,90005,545.0,3.5,3464 W 8th St,coffee tradamerican waffles,34.0576314,-118.305890526941
31,bFI2KhdzxR1P95dwhkcXiA,It’s Boba Time - Bell,CA,Bell,90201,27.0,3.0,6515 Atlantic Ave,juicebars bubbletea shavedice,33.97670062329292,-118.187368901124
32,LY7ERi0y0OPzk-pNhFadDw,Camphor,CA,Los Angeles,90013,24.0,5.0,923 East 3rd St,french brasseries,34.04611,-118.23427
33,U_r40GZhG6fUpbsFvnK2mg,Broken Shaker at Freehand Los Angeles,CA,Los Angeles,90014,635.0,3.5,416 West 8th St,cocktailbars newamerican,34.044804,-118.25665
34,kLMwIMioGwempP4oCuQp0A,Aloha Café,CA,Los Angeles,90012,734.0,4.0,410 E 2nd St,breakfast_brunch hawaiian salad,34.0472167,-118.238885
35,uR7dWCdESHWt425gHEUMtg,Sari Sari Store,CA,Los Angeles,90013,634.0,3.5,317 S Broadway,filipino,34.051153,-118.249297
36,z4xaKjaIM3uRu06gBkFTIw,MUNCHIES,CA,Los Angeles,90026,1.0,5.0,758 S Alvarado St,shavedice icecream desserts,34.05484,-118.27741
37,tYD3WBPam_ipP66lOr6vbA,Pilica's Bionicos Y Raspados,CA,South Gate,90280,48.0,3.5,3510 Tweedy Blvd,shavedice creperies juicebars,33.94413,-118.20722
38,cb6TE24hBiUtRpD2ScFrYg,Antojitos Martin,CA,Inglewood,90301,182.0,4.0,310 E Florence Ave,mexican desserts juicebars,33.9668344,-118.35104
39,y86XqxYxzGdhqan4rtUMQA,Paleteria Limon,CA,Maywood,90270,80.0,4.5,6100 Atlantic Blvd,icecream desserts,33.9832877375256,-118.185955510334
40,EXgnP1Whrr-iN74fGzhtdQ,Raspados El Trompo,CA,Maywood,90270,10.0,3.5,4224 Slauson Ave,juicebars shavedice,33.9874759,-118.1903115
41,q1AlnPOIwf3QIU-CdIaTfA,La Michoacana Premium,CA,Cudahy,90201,20.0,2.5,7292 Atlantic Ave,shavedice icecream,33.9687280654114,-118.187631643556
42,K4PCQ7eMG4jdA9uKcEYbig,MamMoth Bakery,CA,Gardena,90247,104.0,4.0,1620 W Redondo Beach Blvd,bakeries japanese,33.8894741,-118.3057135
43,G_V5eJFfYlTEERyIPR-8MQ,Otium,CA,Los Angeles,90012,2147.0,4.0,222 S Hope St,newamerican,34.054358,-118.251339
44,6JodWhFmTEbOKPoHkU5xJA,The Best of La Michoacana Ice Cream,CA,Huntington Park,90255,19.0,3.5,7014 Santa Fe Ave,icecream juicebars,33.975252,-118.2301551
45,fuAL8-5XTZVao9KZyVa84w,Cafe Oaxaca,CA,Los Angeles,90002,61.0,4.5,1211 E Century Blvd,coffee juicebars desserts,33.9457849,-118.2537301
46,k9e7TZvEmxPxW-qYUXQWTg,Cate's Corner,CA,Paramount,90723,58.0,5.0,8400 Alondra Blvd,icecream juicebars desserts,33.88884,-118.15288
47,wZVYW2VVFaHq8jwm1EmW6Q,Beard Papa's,CA,Los Angeles,90013,382.0,4.0,333 S Alameda St,bakeries desserts,34.0454521721892,-118.2384498295
48,eW49ne5UOjC4RIUKD5AqWQ,Rutt's Hawaiian Cafe & Catering,CA,Gardena,90247,68.0,3.5,15322 Normandie Ave,hawaiian breakfast_brunch mediterranean,33.89212,-118.30016
49,OmGuRjGfcSCz4cZ22-jMqg,Dana Café Boba,CA,Los Angeles,90037,27.0,4.0,4260 S Vermont Ave,bubbletea icecream juicebars,34.0057006392227,-118.291378095746
0,SNv45MpfQws8GNY69hy2cw,Yum Yum Bionicos,CA,Huntington Park,90255,7.0,5.0,2889 Gage Ave,juicebars icecream peruvian,33.9815441,-118.2183554
1,G18cnw5WFpQWosWHKrGBew,Heyri Cafe,CA,Los Angeles,90005,514.0,3.0,755 S Hobart Blvd,coffee desserts korean,34.0580711364746,-118.305709838867
2,ACuArM-4v-BBzS5KbXAGcA,Boba Time - USC,CA,Los Angeles,90007,227.0,3.5,3617 S Vermont Ave,desserts coffee,34.022454,-118.292196
3,aP8KSphaUDCTXQR9Sy1kYw,Shrimp Daddy,CA,Los Angeles,90001,258.0,4.0,661 E 62nd St,streetvendors seafood hawaiian,33.9834855,-118.2632567
4,ASQzP2QHhoJb1_SzjAEo1g,U Star Cafe,CA,Los Angeles,90021,21.0,4.5,1109 E 12th St,cafes coffee,34.0313299,-118.24729
5,iSZpZgVnASwEmlq0DORY2A,Daikokuya Little Tokyo,CA,Los Angeles,90012,8962.0,4.0,327 E 1st St,ramen noodles,34.05008090944,-118.2401804513
6,nGlLaC0p0naSlgdy2-HCVw,71 Above,CA,Los Angeles,90071,2132.0,4.0,633 W 5th St,tradamerican cocktailbars,34.0511203,-118.2543221
7,hQHhx41q2YGlnj3MkRkf7w,Paraiso Tropical,CA,Los Angeles,90023,4.0,5.0,2700 Hostetter St,shavedice juicebars icecream,34.0254288771816,-118.219537809491
8,ukS7Iau0VUQK_JUjE5offA,Tim’s Thai Tea,CA,Los Angeles,90021,27.0,5.0,1801 E 7th St,thai coffee filipino,34.03507132623616,-118.23430673119543
9,OhO6AqW9AcZlR3xsNAPCjA,Boba Beast,CA,Gardena,90249,312.0,3.0,15204 S Western Ave,coffee juicebars creperies,33.893464,-118.3086267
10,VGsVZG5QyQpNSXUkTgnO_w,It's Boba Time - Little Tokyo,CA,Los Angeles,90012,125.0,2.5,372 E 2nd St,bubbletea juicebars acaibowls,34.04763,-118.23989
11,L1JIPUVxd7q09AZTbeAsZw,Bionicos Jugos Zapopan,CA,Bell Gardens,90201,91.0,4.5,5960 Florence Ave,juicebars vegan mexican,33.9671033620834,-118.158494755626
12,ETndI388uU2Kf2Aglavuug,Raspados y Bionicos  El Machin,CA,Los Angeles,90022,35.0,4.0,4514 Whittier Blvd,juicebars shavedice,34.023116,-118.1706247
13,pO1FnpTADBuZg1JJiTJfGA,Tanota Takoyaki,CA,Los Angeles,90012,289.0,3.5,350 E 1st St,japanese streetvendors,34.074348449707,-118.21558380127
14,l5JMNjgmEe2_2rlrch9rpg,Momo's Shaved Ice,CA,Los Angeles,90007,1.0,1.0,1265 W 37th Dr,shavedice,34.0192909,-118.2963867
15,xY3GGdmvSFUIm-B_RFIjwQ,La Noche Buena Restaurant,CA,Los Angeles,90012,354.0,4.5,12 Olvera St,mexican,34.0571051016069,-118.238055449965
16,LvHsZFHo1citys0AnVSp1g,Raspado Xpress,CA,Los Angeles,90022,140.0,3.5,5540 Whittier Blvd,juicebars icecream,34.0189494,-118.1511091
17,6H9_Gigu0wriUfB55Q21dA,SAY's Raspados de Frutas Naturales,CA,Los Angeles,90006,26.0,4.5,900 S Westmoreland Ave,shavedice juicebars icecream,34.0557284920676,-118.288998972687
18,3Mw_5TFEqLSsRAqqXEuODg,Mambo Juice Truck,CA,Los Angeles,90001,26.0,3.5,,juicebars foodtrucks,33.96699,-118.25206
19,v_qrFz_hQvQX6fUdPYjEXA,Smorgasburg,CA,Los Angeles,90021,1143.0,4.0,777 Alameda St,foodtrucks popuprestaurants streetvendors,34.034644,-118.241766
20,CXqGwT6EZ4rkOKCWJIcytw,Bionicos Daisys,CA,Los Angeles,90006,125.0,4.0,2010 West Pico Blvd,juicebars,34.04656,-118.2818
21,BqIEHiX8NNqAyGnt3_RTUg,Tom N Toms Coffee,CA,Los Angeles,90006,49.0,4.0,2716 W Olympic Blvd,coffee,34.05244,-118.29234
22,mffKHHcyBFq1WBLCQMm0PQ,Juice Bar El Antojito,CA,Compton,90221,36.0,3.0,12919 Atlantic Ave,juicebars icecream,33.9043587,-118.194371
23,T3ArkEkR4NaUTtIRvKq-Ww,Mr Churro,CA,Los Angeles,90012,523.0,4.0,12 E Olvera St,bakeries mexican,34.0574680985545,-118.237440134918
24,xBILL89ThYw14LmreydQlg,Raspados Guadalajara,CA,Huntington Park,90255,1.0,5.0,2821 E Gage Ave,shavedice,33.9817549,-118.2193698
25,TMGJSFYSD1DElnLOW2iJSA,Manmi Bakery,CA,Los Angeles,90005,121.0,4.0,869 S Western Ave,bakeries desserts customcakes,34.0561999,-118.30941
26,r9hSPnxs0eq7txSRrk5P6g,Paran Poong Cha Bakery,CA,Gardena,90247,46.0,4.0,15200 S Western Ave,bakeries desserts cakeshop,33.8934556,-118.3090251
27,gIFp8uWaPQhmd6tZ3Ja5wQ,It's Boba Time - Olympic,CA,Los Angeles,90006,91.0,3.0,1001 S Alvarado St,coffee juicebars shavedice,34.0517488402843,-118.280338123441
28,U0jlkqxGZaqdgqAY6G0PiQ,El Mercadito de Los Angeles,CA,Los Angeles,90063,355.0,4.0,3425 E 1st St,mexican bakeries,34.03697985281636,-118.19422219562671
29,G3gzu8W44QzjmvtKc7Umpg,Raspados Don Manuel,CA,Los Angeles,90033,3.0,4.0,2702 E 4th St,shavedice desserts,34.038572,-118.207997
30,IcYJfuaRy6fOTJz_IUcHTA,It's Boba Time,CA,Los Angeles,90022,22.0,2.5,5452 Whittier Blvd,coffee shavedice juicebars,34.0191881,-118.1522316
31,KQBGm5G8IDkE8LeNY45mbA,Wurstküche,CA,Los Angeles,90013,8650.0,4.0,800 E 3rd St,hotdog german gastropubs,34.0456047058105,-118.236061096191
32,lCfO2gGl1DnGsd5eartU5w,Super Bionicos,CA,Bell,90201,14.0,3.0,3709 Gage Ave,juicebars shavedice sandwiches,33.9794797906187,-118.198898635582
33,AYChrxDirBshlSdt1zU0gg,Shaved Ice - Normandie Park,CA,Los Angeles,90006,1.0,5.0,1550 S Normandie Ave,shavedice,34.0446396,-118.2996826
34,B77LHZ7eqm7FUDwwn6Cd9g,Have Some Coffee,CA,Los Angeles,90005,208.0,3.5,851 S Western Ave,coffee desserts,34.0562676522849,-118.309838042802
35,Dkq_dEkXWAEbeaq-T9Q2-Q,Mega Raspados Don Manuel la Michoacana,CA,Los Angeles,90063,8.0,3.5,4203 E Cesar E Chavez Ave,icecream shavedice,34.04089,-118.17554
36,xcGGRbDXSGzefu_5dI8wqA,Yuchun,CA,Los Angeles,90006,1159.0,4.0,3185 W Olympic Blvd,korean soup noodles,34.05279,-118.30607
37,w2tw_rS7uB-9KwjDkQOg4A,Bull & Dragon,CA,Los Angeles,90007,21.0,4.5,1842 W Washington Blvd,newamerican popuprestaurants,34.0397099,-118.2987956
38,8Xvh8pTRWfSYmdkrrjdT7A,Cofilia,CA,Los Angeles,90021,12.0,5.0,810 East Pico Blvd,coffee sandwiches breakfast_brunch,34.031089,-118.251225
39,wl_WmkhzwPPmn3pa4kB5TQ,Tous Les Jours,CA,Los Angeles,90006,122.0,3.5,2736 W Olympic Blvd,bakeries coffee desserts,34.052049,-118.292903
40,VSJ_BJLJJLywUHPxn33YvQ,Cafe Sprout,CA,Los Angeles,90015,16.0,4.5,1300 S San Pedro St,coffee delis,34.0323181152344,-118.253913879395
41,ODCG41zk-kfSl4qL9s1llg,El Antojito Grill,CA,Los Angeles,90061,72.0,3.5,12730 S Figueroa St,mexican foodtrucks,33.9167442321777,-118.282356262207
42,agHMEH0RfKk3qzGQ8OvdCA,La Sirenita,CA,Maywood,90270,1.0,1.0,4441 Slauson Ave,shavedice juicebars,33.9873008284825,-118.186859451234
43,WtCKdpvyXz9IapYieCyrBA,It's Boba Time,CA,Los Angeles,90014,13.0,3.5,508 W 7th St,coffee bubbletea acaibowls,34.04669,-118.25596
44,dQPbNbNHHdz_wm7Yly4PBg,Boiling Point,CA,Gardena,90247,1188.0,3.5,15488 S Western Ave,taiwanese hotpot comfortfood,33.8896771847258,-118.308846189237
45,ce8bMSZLFTZLlELhEFOo7Q,Boba Loca,CA,Bell,90201,96.0,3.0,6391 Atlantic Ave,juicebars bubbletea candy,33.9782387,-118.1871655
46,f2_W4Eh7bftQXD0oS5QjZA,So-Cal Burgers Chill & Grill,CA,Los Angeles,90022,481.0,4.5,203 S Mednik Ave,burgers sandwiches newamerican,34.03520639434941,-118.162064776721
47,i_UDrGotkP3GD3tkTT9Dqg,I Love Boba,CA,Los Angeles,90006,141.0,3.5,1001 S Vermont Ave,icecream coffee juicebars,34.05211,-118.29195
48,xinlZt7g7kCgNDoapBvdoA,Chosun Galbee,CA,Los Angeles,90019,1729.0,4.0,3330 W Olympic Blvd,korean bbq cocktailbars,34.052144,-118.310428
49,bvIkstDpZN1Y10ccvdWoKQ,Forty’s Bakery and Restaurant ,CA,Los Angeles,90014,2.0,5.0,119 E 7th St,mexican juicebars,34.043631,-118.250588
0,gcnFWZzTPyWzz6SSUmuNWQ,Nicole's Gourmet Coffee & Chocolate Shop,CA,Los Angeles,90006,64.0,4.0,928 S Western Ave,coffee icecream cafes,34.055171,-118.308745
1,u64vv9cYWDA3IKB5ypb-iQ,J & F Ice Cream Shop,CA,Los Angeles,90033,31.0,5.0,1703 Mariachi Plaza De Los Ang,icecream sandwiches juicebars,34.047459,-118.219276
2,kYePAH-xX3K8Zx2JspGIjA,Raspado Don Manuel,CA,Los Angeles,90023,12.0,3.0,1156 S Lorena St,shavedice,34.02234,-118.20394
3,wRGAuYaZY2FzCHcDhAXd_w,Cousimano's Pizza & Italian Delicatessen,CA,South Gate,90280,131.0,2.5,3843 Tweedy Blvd,pizza delis chicken_wings,33.9440862,-118.2033681
4,iOuz4WzpUaG6MOajq4Hi2A,Peking Tavern,CA,Los Angeles,90014,781.0,4.0,806 S Spring St,gastropubs cocktailbars lounges,34.0427621,-118.2536515
5,TKBf8yuL11HH60Im4ANInQ,La Pura Sabrosura,CA,South Gate,90280,1.0,3.0,10518 Atlantic Ave,shavedice,33.9348145,-118.1820908
6,ZIsekcDGiAjF7yruJZSOrQ,Orsa & Winston,CA,Los Angeles,90013,539.0,4.0,122 W 4th St,italian japanese,34.0484549,-118.2479646
7,59gQhKO3HX_whUTt55afeA,Que Delicious,CA,Los Angeles,90022,139.0,4.0,287 Atlantic Blvd,juicebars icecream mexican,34.0325956566495,-118.153842578049
8,aKWajy9U5Bdbr-varSKCQg,It's Boba Time - Dewey,CA,Los Angeles,90006,90.0,3.0,2848 W Olympic Blvd,juicebars coffee bubbletea,34.0525251,-118.29616
9,1eBopkf2zYF3BWi2SWattQ,Cafe Latte,CA,Los Angeles,90006,47.0,3.5,3130 W Olympic Blvd,coffee,34.0523911,-118.3038483
10,sZEsIdIC0jvkBQbxFoDOxg,O2 Cafe,CA,Los Angeles,90006,26.0,3.5,915 S Vermont Ave,cafes coffee,34.055257,-118.29212
0,FKfygibuy4l77jyuDUoOcA,MILK+T,CA,Los Angeles,90012,1144.0,4.0,310 E 2nd St,bubbletea,34.0490233,-118.2415817
1,J21yQEFIMFZjr1aSKOJzlw,Urban Location Boba Tea House,CA,South Gate,90280,101.0,3.5,2661 Santa Ana St,bubbletea coffee juicebars,33.964658,-118.2228677
2,wChdSuRVNKruqttN7xUXTA,Macchiato,CA,Los Angeles,90015,73.0,4.5,418 W Pico Blvd,desserts coffee bubbletea,34.0390649,-118.2650576
3,Q14QkFLL0SAqfOOA1IOV0g,Sunright Tea Studio - Little Tokyo,CA,Los Angeles,90012,148.0,4.5,134 S Central Ave,coffee bubbletea juicebars,34.048222,-118.239
4,ZH-LGEdkmKJDAfjSxfNbKw,Pot of Cha,CA,Los Angeles,90007,250.0,4.5,3013 S Figueroa St,bubbletea coffee juicebars,34.02493,-118.27859
5,CWKiRHfOZKTwTklS7ybR7Q,Cafe Pruvia,CA,Gardena,90247,325.0,4.5,1610 W Redondo Beach Blvd,coffee bubbletea juicebars,33.888541,-118.304177
6,14KKC6ZaNWOHHk98L1mDfA,TeaMorrow Teahouse,CA,Los Angeles,90012,46.0,4.5,331 E 1st St,bubbletea,34.049934717055734,-118.240009
7,62ImBrb1MmZMlo-r9H8kWw,Lollicup Fresh,CA,South Gate,90280,38.0,4.0,4819 Firestone Blvd,bubbletea coffee juicebars,33.952296,-118.18405
8,8XcHBxrx6Cv7fYokuOwm_w,R&B Tea Gardena,CA,Gardena,90249,247.0,4.0,1847 W Redondo Beach Blvd,bubbletea tea,33.8888346,-118.3103612
9,0WyRlH-fxOVLh1b3oEBEEQ,Urth Caffé- Downtown LA,CA,Los Angeles,90013,5563.0,4.0,451 S Hewitt St,coffee desserts sandwiches,34.041974,-118.235426
10,MvrYXJ8vLo8B0ieZOD1A0A,Milkcow Cafe,CA,Los Angeles,90017,88.0,4.0,801 S Hope St,icecream coffee desserts,34.046379,-118.25957
11,VP0w5gKKMJ-rbSOZ2qkmpQ,Boba Indeed,CA,Downey,90242,426.0,4.0,12246 Paramount Blvd,desserts bubbletea tea,33.9290557806463,-118.14786578507
12,PJR8QzsdscNnkqNZ54Wtjg,Factory Tea Bar,CA,Los Angeles,90007,139.0,4.0,2700 S Figueroa St,desserts bubbletea coffee,34.02691,-118.276471
13,MnUSRIJI4eoevIu8QXfWnA,Cup O' Joy,CA,Los Angeles,90007,449.0,4.0,3016 S Figueroa St,coffee taiwanese bubbletea,34.0244938310787,-118.277877924965
15,_Cop86udfkWP81q1VT_Q5A,Little Fluffy Head Cafe,CA,Los Angeles,90014,472.0,4.5,203 W 7th St,bubbletea coffee,34.0447553,-118.2523943
16,nFtfLVNIAsWIgrxMPMwIqQ,Sharp Tea,CA,Los Angeles,90012,129.0,4.0,123 Astronaut Ellison S Onizuka St,bubbletea coffee pancakes,34.050079,-118.242387
17,RYgv9nWL3f0Y79leklYU1A,Ding Tea Gardena,CA,Gardena,90249,414.0,4.0,15400 S Western Ave,bubbletea,33.89193,-118.30883
18,rvTXqR45tGOGR-M8V5upyg,85°C Bakery Cafe,CA,Los Angeles,90017,333.0,3.5,700 Wilshire Blvd,coffee bakeries cakeshop,34.048647,-118.257312
19,KRX-Iq1dS5UTTheDU_ETdw,Gong Cha,CA,Los Angeles,90012,185.0,4.0,318 E 2nd St,coffee juicebars bubbletea,34.04871,-118.24137
